% program   : RTKPOST ver.2.4.3 b34
% inp file  : C:\Users\Danisimo\Desktop\??????\Bamf\bamf3140.19o
% inp file  : C:\Users\Danisimo\Desktop\??????\brdc3140.19n
% inp file  : C:\Users\Danisimo\Desktop\??????\igs20790.sp3
% inp file  : C:\Users\Danisimo\Desktop\??????\igs20790.clk_30s
% obs start : 2019/11/10 00:00:00.0 GPST (week2079      0.0s)
% obs end   : 2019/11/10 23:59:30.0 GPST (week2079  86370.0s)
% pos mode  : PPP Static
% solution  : Combined
% elev mask : 15.0 deg
% dynamics  : off
% tidecorr  : on
% tropo opt : Estimate ZTD+Grad
% ephemeris : Precise
% navi sys  : GPS
% antenna1  :                       ( 0.0000  0.0000  0.0000)
%
% (x/y/z-ecef=WGS84,Q=1:fix,2:float,3:sbas,4:dgps,5:single,6:ppp,ns=# of satellites)
%  GPST                      x-ecef(m)      y-ecef(m)      z-ecef(m)   Q  ns   sdx(m)   sdy(m)   sdz(m)  sdxy(m)  sdyz(m)  sdzx(m) age(s)  ratio
2019/11/10 00:00:00.000  -2420721.4297  -3439856.1739   4778532.8026   6   8   0.0038   0.0037   0.0039   0.0018  -0.0031  -0.0029   0.00    0.0
2019/11/10 00:00:30.000  -2420721.4297  -3439856.1739   4778532.8026   6   8   0.0038   0.0037   0.0039   0.0018  -0.0031  -0.0029   0.00    0.0
2019/11/10 00:01:00.000  -2420721.4297  -3439856.1739   4778532.8026   6   8   0.0038   0.0037   0.0039   0.0018  -0.0031  -0.0029   0.00    0.0
2019/11/10 00:01:30.000  -2420721.4297  -3439856.1739   4778532.8026   6   8   0.0038   0.0037   0.0039   0.0018  -0.0031  -0.0029   0.00    0.0
2019/11/10 00:02:00.000  -2420721.4297  -3439856.1738   4778532.8025   6   8   0.0038   0.0037   0.0039   0.0018  -0.0031  -0.0029   0.00    0.0
2019/11/10 00:02:30.000  -2420721.4298  -3439856.1738   4778532.8025   6   8   0.0038   0.0038   0.0039   0.0018  -0.0031  -0.0029   0.00    0.0
2019/11/10 00:03:00.000  -2420721.4298  -3439856.1737   4778532.8025   6   8   0.0038   0.0038   0.0039   0.0018  -0.0031  -0.0029   0.00    0.0
2019/11/10 00:03:30.000  -2420721.4298  -3439856.1737   4778532.8025   6   8   0.0038   0.0038   0.0039   0.0018  -0.0031  -0.0029   0.00    0.0
2019/11/10 00:04:00.000  -2420721.4299  -3439856.1736   4778532.8025   6   8   0.0038   0.0038   0.0039   0.0018  -0.0031  -0.0029   0.00    0.0
2019/11/10 00:04:30.000  -2420721.4299  -3439856.1736   4778532.8025   6   8   0.0038   0.0038   0.0039   0.0018  -0.0031  -0.0029   0.00    0.0
2019/11/10 00:05:00.000  -2420721.4298  -3439856.1736   4778532.8025   6   8   0.0038   0.0038   0.0039   0.0018  -0.0031  -0.0029   0.00    0.0
2019/11/10 00:05:30.000  -2420721.4298  -3439856.1737   4778532.8025   6   8   0.0038   0.0038   0.0039   0.0018  -0.0031  -0.0029   0.00    0.0
2019/11/10 00:06:00.000  -2420721.4298  -3439856.1737   4778532.8025   6   8   0.0038   0.0038   0.0039   0.0018  -0.0031  -0.0029   0.00    0.0
2019/11/10 00:06:30.000  -2420721.4298  -3439856.1736   4778532.8025   6   8   0.0038   0.0038   0.0039   0.0018  -0.0031  -0.0029   0.00    0.0
2019/11/10 00:07:00.000  -2420721.4298  -3439856.1736   4778532.8024   6   8   0.0038   0.0038   0.0039   0.0018  -0.0031  -0.0029   0.00    0.0
2019/11/10 00:07:30.000  -2420721.4298  -3439856.1736   4778532.8024   6   8   0.0038   0.0038   0.0039   0.0018  -0.0031  -0.0029   0.00    0.0
2019/11/10 00:08:00.000  -2420721.4298  -3439856.1736   4778532.8024   6   8   0.0038   0.0038   0.0039   0.0018  -0.0031  -0.0029   0.00    0.0
2019/11/10 00:08:30.000  -2420721.4298  -3439856.1736   4778532.8024   6   8   0.0038   0.0038   0.0039   0.0018  -0.0031  -0.0029   0.00    0.0
2019/11/10 00:09:00.000  -2420721.4298  -3439856.1736   4778532.8024   6   8   0.0038   0.0038   0.0039   0.0018  -0.0031  -0.0029   0.00    0.0
2019/11/10 00:09:30.000  -2420721.4298  -3439856.1735   4778532.8024   6   8   0.0038   0.0038   0.0039   0.0018  -0.0031  -0.0029   0.00    0.0
2019/11/10 00:10:00.000  -2420721.4298  -3439856.1735   4778532.8024   6   8   0.0038   0.0038   0.0039   0.0018  -0.0031  -0.0029   0.00    0.0
2019/11/10 00:10:30.000  -2420721.4298  -3439856.1734   4778532.8023   6   8   0.0038   0.0038   0.0039   0.0018  -0.0031  -0.0029   0.00    0.0
2019/11/10 00:11:00.000  -2420721.4299  -3439856.1734   4778532.8024   6   8   0.0038   0.0038   0.0039   0.0018  -0.0031  -0.0029   0.00    0.0
2019/11/10 00:11:30.000  -2420721.4299  -3439856.1733   4778532.8024   6   8   0.0038   0.0038   0.0039   0.0018  -0.0031  -0.0029   0.00    0.0
2019/11/10 00:12:00.000  -2420721.4299  -3439856.1733   4778532.8023   6   8   0.0038   0.0038   0.0039   0.0018  -0.0031  -0.0029   0.00    0.0
2019/11/10 00:12:30.000  -2420721.4300  -3439856.1732   4778532.8023   6   8   0.0038   0.0038   0.0039   0.0018  -0.0031  -0.0029   0.00    0.0
2019/11/10 00:13:00.000  -2420721.4300  -3439856.1731   4778532.8023   6   8   0.0038   0.0038   0.0039   0.0018  -0.0031  -0.0029   0.00    0.0
2019/11/10 00:13:30.000  -2420721.4300  -3439856.1731   4778532.8023   6   8   0.0038   0.0038   0.0039   0.0018  -0.0031  -0.0029   0.00    0.0
2019/11/10 00:14:00.000  -2420721.4301  -3439856.1730   4778532.8023   6   8   0.0038   0.0038   0.0039   0.0018  -0.0031  -0.0029   0.00    0.0
2019/11/10 00:14:30.000  -2420721.4300  -3439856.1730   4778532.8022   6   8   0.0038   0.0038   0.0039   0.0018  -0.0031  -0.0029   0.00    0.0
2019/11/10 00:15:00.000  -2420721.4300  -3439856.1730   4778532.8022   6   9   0.0038   0.0038   0.0039   0.0018  -0.0031  -0.0029   0.00    0.0
2019/11/10 00:15:30.000  -2420721.4300  -3439856.1730   4778532.8022   6   9   0.0038   0.0038   0.0039   0.0018  -0.0031  -0.0029   0.00    0.0
2019/11/10 00:16:00.000  -2420721.4300  -3439856.1731   4778532.8022   6   9   0.0038   0.0038   0.0039   0.0018  -0.0031  -0.0029   0.00    0.0
2019/11/10 00:16:30.000  -2420721.4301  -3439856.1731   4778532.8023   6   9   0.0038   0.0038   0.0039   0.0018  -0.0031  -0.0029   0.00    0.0
2019/11/10 00:17:00.000  -2420721.4301  -3439856.1731   4778532.8023   6   9   0.0038   0.0038   0.0039   0.0018  -0.0031  -0.0029   0.00    0.0
2019/11/10 00:17:30.000  -2420721.4301  -3439856.1731   4778532.8023   6   9   0.0038   0.0038   0.0039   0.0018  -0.0031  -0.0029   0.00    0.0
2019/11/10 00:18:00.000  -2420721.4301  -3439856.1731   4778532.8023   6   9   0.0038   0.0038   0.0039   0.0018  -0.0031  -0.0029   0.00    0.0
2019/11/10 00:18:30.000  -2420721.4301  -3439856.1731   4778532.8024   6   9   0.0038   0.0038   0.0039   0.0018  -0.0031  -0.0029   0.00    0.0
2019/11/10 00:19:00.000  -2420721.4301  -3439856.1730   4778532.8024   6   9   0.0038   0.0038   0.0039   0.0018  -0.0031  -0.0029   0.00    0.0
2019/11/10 00:19:30.000  -2420721.4302  -3439856.1730   4778532.8024   6   9   0.0038   0.0038   0.0039   0.0018  -0.0031  -0.0029   0.00    0.0
2019/11/10 00:20:00.000  -2420721.4302  -3439856.1730   4778532.8025   6   9   0.0038   0.0038   0.0039   0.0018  -0.0031  -0.0029   0.00    0.0
2019/11/10 00:20:30.000  -2420721.4302  -3439856.1730   4778532.8025   6   9   0.0038   0.0038   0.0039   0.0018  -0.0031  -0.0029   0.00    0.0
2019/11/10 00:21:00.000  -2420721.4302  -3439856.1730   4778532.8026   6   9   0.0038   0.0038   0.0039   0.0018  -0.0031  -0.0029   0.00    0.0
2019/11/10 00:21:30.000  -2420721.4303  -3439856.1730   4778532.8027   6   9   0.0038   0.0038   0.0039   0.0018  -0.0031  -0.0029   0.00    0.0
2019/11/10 00:22:00.000  -2420721.4303  -3439856.1729   4778532.8028   6   9   0.0038   0.0038   0.0039   0.0018  -0.0031  -0.0029   0.00    0.0
2019/11/10 00:22:30.000  -2420721.4303  -3439856.1729   4778532.8028   6   9   0.0038   0.0038   0.0039   0.0018  -0.0031  -0.0029   0.00    0.0
2019/11/10 00:23:00.000  -2420721.4303  -3439856.1730   4778532.8029   6   9   0.0038   0.0038   0.0039   0.0018  -0.0031  -0.0029   0.00    0.0
2019/11/10 00:23:30.000  -2420721.4303  -3439856.1729   4778532.8029   6   9   0.0038   0.0038   0.0039   0.0018  -0.0031  -0.0029   0.00    0.0
2019/11/10 00:24:00.000  -2420721.4303  -3439856.1729   4778532.8028   6   8   0.0038   0.0038   0.0039   0.0018  -0.0031  -0.0029   0.00    0.0
2019/11/10 00:24:30.000  -2420721.4304  -3439856.1728   4778532.8027   6   9   0.0038   0.0038   0.0039   0.0018  -0.0031  -0.0029   0.00    0.0
2019/11/10 00:25:00.000  -2420721.4304  -3439856.1727   4778532.8026   6   9   0.0038   0.0038   0.0039   0.0017  -0.0031  -0.0029   0.00    0.0
2019/11/10 00:25:30.000  -2420721.4304  -3439856.1726   4778532.8025   6   9   0.0038   0.0038   0.0039   0.0017  -0.0031  -0.0029   0.00    0.0
2019/11/10 00:26:00.000  -2420721.4304  -3439856.1727   4778532.8026   6   9   0.0038   0.0038   0.0039   0.0017  -0.0031  -0.0029   0.00    0.0
2019/11/10 00:26:30.000  -2420721.4303  -3439856.1728   4778532.8026   6   9   0.0038   0.0038   0.0039   0.0017  -0.0031  -0.0029   0.00    0.0
2019/11/10 00:27:00.000  -2420721.4303  -3439856.1729   4778532.8026   6   9   0.0038   0.0038   0.0039   0.0017  -0.0031  -0.0029   0.00    0.0
2019/11/10 00:27:30.000  -2420721.4303  -3439856.1729   4778532.8025   6   9   0.0038   0.0038   0.0039   0.0017  -0.0031  -0.0029   0.00    0.0
2019/11/10 00:28:00.000  -2420721.4303  -3439856.1729   4778532.8025   6   9   0.0038   0.0038   0.0039   0.0017  -0.0031  -0.0029   0.00    0.0
2019/11/10 00:28:30.000  -2420721.4303  -3439856.1729   4778532.8025   6   9   0.0038   0.0038   0.0039   0.0017  -0.0031  -0.0029   0.00    0.0
2019/11/10 00:29:00.000  -2420721.4304  -3439856.1727   4778532.8024   6   9   0.0038   0.0038   0.0039   0.0017  -0.0031  -0.0029   0.00    0.0
2019/11/10 00:29:30.000  -2420721.4304  -3439856.1725   4778532.8023   6   9   0.0038   0.0038   0.0039   0.0017  -0.0031  -0.0029   0.00    0.0
2019/11/10 00:30:00.000  -2420721.4304  -3439856.1724   4778532.8023   6   9   0.0038   0.0038   0.0039   0.0017  -0.0031  -0.0029   0.00    0.0
2019/11/10 00:30:30.000  -2420721.4304  -3439856.1723   4778532.8022   6   9   0.0038   0.0038   0.0039   0.0017  -0.0031  -0.0029   0.00    0.0
2019/11/10 00:31:00.000  -2420721.4305  -3439856.1721   4778532.8022   6   9   0.0038   0.0038   0.0039   0.0017  -0.0031  -0.0029   0.00    0.0
2019/11/10 00:31:30.000  -2420721.4305  -3439856.1719   4778532.8021   6   9   0.0038   0.0038   0.0039   0.0017  -0.0031  -0.0029   0.00    0.0
2019/11/10 00:32:00.000  -2420721.4306  -3439856.1718   4778532.8021   6   9   0.0038   0.0038   0.0039   0.0017  -0.0031  -0.0029   0.00    0.0
2019/11/10 00:32:30.000  -2420721.4307  -3439856.1718   4778532.8021   6   9   0.0038   0.0038   0.0039   0.0017  -0.0031  -0.0029   0.00    0.0
2019/11/10 00:33:00.000  -2420721.4307  -3439856.1718   4778532.8022   6   9   0.0038   0.0038   0.0039   0.0017  -0.0031  -0.0029   0.00    0.0
2019/11/10 00:33:30.000  -2420721.4307  -3439856.1717   4778532.8021   6   9   0.0038   0.0038   0.0039   0.0017  -0.0031  -0.0029   0.00    0.0
2019/11/10 00:34:00.000  -2420721.4307  -3439856.1717   4778532.8020   6   9   0.0038   0.0038   0.0039   0.0017  -0.0031  -0.0029   0.00    0.0
2019/11/10 00:34:30.000  -2420721.4307  -3439856.1717   4778532.8019   6   8   0.0038   0.0038   0.0039   0.0017  -0.0031  -0.0029   0.00    0.0
2019/11/10 00:35:00.000  -2420721.4307  -3439856.1717   4778532.8020   6   8   0.0038   0.0038   0.0039   0.0017  -0.0031  -0.0029   0.00    0.0
2019/11/10 00:35:30.000  -2420721.4307  -3439856.1718   4778532.8020   6   9   0.0038   0.0038   0.0039   0.0017  -0.0031  -0.0029   0.00    0.0
2019/11/10 00:36:00.000  -2420721.4307  -3439856.1718   4778532.8019   6   9   0.0038   0.0038   0.0039   0.0017  -0.0031  -0.0029   0.00    0.0
2019/11/10 00:36:30.000  -2420721.4307  -3439856.1718   4778532.8019   6   9   0.0038   0.0038   0.0039   0.0017  -0.0031  -0.0029   0.00    0.0
2019/11/10 00:37:00.000  -2420721.4307  -3439856.1718   4778532.8019   6   9   0.0038   0.0038   0.0039   0.0017  -0.0031  -0.0029   0.00    0.0
2019/11/10 00:37:30.000  -2420721.4307  -3439856.1719   4778532.8019   6   9   0.0038   0.0038   0.0039   0.0017  -0.0031  -0.0029   0.00    0.0
2019/11/10 00:38:00.000  -2420721.4306  -3439856.1719   4778532.8019   6   9   0.0038   0.0038   0.0039   0.0017  -0.0031  -0.0029   0.00    0.0
2019/11/10 00:38:30.000  -2420721.4306  -3439856.1720   4778532.8019   6   9   0.0038   0.0038   0.0039   0.0017  -0.0031  -0.0029   0.00    0.0
2019/11/10 00:39:00.000  -2420721.4306  -3439856.1719   4778532.8018   6   9   0.0038   0.0038   0.0039   0.0017  -0.0031  -0.0029   0.00    0.0
2019/11/10 00:39:30.000  -2420721.4306  -3439856.1718   4778532.8017   6   9   0.0038   0.0038   0.0039   0.0017  -0.0031  -0.0029   0.00    0.0
2019/11/10 00:40:00.000  -2420721.4306  -3439856.1717   4778532.8016   6   9   0.0038   0.0038   0.0039   0.0017  -0.0031  -0.0029   0.00    0.0
2019/11/10 00:40:30.000  -2420721.4307  -3439856.1717   4778532.8016   6   9   0.0038   0.0038   0.0039   0.0017  -0.0031  -0.0029   0.00    0.0
2019/11/10 00:41:00.000  -2420721.4307  -3439856.1717   4778532.8017   6   9   0.0038   0.0038   0.0039   0.0017  -0.0031  -0.0029   0.00    0.0
2019/11/10 00:41:30.000  -2420721.4307  -3439856.1718   4778532.8017   6   9   0.0038   0.0038   0.0039   0.0017  -0.0031  -0.0029   0.00    0.0
2019/11/10 00:42:00.000  -2420721.4307  -3439856.1718   4778532.8017   6   9   0.0038   0.0038   0.0039   0.0017  -0.0031  -0.0029   0.00    0.0
2019/11/10 00:42:30.000  -2420721.4307  -3439856.1719   4778532.8017   6   9   0.0038   0.0038   0.0039   0.0017  -0.0031  -0.0029   0.00    0.0
2019/11/10 00:43:00.000  -2420721.4307  -3439856.1720   4778532.8018   6   9   0.0038   0.0038   0.0039   0.0017  -0.0031  -0.0029   0.00    0.0
2019/11/10 00:43:30.000  -2420721.4307  -3439856.1721   4778532.8018   6   9   0.0038   0.0038   0.0039   0.0017  -0.0031  -0.0029   0.00    0.0
2019/11/10 00:44:00.000  -2420721.4307  -3439856.1721   4778532.8019   6   9   0.0038   0.0038   0.0039   0.0017  -0.0031  -0.0029   0.00    0.0
2019/11/10 00:44:30.000  -2420721.4308  -3439856.1721   4778532.8019   6   9   0.0038   0.0038   0.0039   0.0017  -0.0031  -0.0029   0.00    0.0
2019/11/10 00:45:00.000  -2420721.4308  -3439856.1721   4778532.8019   6   9   0.0038   0.0038   0.0039   0.0017  -0.0031  -0.0029   0.00    0.0
2019/11/10 00:45:30.000  -2420721.4308  -3439856.1721   4778532.8019   6   9   0.0038   0.0038   0.0039   0.0017  -0.0031  -0.0029   0.00    0.0
2019/11/10 00:46:00.000  -2420721.4308  -3439856.1722   4778532.8019   6   9   0.0038   0.0038   0.0039   0.0017  -0.0031  -0.0029   0.00    0.0
2019/11/10 00:46:30.000  -2420721.4308  -3439856.1721   4778532.8018   6   9   0.0038   0.0038   0.0039   0.0017  -0.0031  -0.0029   0.00    0.0
2019/11/10 00:47:00.000  -2420721.4308  -3439856.1721   4778532.8019   6   9   0.0038   0.0038   0.0039   0.0017  -0.0031  -0.0029   0.00    0.0
2019/11/10 00:47:30.000  -2420721.4308  -3439856.1721   4778532.8019   6   9   0.0038   0.0038   0.0039   0.0017  -0.0031  -0.0029   0.00    0.0
2019/11/10 00:48:00.000  -2420721.4308  -3439856.1721   4778532.8020   6   9   0.0038   0.0038   0.0039   0.0017  -0.0031  -0.0029   0.00    0.0
2019/11/10 00:48:30.000  -2420721.4309  -3439856.1720   4778532.8020   6   9   0.0038   0.0038   0.0039   0.0017  -0.0031  -0.0029   0.00    0.0
2019/11/10 00:49:00.000  -2420721.4309  -3439856.1721   4778532.8020   6   9   0.0038   0.0038   0.0039   0.0017  -0.0031  -0.0029   0.00    0.0
2019/11/10 00:49:30.000  -2420721.4309  -3439856.1722   4778532.8021   6   9   0.0038   0.0038   0.0039   0.0017  -0.0031  -0.0029   0.00    0.0
2019/11/10 00:50:00.000  -2420721.4309  -3439856.1722   4778532.8021   6   9   0.0038   0.0038   0.0039   0.0017  -0.0031  -0.0029   0.00    0.0
2019/11/10 00:50:30.000  -2420721.4308  -3439856.1722   4778532.8020   6   9   0.0038   0.0038   0.0039   0.0017  -0.0031  -0.0029   0.00    0.0
2019/11/10 00:51:00.000  -2420721.4308  -3439856.1720   4778532.8019   6   9   0.0038   0.0038   0.0039   0.0017  -0.0031  -0.0029   0.00    0.0
2019/11/10 00:51:30.000  -2420721.4309  -3439856.1719   4778532.8019   6   9   0.0038   0.0038   0.0039   0.0017  -0.0031  -0.0029   0.00    0.0
2019/11/10 00:52:00.000  -2420721.4308  -3439856.1719   4778532.8019   6   9   0.0038   0.0038   0.0039   0.0017  -0.0031  -0.0029   0.00    0.0
2019/11/10 00:52:30.000  -2420721.4309  -3439856.1718   4778532.8018   6   9   0.0038   0.0038   0.0039   0.0017  -0.0031  -0.0029   0.00    0.0
2019/11/10 00:53:00.000  -2420721.4308  -3439856.1718   4778532.8018   6   9   0.0038   0.0038   0.0039   0.0017  -0.0031  -0.0029   0.00    0.0
2019/11/10 00:53:30.000  -2420721.4309  -3439856.1717   4778532.8018   6   9   0.0038   0.0038   0.0039   0.0017  -0.0031  -0.0029   0.00    0.0
2019/11/10 00:54:00.000  -2420721.4310  -3439856.1716   4778532.8019   6   9   0.0038   0.0038   0.0039   0.0017  -0.0031  -0.0029   0.00    0.0
2019/11/10 00:54:30.000  -2420721.4311  -3439856.1715   4778532.8019   6   9   0.0038   0.0038   0.0039   0.0017  -0.0031  -0.0029   0.00    0.0
2019/11/10 00:55:00.000  -2420721.4311  -3439856.1714   4778532.8019   6   9   0.0038   0.0038   0.0039   0.0017  -0.0031  -0.0029   0.00    0.0
2019/11/10 00:55:30.000  -2420721.4312  -3439856.1714   4778532.8019   6   9   0.0038   0.0038   0.0039   0.0017  -0.0031  -0.0029   0.00    0.0
2019/11/10 00:56:00.000  -2420721.4312  -3439856.1714   4778532.8019   6   9   0.0038   0.0038   0.0039   0.0017  -0.0031  -0.0029   0.00    0.0
2019/11/10 00:56:30.000  -2420721.4312  -3439856.1714   4778532.8018   6   9   0.0038   0.0038   0.0039   0.0017  -0.0031  -0.0029   0.00    0.0
2019/11/10 00:57:00.000  -2420721.4312  -3439856.1713   4778532.8018   6   9   0.0038   0.0038   0.0039   0.0017  -0.0031  -0.0029   0.00    0.0
2019/11/10 00:57:30.000  -2420721.4312  -3439856.1713   4778532.8019   6   9   0.0038   0.0038   0.0039   0.0017  -0.0031  -0.0029   0.00    0.0
2019/11/10 00:58:00.000  -2420721.4312  -3439856.1713   4778532.8019   6   8   0.0038   0.0038   0.0039   0.0017  -0.0031  -0.0029   0.00    0.0
2019/11/10 00:58:30.000  -2420721.4313  -3439856.1713   4778532.8019   6   8   0.0038   0.0038   0.0039   0.0017  -0.0031  -0.0029   0.00    0.0
2019/11/10 00:59:00.000  -2420721.4313  -3439856.1713   4778532.8019   6   8   0.0038   0.0038   0.0039   0.0017  -0.0031  -0.0029   0.00    0.0
2019/11/10 00:59:30.000  -2420721.4312  -3439856.1713   4778532.8018   6   8   0.0038   0.0038   0.0039   0.0017  -0.0031  -0.0029   0.00    0.0
2019/11/10 01:00:00.000  -2420721.4313  -3439856.1714   4778532.8018   6   8   0.0038   0.0038   0.0039   0.0017  -0.0031  -0.0029   0.00    0.0
2019/11/10 01:00:30.000  -2420721.4312  -3439856.1714   4778532.8017   6   8   0.0038   0.0038   0.0039   0.0017  -0.0031  -0.0029   0.00    0.0
2019/11/10 01:01:00.000  -2420721.4312  -3439856.1714   4778532.8017   6   8   0.0038   0.0038   0.0039   0.0017  -0.0031  -0.0029   0.00    0.0
2019/11/10 01:01:30.000  -2420721.4313  -3439856.1714   4778532.8018   6   8   0.0038   0.0038   0.0039   0.0017  -0.0031  -0.0029   0.00    0.0
2019/11/10 01:02:00.000  -2420721.4313  -3439856.1714   4778532.8018   6   8   0.0038   0.0038   0.0039   0.0017  -0.0031  -0.0029   0.00    0.0
2019/11/10 01:02:30.000  -2420721.4314  -3439856.1714   4778532.8018   6   8   0.0038   0.0038   0.0039   0.0017  -0.0031  -0.0029   0.00    0.0
2019/11/10 01:03:00.000  -2420721.4314  -3439856.1714   4778532.8019   6   8   0.0038   0.0038   0.0039   0.0017  -0.0031  -0.0029   0.00    0.0
2019/11/10 01:03:30.000  -2420721.4315  -3439856.1714   4778532.8019   6   8   0.0038   0.0038   0.0039   0.0017  -0.0031  -0.0029   0.00    0.0
2019/11/10 01:04:00.000  -2420721.4315  -3439856.1714   4778532.8019   6   8   0.0038   0.0038   0.0039   0.0017  -0.0031  -0.0029   0.00    0.0
2019/11/10 01:04:30.000  -2420721.4317  -3439856.1713   4778532.8020   6   8   0.0038   0.0038   0.0039   0.0017  -0.0031  -0.0029   0.00    0.0
2019/11/10 01:05:00.000  -2420721.4318  -3439856.1713   4778532.8020   6   8   0.0038   0.0038   0.0039   0.0017  -0.0031  -0.0029   0.00    0.0
2019/11/10 01:05:30.000  -2420721.4319  -3439856.1712   4778532.8020   6   8   0.0038   0.0038   0.0039   0.0017  -0.0031  -0.0029   0.00    0.0
2019/11/10 01:06:00.000  -2420721.4319  -3439856.1711   4778532.8020   6   8   0.0038   0.0038   0.0039   0.0017  -0.0031  -0.0029   0.00    0.0
2019/11/10 01:06:30.000  -2420721.4319  -3439856.1710   4778532.8019   6   8   0.0038   0.0038   0.0039   0.0017  -0.0031  -0.0029   0.00    0.0
2019/11/10 01:07:00.000  -2420721.4319  -3439856.1710   4778532.8019   6   8   0.0038   0.0038   0.0039   0.0017  -0.0031  -0.0029   0.00    0.0
2019/11/10 01:07:30.000  -2420721.4319  -3439856.1711   4778532.8019   6   8   0.0038   0.0038   0.0039   0.0017  -0.0031  -0.0029   0.00    0.0
2019/11/10 01:08:00.000  -2420721.4319  -3439856.1711   4778532.8018   6   8   0.0038   0.0038   0.0039   0.0017  -0.0031  -0.0029   0.00    0.0
2019/11/10 01:08:30.000  -2420721.4318  -3439856.1711   4778532.8018   6   8   0.0038   0.0038   0.0039   0.0017  -0.0031  -0.0029   0.00    0.0
2019/11/10 01:09:00.000  -2420721.4318  -3439856.1711   4778532.8017   6   7   0.0038   0.0038   0.0039   0.0017  -0.0031  -0.0029   0.00    0.0
2019/11/10 01:09:30.000  -2420721.4317  -3439856.1711   4778532.8016   6   7   0.0038   0.0038   0.0039   0.0017  -0.0031  -0.0029   0.00    0.0
2019/11/10 01:10:00.000  -2420721.4317  -3439856.1711   4778532.8016   6   7   0.0038   0.0038   0.0039   0.0017  -0.0031  -0.0029   0.00    0.0
2019/11/10 01:10:30.000  -2420721.4316  -3439856.1710   4778532.8015   6   7   0.0038   0.0038   0.0039   0.0017  -0.0031  -0.0029   0.00    0.0
2019/11/10 01:11:00.000  -2420721.4317  -3439856.1709   4778532.8015   6   7   0.0038   0.0038   0.0039   0.0017  -0.0031  -0.0029   0.00    0.0
2019/11/10 01:11:30.000  -2420721.4317  -3439856.1707   4778532.8014   6   7   0.0038   0.0038   0.0039   0.0017  -0.0031  -0.0029   0.00    0.0
2019/11/10 01:12:00.000  -2420721.4317  -3439856.1706   4778532.8014   6   7   0.0038   0.0038   0.0039   0.0017  -0.0031  -0.0029   0.00    0.0
2019/11/10 01:12:30.000  -2420721.4318  -3439856.1705   4778532.8014   6   7   0.0038   0.0038   0.0039   0.0017  -0.0031  -0.0029   0.00    0.0
2019/11/10 01:13:00.000  -2420721.4318  -3439856.1705   4778532.8014   6   7   0.0038   0.0038   0.0039   0.0017  -0.0031  -0.0029   0.00    0.0
2019/11/10 01:13:30.000  -2420721.4318  -3439856.1704   4778532.8014   6   7   0.0038   0.0038   0.0039   0.0017  -0.0031  -0.0029   0.00    0.0
2019/11/10 01:14:00.000  -2420721.4318  -3439856.1703   4778532.8014   6   7   0.0038   0.0038   0.0039   0.0017  -0.0031  -0.0029   0.00    0.0
2019/11/10 01:14:30.000  -2420721.4319  -3439856.1703   4778532.8014   6   7   0.0038   0.0038   0.0039   0.0017  -0.0031  -0.0029   0.00    0.0
2019/11/10 01:15:00.000  -2420721.4319  -3439856.1704   4778532.8015   6   7   0.0038   0.0038   0.0039   0.0017  -0.0031  -0.0029   0.00    0.0
2019/11/10 01:15:30.000  -2420721.4319  -3439856.1704   4778532.8015   6   7   0.0038   0.0038   0.0039   0.0017  -0.0031  -0.0029   0.00    0.0
2019/11/10 01:16:00.000  -2420721.4320  -3439856.1703   4778532.8014   6   7   0.0038   0.0038   0.0039   0.0017  -0.0031  -0.0029   0.00    0.0
2019/11/10 01:16:30.000  -2420721.4320  -3439856.1703   4778532.8014   6   6   0.0038   0.0038   0.0039   0.0017  -0.0031  -0.0029   0.00    0.0
2019/11/10 01:17:00.000  -2420721.4320  -3439856.1704   4778532.8015   6   7   0.0038   0.0038   0.0039   0.0017  -0.0031  -0.0029   0.00    0.0
2019/11/10 01:17:30.000  -2420721.4319  -3439856.1705   4778532.8015   6   6   0.0038   0.0038   0.0039   0.0017  -0.0031  -0.0029   0.00    0.0
2019/11/10 01:18:00.000  -2420721.4319  -3439856.1706   4778532.8015   6   6   0.0038   0.0038   0.0039   0.0017  -0.0031  -0.0029   0.00    0.0
2019/11/10 01:18:30.000  -2420721.4319  -3439856.1707   4778532.8014   6   6   0.0038   0.0038   0.0039   0.0017  -0.0031  -0.0029   0.00    0.0
2019/11/10 01:19:00.000  -2420721.4319  -3439856.1708   4778532.8014   6   6   0.0038   0.0038   0.0039   0.0017  -0.0031  -0.0029   0.00    0.0
2019/11/10 01:19:30.000  -2420721.4318  -3439856.1710   4778532.8014   6   7   0.0038   0.0038   0.0039   0.0017  -0.0031  -0.0029   0.00    0.0
2019/11/10 01:20:00.000  -2420721.4318  -3439856.1711   4778532.8014   6   7   0.0038   0.0038   0.0039   0.0017  -0.0031  -0.0029   0.00    0.0
2019/11/10 01:20:30.000  -2420721.4318  -3439856.1712   4778532.8015   6   7   0.0038   0.0038   0.0039   0.0017  -0.0031  -0.0029   0.00    0.0
2019/11/10 01:21:00.000  -2420721.4318  -3439856.1712   4778532.8015   6   7   0.0038   0.0038   0.0039   0.0017  -0.0031  -0.0029   0.00    0.0
2019/11/10 01:21:30.000  -2420721.4319  -3439856.1713   4778532.8015   6   7   0.0038   0.0038   0.0039   0.0017  -0.0031  -0.0029   0.00    0.0
2019/11/10 01:22:00.000  -2420721.4318  -3439856.1713   4778532.8015   6   7   0.0038   0.0038   0.0039   0.0017  -0.0031  -0.0029   0.00    0.0
2019/11/10 01:22:30.000  -2420721.4318  -3439856.1713   4778532.8015   6   7   0.0038   0.0038   0.0039   0.0017  -0.0031  -0.0029   0.00    0.0
2019/11/10 01:23:00.000  -2420721.4318  -3439856.1713   4778532.8015   6   6   0.0038   0.0038   0.0039   0.0017  -0.0031  -0.0029   0.00    0.0
2019/11/10 01:23:30.000  -2420721.4319  -3439856.1712   4778532.8015   6   6   0.0038   0.0038   0.0039   0.0017  -0.0031  -0.0029   0.00    0.0
2019/11/10 01:24:00.000  -2420721.4319  -3439856.1711   4778532.8015   6   6   0.0038   0.0038   0.0039   0.0017  -0.0031  -0.0029   0.00    0.0
2019/11/10 01:24:30.000  -2420721.4319  -3439856.1709   4778532.8014   6   6   0.0038   0.0038   0.0039   0.0017  -0.0031  -0.0029   0.00    0.0
2019/11/10 01:25:00.000  -2420721.4320  -3439856.1708   4778532.8014   6   6   0.0038   0.0038   0.0039   0.0017  -0.0031  -0.0029   0.00    0.0
2019/11/10 01:25:30.000  -2420721.4320  -3439856.1708   4778532.8014   6   6   0.0038   0.0038   0.0039   0.0017  -0.0031  -0.0029   0.00    0.0
2019/11/10 01:26:00.000  -2420721.4320  -3439856.1709   4778532.8013   6   6   0.0038   0.0038   0.0039   0.0017  -0.0031  -0.0029   0.00    0.0
2019/11/10 01:26:30.000  -2420721.4319  -3439856.1710   4778532.8013   6   6   0.0038   0.0038   0.0039   0.0017  -0.0031  -0.0029   0.00    0.0
2019/11/10 01:27:00.000  -2420721.4319  -3439856.1711   4778532.8013   6   6   0.0038   0.0038   0.0039   0.0017  -0.0031  -0.0029   0.00    0.0
2019/11/10 01:27:30.000  -2420721.4319  -3439856.1712   4778532.8013   6   6   0.0038   0.0038   0.0039   0.0017  -0.0031  -0.0029   0.00    0.0
2019/11/10 01:28:00.000  -2420721.4318  -3439856.1713   4778532.8013   6   6   0.0038   0.0038   0.0039   0.0017  -0.0031  -0.0029   0.00    0.0
2019/11/10 01:28:30.000  -2420721.4318  -3439856.1715   4778532.8013   6   6   0.0038   0.0038   0.0039   0.0017  -0.0031  -0.0029   0.00    0.0
2019/11/10 01:29:00.000  -2420721.4318  -3439856.1715   4778532.8013   6   6   0.0038   0.0038   0.0039   0.0017  -0.0031  -0.0029   0.00    0.0
2019/11/10 01:29:30.000  -2420721.4318  -3439856.1716   4778532.8013   6   6   0.0038   0.0038   0.0039   0.0017  -0.0031  -0.0029   0.00    0.0
2019/11/10 01:30:00.000  -2420721.4318  -3439856.1716   4778532.8012   6   6   0.0038   0.0038   0.0039   0.0017  -0.0031  -0.0029   0.00    0.0
2019/11/10 01:30:30.000  -2420721.4317  -3439856.1717   4778532.8012   6   6   0.0038   0.0038   0.0039   0.0017  -0.0031  -0.0029   0.00    0.0
2019/11/10 01:31:00.000  -2420721.4317  -3439856.1719   4778532.8012   6   6   0.0038   0.0039   0.0039   0.0016  -0.0031  -0.0029   0.00    0.0
2019/11/10 01:31:30.000  -2420721.4316  -3439856.1720   4778532.8012   6   6   0.0038   0.0039   0.0039   0.0016  -0.0031  -0.0029   0.00    0.0
2019/11/10 01:32:00.000  -2420721.4316  -3439856.1722   4778532.8012   6   6   0.0038   0.0039   0.0039   0.0016  -0.0031  -0.0029   0.00    0.0
2019/11/10 01:32:30.000  -2420721.4315  -3439856.1723   4778532.8012   6   6   0.0038   0.0039   0.0039   0.0016  -0.0031  -0.0029   0.00    0.0
2019/11/10 01:33:00.000  -2420721.4316  -3439856.1724   4778532.8013   6   6   0.0038   0.0039   0.0039   0.0016  -0.0031  -0.0029   0.00    0.0
2019/11/10 01:33:30.000  -2420721.4316  -3439856.1724   4778532.8013   6   6   0.0038   0.0039   0.0039   0.0016  -0.0031  -0.0029   0.00    0.0
2019/11/10 01:34:00.000  -2420721.4316  -3439856.1724   4778532.8013   6   6   0.0038   0.0039   0.0039   0.0016  -0.0031  -0.0029   0.00    0.0
2019/11/10 01:34:30.000  -2420721.4316  -3439856.1725   4778532.8013   6   6   0.0038   0.0039   0.0039   0.0016  -0.0031  -0.0029   0.00    0.0
2019/11/10 01:35:00.000  -2420721.4316  -3439856.1724   4778532.8013   6   6   0.0038   0.0039   0.0039   0.0016  -0.0031  -0.0029   0.00    0.0
2019/11/10 01:35:30.000  -2420721.4316  -3439856.1724   4778532.8013   6   6   0.0038   0.0039   0.0039   0.0016  -0.0031  -0.0029   0.00    0.0
2019/11/10 01:36:00.000  -2420721.4316  -3439856.1723   4778532.8013   6   6   0.0038   0.0039   0.0039   0.0016  -0.0031  -0.0029   0.00    0.0
2019/11/10 01:36:30.000  -2420721.4317  -3439856.1721   4778532.8012   6   6   0.0038   0.0039   0.0039   0.0016  -0.0031  -0.0029   0.00    0.0
2019/11/10 01:37:00.000  -2420721.4317  -3439856.1720   4778532.8012   6   6   0.0038   0.0039   0.0039   0.0016  -0.0031  -0.0029   0.00    0.0
2019/11/10 01:37:30.000  -2420721.4317  -3439856.1719   4778532.8012   6   6   0.0038   0.0039   0.0039   0.0016  -0.0031  -0.0029   0.00    0.0
2019/11/10 01:38:00.000  -2420721.4318  -3439856.1717   4778532.8012   6   6   0.0038   0.0039   0.0039   0.0016  -0.0031  -0.0029   0.00    0.0
2019/11/10 01:38:30.000  -2420721.4318  -3439856.1717   4778532.8012   6   7   0.0038   0.0039   0.0039   0.0016  -0.0031  -0.0029   0.00    0.0
2019/11/10 01:39:00.000  -2420721.4318  -3439856.1716   4778532.8012   6   7   0.0038   0.0039   0.0039   0.0016  -0.0031  -0.0029   0.00    0.0
2019/11/10 01:39:30.000  -2420721.4318  -3439856.1715   4778532.8012   6   6   0.0038   0.0039   0.0039   0.0016  -0.0031  -0.0029   0.00    0.0
2019/11/10 01:40:00.000  -2420721.4318  -3439856.1715   4778532.8011   6   6   0.0038   0.0039   0.0039   0.0016  -0.0031  -0.0029   0.00    0.0
2019/11/10 01:40:30.000  -2420721.4318  -3439856.1715   4778532.8011   6   6   0.0038   0.0039   0.0039   0.0016  -0.0031  -0.0029   0.00    0.0
2019/11/10 01:41:00.000  -2420721.4318  -3439856.1715   4778532.8011   6   6   0.0038   0.0039   0.0039   0.0016  -0.0031  -0.0029   0.00    0.0
2019/11/10 01:41:30.000  -2420721.4318  -3439856.1714   4778532.8011   6   6   0.0038   0.0039   0.0039   0.0016  -0.0031  -0.0029   0.00    0.0
2019/11/10 01:42:00.000  -2420721.4318  -3439856.1714   4778532.8011   6   6   0.0038   0.0039   0.0039   0.0016  -0.0031  -0.0029   0.00    0.0
2019/11/10 01:42:30.000  -2420721.4318  -3439856.1714   4778532.8011   6   6   0.0038   0.0039   0.0039   0.0016  -0.0031  -0.0029   0.00    0.0
2019/11/10 01:43:00.000  -2420721.4319  -3439856.1714   4778532.8011   6   6   0.0038   0.0039   0.0039   0.0016  -0.0031  -0.0029   0.00    0.0
2019/11/10 01:43:30.000  -2420721.4318  -3439856.1715   4778532.8011   6   6   0.0038   0.0039   0.0039   0.0016  -0.0031  -0.0029   0.00    0.0
2019/11/10 01:44:00.000  -2420721.4318  -3439856.1715   4778532.8011   6   6   0.0038   0.0039   0.0039   0.0016  -0.0031  -0.0029   0.00    0.0
2019/11/10 01:44:30.000  -2420721.4318  -3439856.1715   4778532.8011   6   6   0.0038   0.0039   0.0039   0.0016  -0.0031  -0.0029   0.00    0.0
2019/11/10 01:45:00.000  -2420721.4318  -3439856.1714   4778532.8011   6   6   0.0038   0.0039   0.0039   0.0016  -0.0031  -0.0029   0.00    0.0
2019/11/10 01:45:30.000  -2420721.4319  -3439856.1713   4778532.8011   6   6   0.0038   0.0039   0.0039   0.0016  -0.0031  -0.0029   0.00    0.0
2019/11/10 01:46:00.000  -2420721.4319  -3439856.1711   4778532.8011   6   6   0.0038   0.0039   0.0039   0.0016  -0.0031  -0.0029   0.00    0.0
2019/11/10 01:46:30.000  -2420721.4319  -3439856.1710   4778532.8011   6   6   0.0038   0.0039   0.0039   0.0016  -0.0031  -0.0029   0.00    0.0
2019/11/10 01:47:00.000  -2420721.4320  -3439856.1708   4778532.8011   6   6   0.0038   0.0039   0.0039   0.0016  -0.0031  -0.0029   0.00    0.0
2019/11/10 01:47:30.000  -2420721.4320  -3439856.1706   4778532.8010   6   6   0.0038   0.0039   0.0039   0.0016  -0.0031  -0.0029   0.00    0.0
2019/11/10 01:48:00.000  -2420721.4320  -3439856.1704   4778532.8010   6   6   0.0038   0.0039   0.0039   0.0016  -0.0031  -0.0029   0.00    0.0
2019/11/10 01:48:30.000  -2420721.4321  -3439856.1702   4778532.8010   6   6   0.0038   0.0039   0.0039   0.0016  -0.0031  -0.0029   0.00    0.0
2019/11/10 01:49:00.000  -2420721.4322  -3439856.1700   4778532.8010   6   6   0.0038   0.0039   0.0039   0.0016  -0.0031  -0.0029   0.00    0.0
2019/11/10 01:49:30.000  -2420721.4323  -3439856.1698   4778532.8010   6   6   0.0038   0.0039   0.0039   0.0016  -0.0031  -0.0029   0.00    0.0
2019/11/10 01:50:00.000  -2420721.4324  -3439856.1696   4778532.8010   6   6   0.0038   0.0039   0.0039   0.0016  -0.0031  -0.0029   0.00    0.0
2019/11/10 01:50:30.000  -2420721.4325  -3439856.1695   4778532.8010   6   6   0.0038   0.0039   0.0039   0.0016  -0.0031  -0.0029   0.00    0.0
2019/11/10 01:51:00.000  -2420721.4326  -3439856.1694   4778532.8010   6   6   0.0038   0.0039   0.0039   0.0016  -0.0031  -0.0029   0.00    0.0
2019/11/10 01:51:30.000  -2420721.4326  -3439856.1693   4778532.8010   6   6   0.0038   0.0039   0.0039   0.0016  -0.0031  -0.0029   0.00    0.0
2019/11/10 01:52:00.000  -2420721.4327  -3439856.1692   4778532.8010   6   6   0.0038   0.0039   0.0039   0.0016  -0.0031  -0.0029   0.00    0.0
2019/11/10 01:52:30.000  -2420721.4327  -3439856.1692   4778532.8010   6   6   0.0038   0.0039   0.0039   0.0016  -0.0031  -0.0029   0.00    0.0
2019/11/10 01:53:00.000  -2420721.4328  -3439856.1692   4778532.8010   6   6   0.0038   0.0039   0.0039   0.0016  -0.0031  -0.0029   0.00    0.0
2019/11/10 01:53:30.000  -2420721.4328  -3439856.1692   4778532.8010   6   6   0.0038   0.0039   0.0039   0.0016  -0.0031  -0.0029   0.00    0.0
2019/11/10 01:54:00.000  -2420721.4327  -3439856.1693   4778532.8010   6   6   0.0038   0.0039   0.0039   0.0016  -0.0031  -0.0029   0.00    0.0
2019/11/10 01:54:30.000  -2420721.4327  -3439856.1693   4778532.8009   6   6   0.0038   0.0039   0.0039   0.0016  -0.0031  -0.0029   0.00    0.0
2019/11/10 01:55:00.000  -2420721.4327  -3439856.1694   4778532.8009   6   6   0.0038   0.0039   0.0039   0.0016  -0.0031  -0.0029   0.00    0.0
2019/11/10 01:55:30.000  -2420721.4327  -3439856.1694   4778532.8009   6   6   0.0038   0.0039   0.0039   0.0016  -0.0031  -0.0028   0.00    0.0
2019/11/10 01:56:00.000  -2420721.4327  -3439856.1694   4778532.8009   6   6   0.0038   0.0039   0.0039   0.0016  -0.0031  -0.0028   0.00    0.0
2019/11/10 01:56:30.000  -2420721.4327  -3439856.1693   4778532.8008   6   6   0.0038   0.0039   0.0039   0.0016  -0.0031  -0.0028   0.00    0.0
2019/11/10 01:57:00.000  -2420721.4328  -3439856.1693   4778532.8008   6   6   0.0038   0.0039   0.0039   0.0016  -0.0031  -0.0028   0.00    0.0
2019/11/10 01:57:30.000  -2420721.4328  -3439856.1692   4778532.8008   6   6   0.0038   0.0039   0.0039   0.0016  -0.0031  -0.0028   0.00    0.0
2019/11/10 01:58:00.000  -2420721.4328  -3439856.1692   4778532.8008   6   6   0.0038   0.0039   0.0039   0.0016  -0.0031  -0.0028   0.00    0.0
2019/11/10 01:58:30.000  -2420721.4328  -3439856.1692   4778532.8009   6   6   0.0038   0.0039   0.0039   0.0016  -0.0031  -0.0028   0.00    0.0
2019/11/10 01:59:00.000  -2420721.4329  -3439856.1691   4778532.8009   6   6   0.0038   0.0039   0.0039   0.0016  -0.0031  -0.0028   0.00    0.0
2019/11/10 01:59:30.000  -2420721.4329  -3439856.1690   4778532.8009   6   6   0.0038   0.0039   0.0039   0.0016  -0.0031  -0.0028   0.00    0.0
2019/11/10 02:00:00.000  -2420721.4329  -3439856.1690   4778532.8009   6   6   0.0038   0.0039   0.0039   0.0016  -0.0031  -0.0028   0.00    0.0
2019/11/10 02:00:30.000  -2420721.4330  -3439856.1690   4778532.8008   6   6   0.0038   0.0039   0.0039   0.0016  -0.0031  -0.0028   0.00    0.0
2019/11/10 02:01:00.000  -2420721.4330  -3439856.1690   4778532.8008   6   6   0.0038   0.0039   0.0039   0.0016  -0.0031  -0.0028   0.00    0.0
2019/11/10 02:01:30.000  -2420721.4331  -3439856.1689   4778532.8008   6   6   0.0038   0.0039   0.0039   0.0016  -0.0031  -0.0028   0.00    0.0
2019/11/10 02:02:00.000  -2420721.4331  -3439856.1689   4778532.8007   6   6   0.0038   0.0039   0.0039   0.0016  -0.0031  -0.0028   0.00    0.0
2019/11/10 02:02:30.000  -2420721.4331  -3439856.1690   4778532.8008   6   7   0.0038   0.0039   0.0039   0.0016  -0.0031  -0.0028   0.00    0.0
2019/11/10 02:03:00.000  -2420721.4331  -3439856.1691   4778532.8008   6   7   0.0038   0.0039   0.0039   0.0016  -0.0031  -0.0028   0.00    0.0
2019/11/10 02:03:30.000  -2420721.4331  -3439856.1691   4778532.8009   6   7   0.0038   0.0039   0.0039   0.0016  -0.0031  -0.0028   0.00    0.0
2019/11/10 02:04:00.000  -2420721.4331  -3439856.1692   4778532.8009   6   7   0.0038   0.0039   0.0039   0.0016  -0.0031  -0.0028   0.00    0.0
2019/11/10 02:04:30.000  -2420721.4331  -3439856.1692   4778532.8009   6   7   0.0038   0.0039   0.0039   0.0016  -0.0031  -0.0028   0.00    0.0
2019/11/10 02:05:00.000  -2420721.4332  -3439856.1692   4778532.8009   6   7   0.0038   0.0039   0.0039   0.0016  -0.0031  -0.0028   0.00    0.0
2019/11/10 02:05:30.000  -2420721.4332  -3439856.1692   4778532.8009   6   7   0.0038   0.0039   0.0039   0.0016  -0.0031  -0.0028   0.00    0.0
2019/11/10 02:06:00.000  -2420721.4332  -3439856.1692   4778532.8010   6   7   0.0038   0.0039   0.0039   0.0016  -0.0031  -0.0028   0.00    0.0
2019/11/10 02:06:30.000  -2420721.4332  -3439856.1692   4778532.8010   6   7   0.0038   0.0039   0.0039   0.0016  -0.0031  -0.0028   0.00    0.0
2019/11/10 02:07:00.000  -2420721.4333  -3439856.1692   4778532.8010   6   7   0.0038   0.0039   0.0039   0.0016  -0.0031  -0.0028   0.00    0.0
2019/11/10 02:07:30.000  -2420721.4333  -3439856.1692   4778532.8011   6   7   0.0038   0.0039   0.0039   0.0016  -0.0031  -0.0028   0.00    0.0
2019/11/10 02:08:00.000  -2420721.4333  -3439856.1692   4778532.8011   6   7   0.0038   0.0039   0.0039   0.0016  -0.0031  -0.0028   0.00    0.0
2019/11/10 02:08:30.000  -2420721.4333  -3439856.1692   4778532.8011   6   7   0.0038   0.0039   0.0039   0.0016  -0.0031  -0.0028   0.00    0.0
2019/11/10 02:09:00.000  -2420721.4333  -3439856.1693   4778532.8012   6   7   0.0038   0.0039   0.0039   0.0016  -0.0031  -0.0028   0.00    0.0
2019/11/10 02:09:30.000  -2420721.4333  -3439856.1694   4778532.8013   6   7   0.0038   0.0039   0.0039   0.0016  -0.0031  -0.0028   0.00    0.0
2019/11/10 02:10:00.000  -2420721.4333  -3439856.1693   4778532.8012   6   7   0.0038   0.0039   0.0039   0.0016  -0.0031  -0.0028   0.00    0.0
2019/11/10 02:10:30.000  -2420721.4333  -3439856.1692   4778532.8012   6   7   0.0038   0.0039   0.0039   0.0016  -0.0031  -0.0028   0.00    0.0
2019/11/10 02:11:00.000  -2420721.4332  -3439856.1692   4778532.8011   6   7   0.0038   0.0039   0.0039   0.0016  -0.0031  -0.0028   0.00    0.0
2019/11/10 02:11:30.000  -2420721.4332  -3439856.1691   4778532.8010   6   6   0.0038   0.0039   0.0039   0.0016  -0.0031  -0.0028   0.00    0.0
2019/11/10 02:12:00.000  -2420721.4332  -3439856.1691   4778532.8010   6   5   0.0038   0.0039   0.0039   0.0016  -0.0031  -0.0028   0.00    0.0
2019/11/10 02:12:30.000  -2420721.4332  -3439856.1691   4778532.8010   6   5   0.0038   0.0039   0.0039   0.0016  -0.0031  -0.0028   0.00    0.0
2019/11/10 02:13:00.000  -2420721.4332  -3439856.1691   4778532.8010   6   6   0.0038   0.0039   0.0039   0.0016  -0.0031  -0.0028   0.00    0.0
2019/11/10 02:13:30.000  -2420721.4333  -3439856.1690   4778532.8010   6   6   0.0038   0.0039   0.0039   0.0016  -0.0031  -0.0028   0.00    0.0
2019/11/10 02:14:00.000  -2420721.4333  -3439856.1690   4778532.8010   6   6   0.0038   0.0039   0.0039   0.0016  -0.0031  -0.0028   0.00    0.0
2019/11/10 02:14:30.000  -2420721.4333  -3439856.1690   4778532.8009   6   6   0.0038   0.0039   0.0039   0.0016  -0.0031  -0.0028   0.00    0.0
2019/11/10 02:15:00.000  -2420721.4333  -3439856.1690   4778532.8009   6   6   0.0038   0.0039   0.0039   0.0016  -0.0031  -0.0028   0.00    0.0
2019/11/10 02:15:30.000  -2420721.4333  -3439856.1690   4778532.8009   6   7   0.0038   0.0039   0.0039   0.0016  -0.0031  -0.0028   0.00    0.0
2019/11/10 02:16:00.000  -2420721.4334  -3439856.1690   4778532.8010   6   7   0.0038   0.0039   0.0039   0.0016  -0.0031  -0.0028   0.00    0.0
2019/11/10 02:16:30.000  -2420721.4334  -3439856.1690   4778532.8010   6   7   0.0038   0.0039   0.0039   0.0016  -0.0031  -0.0028   0.00    0.0
2019/11/10 02:17:00.000  -2420721.4334  -3439856.1689   4778532.8009   6   7   0.0038   0.0039   0.0039   0.0016  -0.0031  -0.0028   0.00    0.0
2019/11/10 02:17:30.000  -2420721.4335  -3439856.1689   4778532.8010   6   7   0.0038   0.0039   0.0039   0.0016  -0.0031  -0.0028   0.00    0.0
2019/11/10 02:18:00.000  -2420721.4336  -3439856.1690   4778532.8010   6   7   0.0038   0.0039   0.0039   0.0016  -0.0031  -0.0028   0.00    0.0
2019/11/10 02:18:30.000  -2420721.4337  -3439856.1690   4778532.8011   6   7   0.0038   0.0039   0.0039   0.0016  -0.0031  -0.0028   0.00    0.0
2019/11/10 02:19:00.000  -2420721.4338  -3439856.1688   4778532.8010   6   7   0.0038   0.0039   0.0039   0.0016  -0.0031  -0.0028   0.00    0.0
2019/11/10 02:19:30.000  -2420721.4338  -3439856.1687   4778532.8009   6   8   0.0038   0.0039   0.0039   0.0016  -0.0031  -0.0028   0.00    0.0
2019/11/10 02:20:00.000  -2420721.4338  -3439856.1686   4778532.8009   6   8   0.0038   0.0039   0.0039   0.0016  -0.0031  -0.0028   0.00    0.0
2019/11/10 02:20:30.000  -2420721.4338  -3439856.1686   4778532.8009   6   8   0.0038   0.0039   0.0039   0.0016  -0.0031  -0.0028   0.00    0.0
2019/11/10 02:21:00.000  -2420721.4339  -3439856.1686   4778532.8009   6   8   0.0038   0.0039   0.0039   0.0016  -0.0031  -0.0028   0.00    0.0
2019/11/10 02:21:30.000  -2420721.4339  -3439856.1686   4778532.8008   6   8   0.0038   0.0039   0.0039   0.0016  -0.0031  -0.0028   0.00    0.0
2019/11/10 02:22:00.000  -2420721.4339  -3439856.1687   4778532.8009   6   9   0.0038   0.0039   0.0039   0.0016  -0.0031  -0.0028   0.00    0.0
2019/11/10 02:22:30.000  -2420721.4340  -3439856.1687   4778532.8009   6   9   0.0038   0.0039   0.0039   0.0016  -0.0031  -0.0028   0.00    0.0
2019/11/10 02:23:00.000  -2420721.4340  -3439856.1685   4778532.8008   6   9   0.0038   0.0039   0.0039   0.0016  -0.0031  -0.0028   0.00    0.0
2019/11/10 02:23:30.000  -2420721.4341  -3439856.1683   4778532.8008   6   9   0.0038   0.0039   0.0039   0.0016  -0.0031  -0.0028   0.00    0.0
2019/11/10 02:24:00.000  -2420721.4343  -3439856.1681   4778532.8008   6   9   0.0038   0.0039   0.0039   0.0016  -0.0031  -0.0028   0.00    0.0
2019/11/10 02:24:30.000  -2420721.4344  -3439856.1680   4778532.8008   6   9   0.0038   0.0039   0.0039   0.0016  -0.0031  -0.0028   0.00    0.0
2019/11/10 02:25:00.000  -2420721.4344  -3439856.1680   4778532.8009   6   9   0.0038   0.0039   0.0039   0.0016  -0.0031  -0.0028   0.00    0.0
2019/11/10 02:25:30.000  -2420721.4344  -3439856.1679   4778532.8008   6   9   0.0038   0.0039   0.0039   0.0016  -0.0031  -0.0028   0.00    0.0
2019/11/10 02:26:00.000  -2420721.4345  -3439856.1679   4778532.8009   6   8   0.0038   0.0039   0.0039   0.0016  -0.0031  -0.0028   0.00    0.0
2019/11/10 02:26:30.000  -2420721.4343  -3439856.1679   4778532.8008   6   8   0.0038   0.0039   0.0039   0.0016  -0.0031  -0.0029   0.00    0.0
2019/11/10 02:27:00.000  -2420721.4341  -3439856.1680   4778532.8005   6   8   0.0038   0.0039   0.0039   0.0016  -0.0031  -0.0029   0.00    0.0
2019/11/10 02:27:30.000  -2420721.4339  -3439856.1680   4778532.8004   6   8   0.0038   0.0039   0.0039   0.0016  -0.0031  -0.0029   0.00    0.0
2019/11/10 02:28:00.000  -2420721.4339  -3439856.1680   4778532.8003   6   8   0.0038   0.0039   0.0039   0.0016  -0.0031  -0.0029   0.00    0.0
2019/11/10 02:28:30.000  -2420721.4338  -3439856.1680   4778532.8003   6   8   0.0038   0.0039   0.0039   0.0016  -0.0031  -0.0029   0.00    0.0
2019/11/10 02:29:00.000  -2420721.4338  -3439856.1680   4778532.8003   6   8   0.0038   0.0039   0.0039   0.0016  -0.0031  -0.0029   0.00    0.0
2019/11/10 02:29:30.000  -2420721.4338  -3439856.1680   4778532.8002   6   9   0.0038   0.0039   0.0039   0.0016  -0.0031  -0.0029   0.00    0.0
2019/11/10 02:30:00.000  -2420721.4336  -3439856.1680   4778532.8001   6   9   0.0038   0.0039   0.0039   0.0016  -0.0031  -0.0029   0.00    0.0
2019/11/10 02:30:30.000  -2420721.4336  -3439856.1681   4778532.8001   6   9   0.0039   0.0039   0.0039   0.0016  -0.0031  -0.0029   0.00    0.0
2019/11/10 02:31:00.000  -2420721.4336  -3439856.1681   4778532.8001   6   9   0.0039   0.0039   0.0039   0.0016  -0.0031  -0.0029   0.00    0.0
2019/11/10 02:31:30.000  -2420721.4337  -3439856.1681   4778532.8002   6   9   0.0039   0.0039   0.0039   0.0016  -0.0031  -0.0029   0.00    0.0
2019/11/10 02:32:00.000  -2420721.4337  -3439856.1683   4778532.8003   6   8   0.0039   0.0039   0.0039   0.0016  -0.0031  -0.0029   0.00    0.0
2019/11/10 02:32:30.000  -2420721.4338  -3439856.1683   4778532.8004   6   8   0.0039   0.0039   0.0039   0.0016  -0.0031  -0.0029   0.00    0.0
2019/11/10 02:33:00.000  -2420721.4338  -3439856.1683   4778532.8003   6   8   0.0039   0.0039   0.0039   0.0016  -0.0031  -0.0029   0.00    0.0
2019/11/10 02:33:30.000  -2420721.4337  -3439856.1682   4778532.8003   6   8   0.0039   0.0039   0.0039   0.0016  -0.0031  -0.0029   0.00    0.0
2019/11/10 02:34:00.000  -2420721.4338  -3439856.1683   4778532.8004   6   8   0.0039   0.0039   0.0039   0.0016  -0.0031  -0.0029   0.00    0.0
2019/11/10 02:34:30.000  -2420721.4339  -3439856.1684   4778532.8005   6   8   0.0039   0.0039   0.0039   0.0016  -0.0031  -0.0029   0.00    0.0
2019/11/10 02:35:00.000  -2420721.4340  -3439856.1684   4778532.8006   6   8   0.0039   0.0039   0.0039   0.0016  -0.0031  -0.0029   0.00    0.0
2019/11/10 02:35:30.000  -2420721.4340  -3439856.1683   4778532.8006   6   8   0.0039   0.0039   0.0039   0.0016  -0.0031  -0.0029   0.00    0.0
2019/11/10 02:36:00.000  -2420721.4340  -3439856.1682   4778532.8006   6   8   0.0039   0.0039   0.0039   0.0016  -0.0031  -0.0029   0.00    0.0
2019/11/10 02:36:30.000  -2420721.4340  -3439856.1683   4778532.8006   6   8   0.0039   0.0039   0.0039   0.0016  -0.0031  -0.0029   0.00    0.0
2019/11/10 02:37:00.000  -2420721.4340  -3439856.1683   4778532.8006   6   8   0.0039   0.0039   0.0039   0.0016  -0.0031  -0.0029   0.00    0.0
2019/11/10 02:37:30.000  -2420721.4340  -3439856.1684   4778532.8006   6   8   0.0039   0.0039   0.0039   0.0016  -0.0031  -0.0029   0.00    0.0
2019/11/10 02:38:00.000  -2420721.4339  -3439856.1685   4778532.8006   6   8   0.0039   0.0039   0.0039   0.0016  -0.0031  -0.0029   0.00    0.0
2019/11/10 02:38:30.000  -2420721.4338  -3439856.1686   4778532.8005   6   8   0.0039   0.0039   0.0039   0.0016  -0.0031  -0.0029   0.00    0.0
2019/11/10 02:39:00.000  -2420721.4337  -3439856.1687   4778532.8006   6   8   0.0039   0.0039   0.0039   0.0016  -0.0031  -0.0029   0.00    0.0
2019/11/10 02:39:30.000  -2420721.4338  -3439856.1688   4778532.8006   6   8   0.0039   0.0039   0.0039   0.0016  -0.0031  -0.0029   0.00    0.0
2019/11/10 02:40:00.000  -2420721.4338  -3439856.1688   4778532.8006   6   8   0.0039   0.0039   0.0039   0.0016  -0.0031  -0.0029   0.00    0.0
2019/11/10 02:40:30.000  -2420721.4339  -3439856.1687   4778532.8006   6   8   0.0039   0.0039   0.0039   0.0016  -0.0031  -0.0029   0.00    0.0
2019/11/10 02:41:00.000  -2420721.4341  -3439856.1686   4778532.8006   6   8   0.0039   0.0039   0.0039   0.0016  -0.0031  -0.0029   0.00    0.0
2019/11/10 02:41:30.000  -2420721.4342  -3439856.1684   4778532.8007   6   8   0.0039   0.0039   0.0039   0.0016  -0.0031  -0.0029   0.00    0.0
2019/11/10 02:42:00.000  -2420721.4342  -3439856.1684   4778532.8006   6   8   0.0039   0.0039   0.0039   0.0016  -0.0031  -0.0029   0.00    0.0
2019/11/10 02:42:30.000  -2420721.4342  -3439856.1682   4778532.8005   6   8   0.0039   0.0039   0.0039   0.0016  -0.0031  -0.0029   0.00    0.0
2019/11/10 02:43:00.000  -2420721.4342  -3439856.1681   4778532.8005   6   8   0.0039   0.0039   0.0039   0.0016  -0.0031  -0.0029   0.00    0.0
2019/11/10 02:43:30.000  -2420721.4342  -3439856.1681   4778532.8005   6   8   0.0039   0.0038   0.0039   0.0016  -0.0031  -0.0029   0.00    0.0
2019/11/10 02:44:00.000  -2420721.4342  -3439856.1682   4778532.8005   6   8   0.0039   0.0038   0.0039   0.0016  -0.0031  -0.0029   0.00    0.0
2019/11/10 02:44:30.000  -2420721.4341  -3439856.1683   4778532.8005   6   8   0.0039   0.0038   0.0039   0.0016  -0.0031  -0.0029   0.00    0.0
2019/11/10 02:45:00.000  -2420721.4340  -3439856.1683   4778532.8004   6   8   0.0039   0.0038   0.0039   0.0016  -0.0031  -0.0029   0.00    0.0
2019/11/10 02:45:30.000  -2420721.4339  -3439856.1683   4778532.8004   6   8   0.0039   0.0038   0.0039   0.0016  -0.0031  -0.0029   0.00    0.0
2019/11/10 02:46:00.000  -2420721.4340  -3439856.1684   4778532.8004   6   8   0.0039   0.0038   0.0039   0.0016  -0.0031  -0.0029   0.00    0.0
2019/11/10 02:46:30.000  -2420721.4341  -3439856.1684   4778532.8005   6   8   0.0039   0.0038   0.0039   0.0016  -0.0031  -0.0029   0.00    0.0
2019/11/10 02:47:00.000  -2420721.4343  -3439856.1684   4778532.8006   6   8   0.0039   0.0038   0.0039   0.0016  -0.0031  -0.0029   0.00    0.0
2019/11/10 02:47:30.000  -2420721.4344  -3439856.1685   4778532.8007   6   8   0.0039   0.0038   0.0039   0.0016  -0.0031  -0.0029   0.00    0.0
2019/11/10 02:48:00.000  -2420721.4346  -3439856.1684   4778532.8007   6   8   0.0039   0.0038   0.0039   0.0016  -0.0031  -0.0029   0.00    0.0
2019/11/10 02:48:30.000  -2420721.4347  -3439856.1683   4778532.8007   6   8   0.0039   0.0038   0.0039   0.0016  -0.0031  -0.0029   0.00    0.0
2019/11/10 02:49:00.000  -2420721.4348  -3439856.1683   4778532.8007   6   8   0.0039   0.0038   0.0039   0.0016  -0.0031  -0.0029   0.00    0.0
2019/11/10 02:49:30.000  -2420721.4349  -3439856.1682   4778532.8008   6   8   0.0039   0.0038   0.0039   0.0016  -0.0031  -0.0029   0.00    0.0
2019/11/10 02:50:00.000  -2420721.4350  -3439856.1680   4778532.8007   6   8   0.0039   0.0038   0.0039   0.0016  -0.0031  -0.0029   0.00    0.0
2019/11/10 02:50:30.000  -2420721.4351  -3439856.1678   4778532.8008   6   8   0.0039   0.0038   0.0039   0.0016  -0.0031  -0.0029   0.00    0.0
2019/11/10 02:51:00.000  -2420721.4353  -3439856.1677   4778532.8008   6   8   0.0039   0.0038   0.0039   0.0016  -0.0031  -0.0029   0.00    0.0
2019/11/10 02:51:30.000  -2420721.4354  -3439856.1677   4778532.8009   6   8   0.0039   0.0038   0.0039   0.0016  -0.0031  -0.0029   0.00    0.0
2019/11/10 02:52:00.000  -2420721.4354  -3439856.1676   4778532.8009   6   8   0.0039   0.0038   0.0039   0.0016  -0.0031  -0.0029   0.00    0.0
2019/11/10 02:52:30.000  -2420721.4354  -3439856.1676   4778532.8008   6   8   0.0039   0.0038   0.0039   0.0016  -0.0031  -0.0029   0.00    0.0
2019/11/10 02:53:00.000  -2420721.4355  -3439856.1676   4778532.8009   6   8   0.0039   0.0038   0.0039   0.0016  -0.0031  -0.0029   0.00    0.0
2019/11/10 02:53:30.000  -2420721.4356  -3439856.1676   4778532.8009   6   8   0.0039   0.0038   0.0039   0.0016  -0.0031  -0.0029   0.00    0.0
2019/11/10 02:54:00.000  -2420721.4357  -3439856.1676   4778532.8010   6   8   0.0039   0.0038   0.0039   0.0016  -0.0031  -0.0029   0.00    0.0
2019/11/10 02:54:30.000  -2420721.4357  -3439856.1676   4778532.8010   6   8   0.0039   0.0038   0.0039   0.0016  -0.0031  -0.0029   0.00    0.0
2019/11/10 02:55:00.000  -2420721.4357  -3439856.1677   4778532.8011   6   8   0.0039   0.0038   0.0039   0.0016  -0.0031  -0.0029   0.00    0.0
2019/11/10 02:55:30.000  -2420721.4358  -3439856.1677   4778532.8012   6   8   0.0039   0.0038   0.0039   0.0016  -0.0031  -0.0029   0.00    0.0
2019/11/10 02:56:00.000  -2420721.4359  -3439856.1677   4778532.8013   6   8   0.0039   0.0038   0.0039   0.0016  -0.0031  -0.0029   0.00    0.0
2019/11/10 02:56:30.000  -2420721.4360  -3439856.1677   4778532.8013   6   8   0.0039   0.0038   0.0039   0.0016  -0.0031  -0.0029   0.00    0.0
2019/11/10 02:57:00.000  -2420721.4362  -3439856.1676   4778532.8014   6   8   0.0039   0.0038   0.0039   0.0016  -0.0031  -0.0029   0.00    0.0
2019/11/10 02:57:30.000  -2420721.4363  -3439856.1676   4778532.8015   6   8   0.0039   0.0038   0.0039   0.0016  -0.0031  -0.0029   0.00    0.0
2019/11/10 02:58:00.000  -2420721.4363  -3439856.1676   4778532.8015   6   8   0.0039   0.0038   0.0039   0.0016  -0.0031  -0.0029   0.00    0.0
2019/11/10 02:58:30.000  -2420721.4363  -3439856.1675   4778532.8015   6   8   0.0039   0.0038   0.0039   0.0016  -0.0031  -0.0029   0.00    0.0
2019/11/10 02:59:00.000  -2420721.4362  -3439856.1674   4778532.8015   6   8   0.0039   0.0038   0.0039   0.0016  -0.0031  -0.0029   0.00    0.0
2019/11/10 02:59:30.000  -2420721.4362  -3439856.1674   4778532.8015   6   8   0.0039   0.0038   0.0039   0.0016  -0.0031  -0.0029   0.00    0.0
2019/11/10 03:00:00.000  -2420721.4362  -3439856.1674   4778532.8015   6   8   0.0039   0.0038   0.0039   0.0016  -0.0031  -0.0029   0.00    0.0
2019/11/10 03:00:30.000  -2420721.4362  -3439856.1675   4778532.8015   6   8   0.0039   0.0038   0.0039   0.0016  -0.0031  -0.0029   0.00    0.0
2019/11/10 03:01:00.000  -2420721.4362  -3439856.1674   4778532.8014   6   8   0.0039   0.0038   0.0039   0.0016  -0.0031  -0.0029   0.00    0.0
2019/11/10 03:01:30.000  -2420721.4362  -3439856.1675   4778532.8015   6   8   0.0039   0.0038   0.0039   0.0016  -0.0031  -0.0029   0.00    0.0
2019/11/10 03:02:00.000  -2420721.4362  -3439856.1676   4778532.8015   6   8   0.0039   0.0038   0.0039   0.0016  -0.0031  -0.0029   0.00    0.0
2019/11/10 03:02:30.000  -2420721.4363  -3439856.1676   4778532.8015   6   8   0.0039   0.0038   0.0039   0.0016  -0.0031  -0.0029   0.00    0.0
2019/11/10 03:03:00.000  -2420721.4363  -3439856.1675   4778532.8015   6   8   0.0039   0.0038   0.0039   0.0016  -0.0031  -0.0029   0.00    0.0
2019/11/10 03:03:30.000  -2420721.4363  -3439856.1675   4778532.8015   6   8   0.0039   0.0038   0.0039   0.0016  -0.0031  -0.0029   0.00    0.0
2019/11/10 03:04:00.000  -2420721.4363  -3439856.1675   4778532.8014   6   8   0.0039   0.0038   0.0039   0.0016  -0.0031  -0.0029   0.00    0.0
2019/11/10 03:04:30.000  -2420721.4364  -3439856.1674   4778532.8014   6   8   0.0039   0.0038   0.0039   0.0016  -0.0031  -0.0029   0.00    0.0
2019/11/10 03:05:00.000  -2420721.4364  -3439856.1673   4778532.8014   6   8   0.0039   0.0038   0.0039   0.0016  -0.0031  -0.0029   0.00    0.0
2019/11/10 03:05:30.000  -2420721.4365  -3439856.1672   4778532.8014   6   8   0.0039   0.0038   0.0039   0.0016  -0.0031  -0.0029   0.00    0.0
2019/11/10 03:06:00.000  -2420721.4365  -3439856.1672   4778532.8015   6   7   0.0039   0.0038   0.0039   0.0016  -0.0031  -0.0029   0.00    0.0
2019/11/10 03:06:30.000  -2420721.4366  -3439856.1672   4778532.8015   6   8   0.0039   0.0038   0.0039   0.0016  -0.0031  -0.0029   0.00    0.0
2019/11/10 03:07:00.000  -2420721.4366  -3439856.1673   4778532.8015   6   8   0.0039   0.0038   0.0039   0.0016  -0.0031  -0.0029   0.00    0.0
2019/11/10 03:07:30.000  -2420721.4365  -3439856.1675   4778532.8014   6   8   0.0039   0.0038   0.0039   0.0016  -0.0031  -0.0029   0.00    0.0
2019/11/10 03:08:00.000  -2420721.4365  -3439856.1676   4778532.8014   6   8   0.0039   0.0038   0.0039   0.0016  -0.0031  -0.0029   0.00    0.0
2019/11/10 03:08:30.000  -2420721.4364  -3439856.1677   4778532.8013   6   8   0.0039   0.0038   0.0039   0.0016  -0.0031  -0.0029   0.00    0.0
2019/11/10 03:09:00.000  -2420721.4363  -3439856.1678   4778532.8013   6   8   0.0039   0.0038   0.0039   0.0016  -0.0031  -0.0029   0.00    0.0
2019/11/10 03:09:30.000  -2420721.4363  -3439856.1677   4778532.8013   6   8   0.0039   0.0038   0.0039   0.0016  -0.0031  -0.0029   0.00    0.0
2019/11/10 03:10:00.000  -2420721.4363  -3439856.1677   4778532.8012   6   8   0.0039   0.0038   0.0039   0.0016  -0.0031  -0.0029   0.00    0.0
2019/11/10 03:10:30.000  -2420721.4363  -3439856.1677   4778532.8012   6   8   0.0039   0.0038   0.0039   0.0016  -0.0031  -0.0029   0.00    0.0
2019/11/10 03:11:00.000  -2420721.4363  -3439856.1677   4778532.8012   6   8   0.0039   0.0038   0.0039   0.0016  -0.0031  -0.0029   0.00    0.0
2019/11/10 03:11:30.000  -2420721.4363  -3439856.1677   4778532.8012   6   8   0.0039   0.0038   0.0039   0.0016  -0.0031  -0.0029   0.00    0.0
2019/11/10 03:12:00.000  -2420721.4363  -3439856.1677   4778532.8012   6   8   0.0039   0.0038   0.0039   0.0016  -0.0031  -0.0029   0.00    0.0
2019/11/10 03:12:30.000  -2420721.4364  -3439856.1676   4778532.8013   6   8   0.0039   0.0038   0.0039   0.0016  -0.0031  -0.0029   0.00    0.0
2019/11/10 03:13:00.000  -2420721.4364  -3439856.1676   4778532.8013   6   8   0.0039   0.0038   0.0039   0.0016  -0.0031  -0.0029   0.00    0.0
2019/11/10 03:13:30.000  -2420721.4364  -3439856.1675   4778532.8013   6   8   0.0039   0.0038   0.0039   0.0016  -0.0031  -0.0029   0.00    0.0
2019/11/10 03:14:00.000  -2420721.4364  -3439856.1675   4778532.8013   6   8   0.0039   0.0038   0.0039   0.0016  -0.0031  -0.0029   0.00    0.0
2019/11/10 03:14:30.000  -2420721.4364  -3439856.1675   4778532.8014   6   8   0.0039   0.0038   0.0039   0.0016  -0.0031  -0.0029   0.00    0.0
2019/11/10 03:15:00.000  -2420721.4366  -3439856.1674   4778532.8014   6   8   0.0039   0.0038   0.0039   0.0016  -0.0031  -0.0029   0.00    0.0
2019/11/10 03:15:30.000  -2420721.4366  -3439856.1674   4778532.8014   6   8   0.0039   0.0038   0.0039   0.0016  -0.0031  -0.0029   0.00    0.0
2019/11/10 03:16:00.000  -2420721.4366  -3439856.1673   4778532.8014   6   8   0.0039   0.0038   0.0039   0.0016  -0.0031  -0.0029   0.00    0.0
2019/11/10 03:16:30.000  -2420721.4367  -3439856.1673   4778532.8014   6   8   0.0039   0.0038   0.0039   0.0016  -0.0031  -0.0029   0.00    0.0
2019/11/10 03:17:00.000  -2420721.4367  -3439856.1673   4778532.8014   6   8   0.0039   0.0038   0.0039   0.0016  -0.0031  -0.0029   0.00    0.0
2019/11/10 03:17:30.000  -2420721.4367  -3439856.1673   4778532.8014   6   8   0.0039   0.0038   0.0039   0.0016  -0.0031  -0.0029   0.00    0.0
2019/11/10 03:18:00.000  -2420721.4367  -3439856.1674   4778532.8014   6   8   0.0039   0.0038   0.0039   0.0016  -0.0031  -0.0029   0.00    0.0
2019/11/10 03:18:30.000  -2420721.4367  -3439856.1674   4778532.8014   6   8   0.0039   0.0038   0.0039   0.0016  -0.0031  -0.0029   0.00    0.0
2019/11/10 03:19:00.000  -2420721.4367  -3439856.1674   4778532.8014   6   8   0.0039   0.0038   0.0039   0.0016  -0.0031  -0.0029   0.00    0.0
2019/11/10 03:19:30.000  -2420721.4368  -3439856.1674   4778532.8013   6   8   0.0039   0.0038   0.0039   0.0016  -0.0031  -0.0029   0.00    0.0
2019/11/10 03:20:00.000  -2420721.4368  -3439856.1673   4778532.8013   6   8   0.0039   0.0038   0.0039   0.0016  -0.0031  -0.0029   0.00    0.0
2019/11/10 03:20:30.000  -2420721.4368  -3439856.1673   4778532.8012   6   8   0.0039   0.0038   0.0039   0.0016  -0.0031  -0.0029   0.00    0.0
2019/11/10 03:21:00.000  -2420721.4368  -3439856.1673   4778532.8013   6   8   0.0039   0.0038   0.0039   0.0016  -0.0031  -0.0029   0.00    0.0
2019/11/10 03:21:30.000  -2420721.4368  -3439856.1674   4778532.8012   6   8   0.0039   0.0038   0.0039   0.0016  -0.0031  -0.0029   0.00    0.0
2019/11/10 03:22:00.000  -2420721.4367  -3439856.1674   4778532.8011   6   8   0.0039   0.0038   0.0039   0.0016  -0.0031  -0.0029   0.00    0.0
2019/11/10 03:22:30.000  -2420721.4366  -3439856.1674   4778532.8011   6   8   0.0039   0.0038   0.0039   0.0016  -0.0031  -0.0029   0.00    0.0
2019/11/10 03:23:00.000  -2420721.4366  -3439856.1674   4778532.8011   6   8   0.0039   0.0038   0.0039   0.0016  -0.0031  -0.0029   0.00    0.0
