% program   : RTKPOST ver.2.4.3 b34
% inp file  : C:\Users\Danisimo\Desktop\??????\Bamf\bamf3140.19o
% inp file  : C:\Users\Danisimo\Desktop\??????\Uclu\uclu3140.19o
% inp file  : C:\Users\Danisimo\Desktop\??????\brdc3140.19n
% inp file  : C:\Users\Danisimo\Desktop\??????\igs20790.sp3
% inp file  : C:\Users\Danisimo\Desktop\??????\igs20790.clk_30s
% obs start : 2019/11/10 00:00:00.0 GPST (week2079      0.0s)
% obs end   : 2019/11/10 23:59:30.0 GPST (week2079  86370.0s)
% pos mode  : Static
% freqs     : L1+2
% solution  : Forward
% elev mask : 15.0 deg
% dynamics  : off
% tidecorr  : off
% ionos opt : Broadcast
% tropo opt : Saastamoinen
% ephemeris : Precise
% navi sys  : GPS
% amb res   : Continuous
% val thres : 3.0
% antenna1  :                       ( 0.0000  0.0000  0.0000)
% antenna2  :                       ( 0.0000  0.0000  0.0771)
% ref pos   : -2440669.1677  -3416437.1127   4785136.8030
%
% (x/y/z-ecef=WGS84,Q=1:fix,2:float,3:sbas,4:dgps,5:single,6:ppp,ns=# of satellites)
%  GPST                      x-ecef(m)      y-ecef(m)      z-ecef(m)   Q  ns   sdx(m)   sdy(m)   sdz(m)  sdxy(m)  sdyz(m)  sdzx(m) age(s)  ratio
2019/11/10 00:00:00.000  -2420721.4316  -3439856.1151   4778532.7435   1   8   0.0067   0.0064   0.0099   0.0052  -0.0062  -0.0038   0.00    4.0
2019/11/10 00:00:30.000  -2420721.4314  -3439856.1166   4778532.7471   1   8   0.0047   0.0046   0.0070   0.0037  -0.0044  -0.0027   0.00    4.3
2019/11/10 00:01:00.000  -2420721.4314  -3439856.1179   4778532.7489   1   8   0.0038   0.0037   0.0057   0.0030  -0.0036  -0.0022   0.00    4.0
2019/11/10 00:01:30.000  -2420721.4311  -3439856.1194   4778532.7514   1   8   0.0033   0.0032   0.0049   0.0026  -0.0031  -0.0019   0.00    3.8
2019/11/10 00:02:00.000  -2420721.4322  -3439856.1210   4778532.7529   1   8   0.0030   0.0029   0.0044   0.0023  -0.0028  -0.0017   0.00    3.9
2019/11/10 00:02:30.000  -2420721.4333  -3439856.1229   4778532.7551   1   8   0.0027   0.0027   0.0040   0.0021  -0.0026  -0.0016   0.00    4.0
2019/11/10 00:03:00.000  -2420721.4338  -3439856.1245   4778532.7564   1   8   0.0025   0.0025   0.0037   0.0020  -0.0024  -0.0015   0.00    4.1
2019/11/10 00:03:30.000  -2420721.4337  -3439856.1264   4778532.7577   1   8   0.0024   0.0023   0.0035   0.0019  -0.0022  -0.0014   0.00    4.2
2019/11/10 00:04:00.000  -2420721.4334  -3439856.1281   4778532.7584   1   8   0.0022   0.0022   0.0033   0.0018  -0.0021  -0.0013   0.00    4.5
2019/11/10 00:04:30.000  -2420721.4332  -3439856.1293   4778532.7590   1   8   0.0021   0.0021   0.0031   0.0017  -0.0020  -0.0013   0.00    4.8
2019/11/10 00:05:00.000  -2420721.4330  -3439856.1304   4778532.7590   1   8   0.0020   0.0020   0.0030   0.0016  -0.0019  -0.0012   0.00    5.1
2019/11/10 00:05:30.000  -2420721.4325  -3439856.1314   4778532.7592   1   8   0.0019   0.0019   0.0028   0.0015  -0.0018  -0.0012   0.00    5.4
2019/11/10 00:06:00.000  -2420721.4318  -3439856.1322   4778532.7595   1   8   0.0019   0.0018   0.0027   0.0015  -0.0018  -0.0011   0.00    5.7
2019/11/10 00:06:30.000  -2420721.4310  -3439856.1328   4778532.7599   1   8   0.0018   0.0018   0.0026   0.0014  -0.0017  -0.0011   0.00    5.9
2019/11/10 00:07:00.000  -2420721.4306  -3439856.1334   4778532.7600   1   8   0.0017   0.0017   0.0025   0.0014  -0.0017  -0.0011   0.00    6.3
2019/11/10 00:07:30.000  -2420721.4304  -3439856.1340   4778532.7604   1   8   0.0017   0.0017   0.0025   0.0013  -0.0016  -0.0011   0.00    6.8
2019/11/10 00:08:00.000  -2420721.4300  -3439856.1346   4778532.7611   1   8   0.0016   0.0016   0.0024   0.0013  -0.0016  -0.0010   0.00    7.4
2019/11/10 00:08:30.000  -2420721.4299  -3439856.1352   4778532.7615   1   8   0.0016   0.0016   0.0023   0.0013  -0.0015  -0.0010   0.00    8.2
2019/11/10 00:09:00.000  -2420721.4296  -3439856.1356   4778532.7619   1   8   0.0015   0.0015   0.0023   0.0012  -0.0015  -0.0010   0.00    8.9
2019/11/10 00:09:30.000  -2420721.4293  -3439856.1358   4778532.7622   1   8   0.0015   0.0015   0.0022   0.0012  -0.0015  -0.0010   0.00    9.5
2019/11/10 00:10:00.000  -2420721.4291  -3439856.1362   4778532.7627   1   8   0.0015   0.0015   0.0022   0.0012  -0.0014  -0.0010   0.00   10.1
2019/11/10 00:10:30.000  -2420721.4289  -3439856.1365   4778532.7629   1   8   0.0014   0.0014   0.0021   0.0012  -0.0014  -0.0009   0.00   10.4
2019/11/10 00:11:00.000  -2420721.4286  -3439856.1367   4778532.7632   1   8   0.0014   0.0014   0.0021   0.0011  -0.0014  -0.0009   0.00   10.1
2019/11/10 00:11:30.000  -2420721.4282  -3439856.1369   4778532.7634   1   8   0.0014   0.0014   0.0020   0.0011  -0.0013  -0.0009   0.00    9.8
2019/11/10 00:12:00.000  -2420721.4280  -3439856.1370   4778532.7637   1   8   0.0014   0.0014   0.0020   0.0011  -0.0013  -0.0009   0.00    9.6
2019/11/10 00:12:30.000  -2420721.4277  -3439856.1371   4778532.7642   1   8   0.0013   0.0013   0.0019   0.0011  -0.0013  -0.0009   0.00    9.5
2019/11/10 00:13:00.000  -2420721.4275  -3439856.1372   4778532.7645   1   8   0.0013   0.0013   0.0019   0.0011  -0.0013  -0.0009   0.00    9.6
2019/11/10 00:13:30.000  -2420721.4272  -3439856.1370   4778532.7647   1   8   0.0013   0.0013   0.0019   0.0011  -0.0013  -0.0009   0.00    9.8
2019/11/10 00:14:00.000  -2420721.4271  -3439856.1369   4778532.7651   1   8   0.0013   0.0013   0.0018   0.0010  -0.0012  -0.0009   0.00   10.0
2019/11/10 00:14:30.000  -2420721.4272  -3439856.1367   4778532.7655   1   8   0.0013   0.0013   0.0018   0.0010  -0.0012  -0.0009   0.00   10.2
2019/11/10 00:15:00.000  -2420721.1754  -3439855.9641   4778532.7113   2   9   0.0365   0.0241   0.0153   0.0204  -0.0124  -0.0171   0.00    1.1
2019/11/10 00:15:30.000  -2420721.1982  -3439855.9901   4778532.7238   2   9   0.0349   0.0230   0.0146   0.0195  -0.0118  -0.0164   0.00    1.1
2019/11/10 00:16:00.000  -2420721.2264  -3439856.0160   4778532.7379   2   9   0.0335   0.0219   0.0140   0.0186  -0.0112  -0.0157   0.00    1.1
2019/11/10 00:16:30.000  -2420721.2500  -3439856.0358   4778532.7529   2   9   0.0322   0.0210   0.0134   0.0178  -0.0107  -0.0151   0.00    1.0
2019/11/10 00:17:00.000  -2420721.2696  -3439856.0550   4778532.7643   2   9   0.0310   0.0201   0.0128   0.0171  -0.0103  -0.0145   0.00    1.0
2019/11/10 00:17:30.000  -2420721.2893  -3439856.0719   4778532.7741   2   9   0.0298   0.0192   0.0123   0.0164  -0.0098  -0.0139   0.00    1.0
2019/11/10 00:18:00.000  -2420721.3089  -3439856.0857   4778532.7820   2   9   0.0287   0.0184   0.0119   0.0158  -0.0094  -0.0134   0.00    1.1
2019/11/10 00:18:30.000  -2420721.3309  -3439856.0966   4778532.7904   2   9   0.0277   0.0177   0.0114   0.0152  -0.0090  -0.0129   0.00    1.2
2019/11/10 00:19:00.000  -2420721.3499  -3439856.1073   4778532.7965   2   9   0.0268   0.0170   0.0110   0.0146  -0.0087  -0.0125   0.00    1.2
2019/11/10 00:19:30.000  -2420721.3694  -3439856.1182   4778532.8021   2   9   0.0259   0.0164   0.0106   0.0141  -0.0084  -0.0121   0.00    1.2
2019/11/10 00:20:00.000  -2420721.3880  -3439856.1255   4778532.8063   2   9   0.0250   0.0158   0.0102   0.0136  -0.0080  -0.0116   0.00    1.2
2019/11/10 00:20:30.000  -2420721.4011  -3439856.1279   4778532.8083   2   9   0.0242   0.0152   0.0099   0.0131  -0.0077  -0.0113   0.00    1.3
2019/11/10 00:21:00.000  -2420721.4112  -3439856.1276   4778532.8091   2   9   0.0235   0.0147   0.0096   0.0126  -0.0075  -0.0109   0.00    1.3
2019/11/10 00:21:30.000  -2420721.4216  -3439856.1274   4778532.8098   2   9   0.0228   0.0142   0.0093   0.0122  -0.0072  -0.0106   0.00    1.4
2019/11/10 00:22:00.000  -2420721.4262  -3439856.1233   4778532.8088   2   9   0.0221   0.0137   0.0090   0.0118  -0.0070  -0.0102   0.00    1.4
2019/11/10 00:22:30.000  -2420721.4294  -3439856.1173   4778532.8076   2   9   0.0214   0.0132   0.0087   0.0115  -0.0067  -0.0099   0.00    1.5
2019/11/10 00:23:00.000  -2420721.4333  -3439856.1133   4778532.8063   2   9   0.0208   0.0128   0.0084   0.0111  -0.0065  -0.0096   0.00    1.5
2019/11/10 00:23:30.000  -2420721.4332  -3439856.1071   4778532.8048   2   9   0.0202   0.0124   0.0082   0.0108  -0.0063  -0.0094   0.00    1.6
2019/11/10 00:24:00.000  -2420721.4329  -3439856.1010   4778532.8027   2   9   0.0197   0.0120   0.0079   0.0104  -0.0061  -0.0091   0.00    1.8
2019/11/10 00:24:30.000  -2420721.4353  -3439856.0989   4778532.8011   2   9   0.0192   0.0116   0.0077   0.0101  -0.0059  -0.0088   0.00    1.9
2019/11/10 00:25:00.000  -2420721.4373  -3439856.0980   4778532.7995   2   9   0.0186   0.0113   0.0075   0.0098  -0.0057  -0.0086   0.00    2.0
2019/11/10 00:25:30.000  -2420721.4410  -3439856.0979   4778532.7975   2   9   0.0182   0.0109   0.0073   0.0096  -0.0056  -0.0084   0.00    2.2
2019/11/10 00:26:00.000  -2420721.4445  -3439856.0982   4778532.7950   2   9   0.0177   0.0106   0.0071   0.0093  -0.0054  -0.0081   0.00    2.3
2019/11/10 00:26:30.000  -2420721.4486  -3439856.0991   4778532.7927   2   9   0.0173   0.0103   0.0069   0.0091  -0.0052  -0.0079   0.00    2.5
2019/11/10 00:27:00.000  -2420721.4519  -3439856.1017   4778532.7911   2   9   0.0168   0.0100   0.0067   0.0088  -0.0051  -0.0077   0.00    2.7
2019/11/10 00:27:30.000  -2420721.4556  -3439856.1069   4778532.7899   2   9   0.0164   0.0098   0.0066   0.0086  -0.0049  -0.0075   0.00    2.9
2019/11/10 00:28:00.000  -2420721.4245  -3439856.1387   4778532.7780   1   9   0.0010   0.0010   0.0013   0.0008  -0.0009  -0.0008   0.00    3.1
2019/11/10 00:28:30.000  -2420721.4248  -3439856.1387   4778532.7778   1   9   0.0010   0.0010   0.0013   0.0008  -0.0009  -0.0007   0.00    3.4
2019/11/10 00:29:00.000  -2420721.4251  -3439856.1388   4778532.7775   1   9   0.0010   0.0010   0.0013   0.0008  -0.0009  -0.0007   0.00    3.6
2019/11/10 00:29:30.000  -2420721.4254  -3439856.1389   4778532.7772   1   9   0.0010   0.0010   0.0012   0.0008  -0.0009  -0.0007   0.00    3.9
2019/11/10 00:30:00.000  -2420721.4257  -3439856.1389   4778532.7768   1   9   0.0010   0.0010   0.0012   0.0008  -0.0009  -0.0007   0.00    4.3
2019/11/10 00:30:30.000  -2420721.4259  -3439856.1389   4778532.7764   1   9   0.0010   0.0010   0.0012   0.0008  -0.0009  -0.0007   0.00    4.6
2019/11/10 00:31:00.000  -2420721.4261  -3439856.1387   4778532.7759   1   9   0.0010   0.0010   0.0012   0.0008  -0.0009  -0.0007   0.00    5.0
2019/11/10 00:31:30.000  -2420721.4263  -3439856.1386   4778532.7755   1   9   0.0010   0.0010   0.0012   0.0008  -0.0009  -0.0007   0.00    5.4
2019/11/10 00:32:00.000  -2420721.4266  -3439856.1386   4778532.7751   1   9   0.0010   0.0010   0.0012   0.0008  -0.0009  -0.0007   0.00    5.7
2019/11/10 00:32:30.000  -2420721.4268  -3439856.1385   4778532.7748   1   9   0.0010   0.0010   0.0012   0.0008  -0.0009  -0.0007   0.00    6.1
2019/11/10 00:33:00.000  -2420721.4271  -3439856.1384   4778532.7744   1   9   0.0009   0.0010   0.0012   0.0008  -0.0009  -0.0007   0.00    6.4
2019/11/10 00:33:30.000  -2420721.4274  -3439856.1384   4778532.7741   1   9   0.0009   0.0010   0.0012   0.0008  -0.0009  -0.0007   0.00    6.8
2019/11/10 00:34:00.000  -2420721.4279  -3439856.1384   4778532.7739   1   9   0.0009   0.0010   0.0012   0.0008  -0.0009  -0.0007   0.00    7.2
2019/11/10 00:34:30.000  -2420721.4286  -3439856.1418   4778532.7753   1   8   0.0009   0.0010   0.0012   0.0008  -0.0009  -0.0007   0.00    8.3
2019/11/10 00:35:00.000  -2420721.4290  -3439856.1417   4778532.7750   1   8   0.0009   0.0010   0.0012   0.0008  -0.0009  -0.0007   0.00    8.5
2019/11/10 00:35:30.000  -2420721.4289  -3439856.1384   4778532.7732   1   9   0.0009   0.0010   0.0011   0.0008  -0.0009  -0.0007   0.00    7.9
2019/11/10 00:36:00.000  -2420721.4291  -3439856.1384   4778532.7731   1   9   0.0009   0.0010   0.0011   0.0008  -0.0008  -0.0007   0.00    8.1
2019/11/10 00:36:30.000  -2420721.4293  -3439856.1385   4778532.7730   1   9   0.0009   0.0009   0.0011   0.0008  -0.0008  -0.0007   0.00    8.2
2019/11/10 00:37:00.000  -2420721.4294  -3439856.1385   4778532.7730   1   9   0.0009   0.0009   0.0011   0.0008  -0.0008  -0.0007   0.00    8.3
2019/11/10 00:37:30.000  -2420721.4295  -3439856.1385   4778532.7729   1   9   0.0009   0.0009   0.0011   0.0008  -0.0008  -0.0007   0.00    8.5
2019/11/10 00:38:00.000  -2420721.4296  -3439856.1386   4778532.7728   1   9   0.0009   0.0009   0.0011   0.0008  -0.0008  -0.0007   0.00    8.7
2019/11/10 00:38:30.000  -2420721.4297  -3439856.1386   4778532.7728   1   9   0.0009   0.0009   0.0011   0.0008  -0.0008  -0.0007   0.00    9.0
2019/11/10 00:39:00.000  -2420721.4298  -3439856.1385   4778532.7726   1   9   0.0009   0.0009   0.0011   0.0008  -0.0008  -0.0007   0.00    9.2
2019/11/10 00:39:30.000  -2420721.4297  -3439856.1384   4778532.7724   1   9   0.0009   0.0009   0.0011   0.0008  -0.0008  -0.0007   0.00    9.4
2019/11/10 00:40:00.000  -2420721.4295  -3439856.1382   4778532.7721   1   9   0.0009   0.0009   0.0011   0.0008  -0.0008  -0.0007   0.00    9.6
2019/11/10 00:40:30.000  -2420721.4295  -3439856.1380   4778532.7717   1   9   0.0009   0.0009   0.0011   0.0008  -0.0008  -0.0007   0.00    9.9
2019/11/10 00:41:00.000  -2420721.4294  -3439856.1378   4778532.7714   1   9   0.0009   0.0009   0.0011   0.0008  -0.0008  -0.0007   0.00   10.2
2019/11/10 00:41:30.000  -2420721.4293  -3439856.1376   4778532.7711   1   9   0.0009   0.0009   0.0011   0.0008  -0.0008  -0.0007   0.00   10.3
2019/11/10 00:42:00.000  -2420721.4291  -3439856.1374   4778532.7707   1   9   0.0009   0.0009   0.0011   0.0008  -0.0008  -0.0007   0.00   10.5
2019/11/10 00:42:30.000  -2420721.4290  -3439856.1372   4778532.7703   1   9   0.0009   0.0009   0.0011   0.0008  -0.0008  -0.0007   0.00   10.7
2019/11/10 00:43:00.000  -2420721.4289  -3439856.1370   4778532.7699   1   9   0.0009   0.0009   0.0011   0.0008  -0.0008  -0.0007   0.00   10.8
2019/11/10 00:43:30.000  -2420721.4286  -3439856.1367   4778532.7694   1   9   0.0009   0.0009   0.0011   0.0008  -0.0008  -0.0007   0.00   11.0
2019/11/10 00:44:00.000  -2420721.4285  -3439856.1364   4778532.7689   1   9   0.0009   0.0009   0.0011   0.0008  -0.0008  -0.0007   0.00   11.2
2019/11/10 00:44:30.000  -2420721.4283  -3439856.1361   4778532.7685   1   9   0.0009   0.0009   0.0010   0.0008  -0.0008  -0.0007   0.00   11.4
2019/11/10 00:45:00.000  -2420721.4281  -3439856.1360   4778532.7681   1   9   0.0009   0.0009   0.0010   0.0008  -0.0008  -0.0007   0.00   11.6
2019/11/10 00:45:30.000  -2420721.4279  -3439856.1357   4778532.7677   1   9   0.0009   0.0009   0.0010   0.0008  -0.0008  -0.0007   0.00   11.9
2019/11/10 00:46:00.000  -2420721.4275  -3439856.1354   4778532.7672   1   9   0.0009   0.0009   0.0010   0.0008  -0.0008  -0.0007   0.00   12.1
2019/11/10 00:46:30.000  -2420721.4273  -3439856.1352   4778532.7668   1   9   0.0009   0.0009   0.0010   0.0008  -0.0008  -0.0007   0.00   12.4
2019/11/10 00:47:00.000  -2420721.4268  -3439856.1347   4778532.7663   1   9   0.0009   0.0009   0.0010   0.0008  -0.0008  -0.0007   0.00   12.7
2019/11/10 00:47:30.000  -2420721.4264  -3439856.1345   4778532.7659   1   9   0.0009   0.0009   0.0010   0.0008  -0.0008  -0.0007   0.00   12.9
2019/11/10 00:48:00.000  -2420721.5742  -3439856.1477   4778532.7856   2   9   0.0082   0.0042   0.0032   0.0039  -0.0021  -0.0036   0.00    1.5
2019/11/10 00:48:30.000  -2420721.5724  -3439856.1464   4778532.7850   2   9   0.0081   0.0042   0.0031   0.0039  -0.0021  -0.0035   0.00    1.9
2019/11/10 00:49:00.000  -2420721.5706  -3439856.1453   4778532.7849   2   9   0.0080   0.0042   0.0031   0.0039  -0.0021  -0.0035   0.00    1.5
2019/11/10 00:49:30.000  -2420721.5687  -3439856.1442   4778532.7846   2   9   0.0079   0.0041   0.0030   0.0038  -0.0020  -0.0034   0.00    2.0
2019/11/10 00:50:00.000  -2420721.5672  -3439856.1434   4778532.7844   2   9   0.0079   0.0041   0.0030   0.0038  -0.0020  -0.0034   0.00    2.5
2019/11/10 00:50:30.000  -2420721.5655  -3439856.1427   4778532.7841   2   9   0.0078   0.0041   0.0030   0.0038  -0.0020  -0.0033   0.00    3.0
2019/11/10 00:51:00.000  -2420721.4235  -3439856.1328   4778532.7635   1   9   0.0012   0.0010   0.0010   0.0010  -0.0008  -0.0008   0.00    3.5
2019/11/10 00:51:30.000  -2420721.5632  -3439856.1418   4778532.7841   2   9   0.0076   0.0040   0.0029   0.0037  -0.0020  -0.0033   0.00    1.5
2019/11/10 00:52:00.000  -2420721.5622  -3439856.1415   4778532.7842   2   9   0.0075   0.0040   0.0029   0.0037  -0.0019  -0.0032   0.00    2.1
2019/11/10 00:52:30.000  -2420721.5616  -3439856.1413   4778532.7845   2   9   0.0075   0.0039   0.0028   0.0037  -0.0019  -0.0032   0.00    2.6
2019/11/10 00:53:00.000  -2420721.4237  -3439856.1328   4778532.7629   1   9   0.0012   0.0010   0.0010   0.0010  -0.0008  -0.0008   0.00    3.1
2019/11/10 00:53:30.000  -2420721.4238  -3439856.1329   4778532.7629   1   9   0.0012   0.0010   0.0010   0.0010  -0.0008  -0.0008   0.00    3.6
2019/11/10 00:54:00.000  -2420721.4240  -3439856.1330   4778532.7629   1   9   0.0012   0.0010   0.0010   0.0010  -0.0008  -0.0008   0.00    4.1
2019/11/10 00:54:30.000  -2420721.4245  -3439856.1333   4778532.7630   1   9   0.0012   0.0010   0.0010   0.0010  -0.0008  -0.0008   0.00    4.7
2019/11/10 00:55:00.000  -2420721.4250  -3439856.1336   4778532.7632   1   9   0.0012   0.0010   0.0010   0.0009  -0.0008  -0.0008   0.00    5.2
2019/11/10 00:55:30.000  -2420721.4253  -3439856.1338   4778532.7633   1   9   0.0011   0.0010   0.0010   0.0009  -0.0008  -0.0008   0.00    5.7
2019/11/10 00:56:00.000  -2420721.4257  -3439856.1340   4778532.7634   1   9   0.0011   0.0010   0.0010   0.0009  -0.0008  -0.0008   0.00    6.3
2019/11/10 00:56:30.000  -2420721.4260  -3439856.1342   4778532.7636   1   9   0.0011   0.0010   0.0010   0.0009  -0.0008  -0.0008   0.00    6.8
2019/11/10 00:57:00.000  -2420721.4263  -3439856.1345   4778532.7637   1   9   0.0011   0.0010   0.0010   0.0009  -0.0008  -0.0008   0.00    7.3
2019/11/10 00:57:30.000  -2420721.4266  -3439856.1344   4778532.7650   1   8   0.0011   0.0010   0.0011   0.0009  -0.0008  -0.0008   0.00    7.9
2019/11/10 00:58:00.000  -2420721.4268  -3439856.1346   4778532.7649   1   8   0.0011   0.0010   0.0011   0.0009  -0.0008  -0.0008   0.00    8.4
2019/11/10 00:58:30.000  -2420721.4270  -3439856.1347   4778532.7648   1   8   0.0011   0.0010   0.0011   0.0009  -0.0008  -0.0007   0.00    8.9
2019/11/10 00:59:00.000  -2420721.4272  -3439856.1349   4778532.7647   1   8   0.0011   0.0010   0.0010   0.0009  -0.0008  -0.0007   0.00    9.4
2019/11/10 00:59:30.000  -2420721.4274  -3439856.1350   4778532.7646   1   8   0.0010   0.0009   0.0010   0.0009  -0.0007  -0.0007   0.00    9.9
2019/11/10 01:00:00.000  -2420721.4276  -3439856.1352   4778532.7646   1   8   0.0010   0.0009   0.0010   0.0009  -0.0007  -0.0007   0.00   10.3
2019/11/10 01:00:30.000  -2420721.4278  -3439856.1354   4778532.7646   1   8   0.0010   0.0009   0.0010   0.0009  -0.0007  -0.0007   0.00   10.7
2019/11/10 01:01:00.000  -2420721.4279  -3439856.1354   4778532.7646   1   8   0.0010   0.0009   0.0010   0.0008  -0.0007  -0.0007   0.00   11.2
2019/11/10 01:01:30.000  -2420721.4280  -3439856.1355   4778532.7646   1   8   0.0010   0.0009   0.0010   0.0008  -0.0007  -0.0007   0.00   11.7
2019/11/10 01:02:00.000  -2420721.4281  -3439856.1356   4778532.7645   1   8   0.0010   0.0009   0.0010   0.0008  -0.0007  -0.0007   0.00   12.3
2019/11/10 01:02:30.000  -2420721.4282  -3439856.1356   4778532.7643   1   8   0.0010   0.0009   0.0010   0.0008  -0.0007  -0.0007   0.00   12.9
2019/11/10 01:03:00.000  -2420721.4283  -3439856.1356   4778532.7642   1   8   0.0010   0.0009   0.0010   0.0008  -0.0007  -0.0007   0.00   13.3
2019/11/10 01:03:30.000  -2420721.4283  -3439856.1356   4778532.7640   1   8   0.0010   0.0009   0.0010   0.0008  -0.0007  -0.0007   0.00   13.9
2019/11/10 01:04:00.000  -2420721.4283  -3439856.1356   4778532.7639   1   8   0.0010   0.0009   0.0010   0.0008  -0.0007  -0.0007   0.00   14.6
2019/11/10 01:04:30.000  -2420721.4283  -3439856.1355   4778532.7637   1   8   0.0009   0.0009   0.0010   0.0008  -0.0007  -0.0007   0.00   15.2
2019/11/10 01:05:00.000  -2420721.4282  -3439856.1355   4778532.7635   1   8   0.0009   0.0009   0.0010   0.0008  -0.0007  -0.0007   0.00   15.7
2019/11/10 01:05:30.000  -2420721.4282  -3439856.1355   4778532.7633   1   8   0.0009   0.0009   0.0010   0.0008  -0.0007  -0.0007   0.00   16.3
2019/11/10 01:06:00.000  -2420721.4282  -3439856.1355   4778532.7631   1   8   0.0009   0.0009   0.0010   0.0008  -0.0007  -0.0007   0.00   16.8
2019/11/10 01:06:30.000  -2420721.4283  -3439856.1355   4778532.7630   1   8   0.0009   0.0009   0.0010   0.0008  -0.0007  -0.0007   0.00   17.4
2019/11/10 01:07:00.000  -2420721.4285  -3439856.1357   4778532.7630   1   8   0.0009   0.0009   0.0010   0.0008  -0.0007  -0.0007   0.00   18.1
2019/11/10 01:07:30.000  -2420721.4285  -3439856.1357   4778532.7629   1   8   0.0009   0.0009   0.0010   0.0008  -0.0007  -0.0007   0.00   18.8
2019/11/10 01:08:00.000  -2420721.4287  -3439856.1357   4778532.7630   1   8   0.0009   0.0009   0.0010   0.0008  -0.0007  -0.0007   0.00   19.6
2019/11/10 01:08:30.000  -2420721.4287  -3439856.1357   4778532.7630   1   8   0.0009   0.0009   0.0010   0.0008  -0.0007  -0.0007   0.00   20.3
2019/11/10 01:09:00.000  -2420721.4265  -3439856.1310   4778532.7600   1   7   0.0009   0.0011   0.0011   0.0009  -0.0009  -0.0008   0.00   22.0
2019/11/10 01:09:30.000  -2420721.4265  -3439856.1310   4778532.7600   1   7   0.0009   0.0011   0.0011   0.0009  -0.0009  -0.0007   0.00   22.7
2019/11/10 01:10:00.000  -2420721.4265  -3439856.1309   4778532.7600   1   7   0.0009   0.0011   0.0011   0.0009  -0.0009  -0.0007   0.00   23.3
2019/11/10 01:10:30.000  -2420721.4264  -3439856.1308   4778532.7600   1   7   0.0009   0.0011   0.0011   0.0009  -0.0008  -0.0007   0.00   24.0
2019/11/10 01:11:00.000  -2420721.4264  -3439856.1307   4778532.7600   1   7   0.0009   0.0011   0.0011   0.0008  -0.0008  -0.0007   0.00   24.7
2019/11/10 01:11:30.000  -2420721.4264  -3439856.1306   4778532.7600   1   7   0.0009   0.0011   0.0010   0.0008  -0.0008  -0.0007   0.00   25.4
2019/11/10 01:12:00.000  -2420721.4264  -3439856.1305   4778532.7599   1   7   0.0009   0.0011   0.0010   0.0008  -0.0008  -0.0007   0.00   26.1
2019/11/10 01:12:30.000  -2420721.4267  -3439856.1306   4778532.7601   1   7   0.0009   0.0011   0.0010   0.0008  -0.0008  -0.0007   0.00   26.9
2019/11/10 01:13:00.000  -2420721.4267  -3439856.1307   4778532.7601   1   7   0.0009   0.0011   0.0010   0.0008  -0.0008  -0.0007   0.00   27.7
2019/11/10 01:13:30.000  -2420721.4269  -3439856.1307   4778532.7601   1   7   0.0009   0.0011   0.0010   0.0008  -0.0008  -0.0007   0.00   28.3
2019/11/10 01:14:00.000  -2420721.4272  -3439856.1309   4778532.7602   1   7   0.0009   0.0011   0.0010   0.0008  -0.0008  -0.0007   0.00   28.9
2019/11/10 01:14:30.000  -2420721.4277  -3439856.1312   4778532.7604   1   7   0.0009   0.0011   0.0010   0.0008  -0.0008  -0.0007   0.00   29.5
2019/11/10 01:15:00.000  -2420721.4281  -3439856.1315   4778532.7605   1   7   0.0009   0.0011   0.0010   0.0008  -0.0008  -0.0007   0.00   30.1
2019/11/10 01:15:30.000  -2420721.4284  -3439856.1318   4778532.7606   1   7   0.0009   0.0011   0.0010   0.0008  -0.0008  -0.0007   0.00   30.5
2019/11/10 01:16:00.000  -2420721.4289  -3439856.1323   4778532.7609   1   7   0.0008   0.0011   0.0010   0.0008  -0.0008  -0.0007   0.00   30.9
2019/11/10 01:16:30.000  -2420721.4279  -3439856.1314   4778532.7603   1   6   0.0010   0.0012   0.0011   0.0009  -0.0009  -0.0008   0.00   34.8
2019/11/10 01:17:00.000  -2420721.4298  -3439856.1330   4778532.7613   1   7   0.0008   0.0011   0.0010   0.0008  -0.0008  -0.0007   0.00   31.7
2019/11/10 01:17:30.000  -2420721.4290  -3439856.1323   4778532.7609   1   6   0.0010   0.0012   0.0010   0.0009  -0.0009  -0.0008   0.00   35.4
2019/11/10 01:18:00.000  -2420721.4295  -3439856.1328   4778532.7612   1   6   0.0010   0.0012   0.0010   0.0009  -0.0009  -0.0008   0.00   35.8
2019/11/10 01:18:30.000  -2420721.4300  -3439856.1333   4778532.7615   1   6   0.0010   0.0012   0.0010   0.0009  -0.0009  -0.0008   0.00   36.3
2019/11/10 01:19:00.000  -2420721.4304  -3439856.1338   4778532.7617   1   6   0.0010   0.0012   0.0010   0.0009  -0.0009  -0.0008   0.00   37.0
2019/11/10 01:19:30.000  -2420721.5227  -3439856.1467   4778532.7734   2   7   0.0055   0.0026   0.0019   0.0026  -0.0013  -0.0021   0.00    1.5
2019/11/10 01:20:00.000  -2420721.5220  -3439856.1466   4778532.7729   2   7   0.0055   0.0025   0.0019   0.0026  -0.0013  -0.0021   0.00    1.8
2019/11/10 01:20:30.000  -2420721.5214  -3439856.1466   4778532.7726   2   7   0.0055   0.0025   0.0019   0.0026  -0.0013  -0.0021   0.00    2.2
2019/11/10 01:21:00.000  -2420721.5205  -3439856.1465   4778532.7721   2   7   0.0055   0.0025   0.0019   0.0026  -0.0013  -0.0021   0.00    2.5
2019/11/10 01:21:30.000  -2420721.5196  -3439856.1463   4778532.7716   2   7   0.0055   0.0025   0.0018   0.0026  -0.0013  -0.0020   0.00    2.9
2019/11/10 01:22:00.000  -2420721.4326  -3439856.1364   4778532.7632   1   7   0.0011   0.0013   0.0011   0.0011  -0.0009  -0.0009   0.00    3.3
2019/11/10 01:22:30.000  -2420721.4328  -3439856.1367   4778532.7633   1   7   0.0011   0.0013   0.0011   0.0011  -0.0009  -0.0009   0.00    3.8
2019/11/10 01:23:00.000  -2420721.4300  -3439856.1341   4778532.7618   1   6   0.0012   0.0013   0.0011   0.0011  -0.0010  -0.0009   0.00    8.2
2019/11/10 01:23:30.000  -2420721.4300  -3439856.1342   4778532.7617   1   6   0.0011   0.0013   0.0011   0.0011  -0.0010  -0.0009   0.00    9.2
2019/11/10 01:24:00.000  -2420721.4302  -3439856.1343   4778532.7617   1   6   0.0011   0.0013   0.0011   0.0011  -0.0009  -0.0009   0.00   10.1
2019/11/10 01:24:30.000  -2420721.4303  -3439856.1343   4778532.7618   1   6   0.0011   0.0013   0.0011   0.0011  -0.0009  -0.0009   0.00   11.0
2019/11/10 01:25:00.000  -2420721.4307  -3439856.1346   4778532.7619   1   6   0.0011   0.0013   0.0011   0.0011  -0.0009  -0.0009   0.00   11.6
2019/11/10 01:25:30.000  -2420721.4314  -3439856.1353   4778532.7624   1   6   0.0011   0.0013   0.0011   0.0010  -0.0009  -0.0008   0.00   11.8
2019/11/10 01:26:00.000  -2420721.4323  -3439856.1360   4778532.7628   1   6   0.0011   0.0013   0.0011   0.0010  -0.0009  -0.0008   0.00   11.9
2019/11/10 01:26:30.000  -2420721.4330  -3439856.1365   4778532.7631   1   6   0.0011   0.0013   0.0010   0.0010  -0.0009  -0.0008   0.00   12.3
2019/11/10 01:27:00.000  -2420721.4292  -3439856.1326   4778532.7608   1   6   0.0012   0.0013   0.0011   0.0011  -0.0010  -0.0009   0.00   46.0
2019/11/10 01:27:30.000  -2420721.4294  -3439856.1327   4778532.7607   1   6   0.0012   0.0013   0.0011   0.0011  -0.0010  -0.0009   0.00   46.1
2019/11/10 01:28:00.000  -2420721.4297  -3439856.1329   4778532.7608   1   6   0.0012   0.0013   0.0011   0.0011  -0.0010  -0.0009   0.00   46.2
2019/11/10 01:28:30.000  -2420721.4301  -3439856.1331   4778532.7608   1   6   0.0012   0.0013   0.0011   0.0011  -0.0010  -0.0009   0.00   46.4
2019/11/10 01:29:00.000  -2420721.4304  -3439856.1332   4778532.7609   1   6   0.0012   0.0013   0.0011   0.0011  -0.0010  -0.0009   0.00   46.7
2019/11/10 01:29:30.000  -2420721.4307  -3439856.1334   4778532.7609   1   6   0.0012   0.0013   0.0011   0.0011  -0.0010  -0.0009   0.00   47.0
2019/11/10 01:30:00.000  -2420721.4311  -3439856.1336   4778532.7609   1   6   0.0012   0.0013   0.0011   0.0011  -0.0010  -0.0009   0.00   47.2
2019/11/10 01:30:30.000  -2420721.4313  -3439856.1337   4778532.7609   1   6   0.0012   0.0013   0.0011   0.0011  -0.0010  -0.0009   0.00   47.3
2019/11/10 01:31:00.000  -2420721.4315  -3439856.1338   4778532.7608   1   6   0.0011   0.0013   0.0011   0.0011  -0.0010  -0.0009   0.00   47.6
2019/11/10 01:31:30.000  -2420721.4318  -3439856.1340   4778532.7608   1   6   0.0011   0.0013   0.0011   0.0011  -0.0010  -0.0009   0.00   48.0
2019/11/10 01:32:00.000  -2420721.4320  -3439856.1340   4778532.7607   1   6   0.0011   0.0013   0.0011   0.0011  -0.0010  -0.0009   0.00   48.2
2019/11/10 01:32:30.000  -2420721.4322  -3439856.1341   4778532.7606   1   6   0.0011   0.0013   0.0011   0.0011  -0.0010  -0.0009   0.00   48.5
2019/11/10 01:33:00.000  -2420721.4324  -3439856.1342   4778532.7605   1   6   0.0011   0.0013   0.0011   0.0011  -0.0009  -0.0009   0.00   48.8
2019/11/10 01:33:30.000  -2420721.4325  -3439856.1343   4778532.7604   1   6   0.0011   0.0013   0.0010   0.0011  -0.0009  -0.0008   0.00   49.3
2019/11/10 01:34:00.000  -2420721.4326  -3439856.1343   4778532.7602   1   6   0.0011   0.0013   0.0010   0.0011  -0.0009  -0.0008   0.00   49.9
2019/11/10 01:34:30.000  -2420721.4325  -3439856.1343   4778532.7600   1   6   0.0011   0.0013   0.0010   0.0011  -0.0009  -0.0008   0.00   50.5
2019/11/10 01:35:00.000  -2420721.4324  -3439856.1341   4778532.7599   1   6   0.0011   0.0013   0.0010   0.0011  -0.0009  -0.0008   0.00   51.0
2019/11/10 01:35:30.000  -2420721.4322  -3439856.1340   4778532.7597   1   6   0.0011   0.0013   0.0010   0.0011  -0.0009  -0.0008   0.00   51.6
2019/11/10 01:36:00.000  -2420721.4322  -3439856.1340   4778532.7595   1   6   0.0011   0.0013   0.0010   0.0011  -0.0009  -0.0008   0.00   52.2
2019/11/10 01:36:30.000  -2420721.4320  -3439856.1339   4778532.7593   1   6   0.0011   0.0013   0.0010   0.0011  -0.0009  -0.0008   0.00   53.0
2019/11/10 01:37:00.000  -2420721.4319  -3439856.1338   4778532.7592   1   6   0.0011   0.0013   0.0010   0.0010  -0.0009  -0.0008   0.00   53.6
2019/11/10 01:37:30.000  -2420721.4318  -3439856.1337   4778532.7591   1   6   0.0011   0.0013   0.0010   0.0010  -0.0009  -0.0008   0.00   54.3
2019/11/10 01:38:00.000  -2420721.4317  -3439856.1337   4778532.7590   1   6   0.0011   0.0013   0.0010   0.0010  -0.0009  -0.0008   0.00   54.9
2019/11/10 01:38:30.000  -2420721.5177  -3439856.1449   4778532.7672   2   7   0.0051   0.0020   0.0016   0.0022  -0.0010  -0.0017   0.00    1.4
2019/11/10 01:39:00.000  -2420721.5174  -3439856.1449   4778532.7670   2   6   0.0051   0.0020   0.0016   0.0021  -0.0010  -0.0017   0.00    1.8
2019/11/10 01:39:30.000  -2420721.5169  -3439856.1446   4778532.7668   2   6   0.0051   0.0020   0.0016   0.0021  -0.0010  -0.0017   0.00    2.2
2019/11/10 01:40:00.000  -2420721.5163  -3439856.1443   4778532.7666   2   6   0.0051   0.0020   0.0016   0.0021  -0.0010  -0.0017   0.00    2.6
2019/11/10 01:40:30.000  -2420721.4307  -3439856.1328   4778532.7597   1   6   0.0011   0.0014   0.0011   0.0011  -0.0007  -0.0007   0.00    3.0
2019/11/10 01:41:00.000  -2420721.4303  -3439856.1326   4778532.7596   1   6   0.0011   0.0014   0.0011   0.0011  -0.0007  -0.0007   0.00    3.5
2019/11/10 01:41:30.000  -2420721.4300  -3439856.1324   4778532.7594   1   6   0.0011   0.0014   0.0011   0.0011  -0.0007  -0.0007   0.00    3.9
2019/11/10 01:42:00.000  -2420721.4296  -3439856.1323   4778532.7593   1   6   0.0011   0.0014   0.0011   0.0010  -0.0007  -0.0007   0.00    4.3
2019/11/10 01:42:30.000  -2420721.4293  -3439856.1321   4778532.7593   1   6   0.0011   0.0013   0.0011   0.0010  -0.0007  -0.0007   0.00    4.8
2019/11/10 01:43:00.000  -2420721.4290  -3439856.1320   4778532.7592   1   6   0.0010   0.0013   0.0011   0.0010  -0.0007  -0.0007   0.00    5.2
2019/11/10 01:43:30.000  -2420721.4289  -3439856.1321   4778532.7593   1   6   0.0010   0.0013   0.0011   0.0010  -0.0007  -0.0007   0.00    5.6
2019/11/10 01:44:00.000  -2420721.4286  -3439856.1320   4778532.7592   1   6   0.0010   0.0013   0.0011   0.0010  -0.0007  -0.0007   0.00    6.1
2019/11/10 01:44:30.000  -2420721.4285  -3439856.1320   4778532.7592   1   6   0.0010   0.0013   0.0011   0.0010  -0.0007  -0.0007   0.00    6.5
2019/11/10 01:45:00.000  -2420721.4284  -3439856.1320   4778532.7591   1   6   0.0010   0.0013   0.0011   0.0010  -0.0007  -0.0007   0.00    7.0
2019/11/10 01:45:30.000  -2420721.4283  -3439856.1319   4778532.7590   1   6   0.0010   0.0013   0.0011   0.0010  -0.0007  -0.0007   0.00    7.5
2019/11/10 01:46:00.000  -2420721.4282  -3439856.1319   4778532.7589   1   6   0.0010   0.0013   0.0011   0.0010  -0.0007  -0.0007   0.00    8.1
2019/11/10 01:46:30.000  -2420721.4281  -3439856.1318   4778532.7587   1   6   0.0010   0.0013   0.0011   0.0010  -0.0007  -0.0007   0.00    8.6
2019/11/10 01:47:00.000  -2420721.4281  -3439856.1319   4778532.7586   1   6   0.0010   0.0013   0.0011   0.0010  -0.0007  -0.0007   0.00    9.1
2019/11/10 01:47:30.000  -2420721.4280  -3439856.1318   4778532.7584   1   6   0.0010   0.0013   0.0011   0.0010  -0.0007  -0.0007   0.00    9.7
2019/11/10 01:48:00.000  -2420721.4278  -3439856.1317   4778532.7581   1   6   0.0010   0.0013   0.0011   0.0010  -0.0007  -0.0007   0.00   10.4
2019/11/10 01:48:30.000  -2420721.4277  -3439856.1315   4778532.7579   1   6   0.0010   0.0013   0.0011   0.0010  -0.0007  -0.0007   0.00   11.0
2019/11/10 01:49:00.000  -2420721.4276  -3439856.1314   4778532.7576   1   6   0.0010   0.0013   0.0011   0.0010  -0.0006  -0.0006   0.00   11.6
2019/11/10 01:49:30.000  -2420721.4273  -3439856.1311   4778532.7573   1   6   0.0010   0.0013   0.0011   0.0009  -0.0006  -0.0006   0.00   12.2
2019/11/10 01:50:00.000  -2420721.4270  -3439856.1308   4778532.7571   1   6   0.0010   0.0013   0.0011   0.0009  -0.0006  -0.0006   0.00   12.7
2019/11/10 01:50:30.000  -2420721.4267  -3439856.1305   4778532.7568   1   6   0.0010   0.0012   0.0011   0.0009  -0.0006  -0.0006   0.00   13.2
2019/11/10 01:51:00.000  -2420721.4265  -3439856.1302   4778532.7565   1   6   0.0010   0.0012   0.0011   0.0009  -0.0006  -0.0006   0.00   13.7
2019/11/10 01:51:30.000  -2420721.4262  -3439856.1299   4778532.7563   1   6   0.0010   0.0012   0.0011   0.0009  -0.0006  -0.0006   0.00   14.3
2019/11/10 01:52:00.000  -2420721.4261  -3439856.1297   4778532.7560   1   6   0.0010   0.0012   0.0011   0.0009  -0.0006  -0.0006   0.00   14.8
2019/11/10 01:52:30.000  -2420721.4260  -3439856.1296   4778532.7559   1   6   0.0009   0.0012   0.0011   0.0009  -0.0006  -0.0006   0.00   15.4
2019/11/10 01:53:00.000  -2420721.4257  -3439856.1294   4778532.7558   1   6   0.0009   0.0012   0.0011   0.0009  -0.0006  -0.0006   0.00   15.9
2019/11/10 01:53:30.000  -2420721.4256  -3439856.1294   4778532.7557   1   6   0.0009   0.0012   0.0011   0.0009  -0.0006  -0.0006   0.00   16.5
2019/11/10 01:54:00.000  -2420721.4255  -3439856.1293   4778532.7557   1   6   0.0009   0.0012   0.0011   0.0009  -0.0006  -0.0006   0.00   17.0
2019/11/10 01:54:30.000  -2420721.4253  -3439856.1292   4778532.7557   1   6   0.0009   0.0012   0.0011   0.0009  -0.0006  -0.0006   0.00   17.6
2019/11/10 01:55:00.000  -2420721.4251  -3439856.1291   4778532.7556   1   6   0.0009   0.0012   0.0011   0.0009  -0.0006  -0.0006   0.00   18.2
2019/11/10 01:55:30.000  -2420721.4250  -3439856.1290   4778532.7555   1   6   0.0009   0.0012   0.0011   0.0009  -0.0006  -0.0006   0.00   18.8
2019/11/10 01:56:00.000  -2420721.4983  -3439856.1318   4778532.7627   2   6   0.0049   0.0017   0.0014   0.0018  -0.0009  -0.0015   0.00    1.7
2019/11/10 01:56:30.000  -2420721.4977  -3439856.1315   4778532.7625   2   6   0.0049   0.0017   0.0014   0.0018  -0.0009  -0.0015   0.00    2.3
2019/11/10 01:57:00.000  -2420721.4971  -3439856.1312   4778532.7622   2   6   0.0049   0.0016   0.0014   0.0018  -0.0009  -0.0015   0.00    2.8
2019/11/10 01:57:30.000  -2420721.4236  -3439856.1285   4778532.7553   1   6   0.0009   0.0012   0.0010   0.0008  -0.0006  -0.0006   0.00    3.2
2019/11/10 01:58:00.000  -2420721.4237  -3439856.1286   4778532.7558   1   6   0.0009   0.0012   0.0010   0.0008  -0.0006  -0.0006   0.00   22.1
2019/11/10 01:58:30.000  -2420721.4234  -3439856.1285   4778532.7558   1   6   0.0009   0.0011   0.0010   0.0008  -0.0006  -0.0006   0.00   22.8
2019/11/10 01:59:00.000  -2420721.4230  -3439856.1283   4778532.7558   1   6   0.0009   0.0011   0.0010   0.0008  -0.0006  -0.0006   0.00   23.5
2019/11/10 01:59:30.000  -2420721.4226  -3439856.1281   4778532.7558   1   6   0.0009   0.0011   0.0010   0.0008  -0.0006  -0.0006   0.00   24.2
2019/11/10 02:00:00.000  -2420721.4223  -3439856.1280   4778532.7558   1   6   0.0009   0.0011   0.0010   0.0008  -0.0006  -0.0006   0.00   24.9
2019/11/10 02:00:30.000  -2420721.4220  -3439856.1278   4778532.7558   1   6   0.0009   0.0011   0.0010   0.0008  -0.0005  -0.0006   0.00   25.7
2019/11/10 02:01:00.000  -2420721.4217  -3439856.1277   4778532.7559   1   6   0.0009   0.0011   0.0010   0.0008  -0.0005  -0.0006   0.00   26.6
2019/11/10 02:01:30.000  -2420721.4214  -3439856.1276   4778532.7558   1   6   0.0009   0.0011   0.0010   0.0008  -0.0005  -0.0006   0.00   27.4
2019/11/10 02:02:00.000  -2420721.4211  -3439856.1275   4778532.7558   1   6   0.0009   0.0011   0.0010   0.0008  -0.0005  -0.0006   0.00   28.1
2019/11/10 02:02:30.000  -2420721.4922  -3439856.1285   4778532.7596   2   7   0.0048   0.0016   0.0014   0.0017  -0.0009  -0.0015   0.00    1.4
2019/11/10 02:03:00.000  -2420721.4923  -3439856.1284   4778532.7594   2   7   0.0048   0.0016   0.0014   0.0016  -0.0009  -0.0015   0.00    1.9
2019/11/10 02:03:30.000  -2420721.4923  -3439856.1283   4778532.7593   2   7   0.0048   0.0016   0.0014   0.0016  -0.0009  -0.0014   0.00    2.5
2019/11/10 02:04:00.000  -2420721.4201  -3439856.1269   4778532.7552   1   7   0.0008   0.0011   0.0010   0.0008  -0.0005  -0.0005   0.00    3.0
2019/11/10 02:04:30.000  -2420721.4201  -3439856.1269   4778532.7550   1   7   0.0008   0.0011   0.0010   0.0008  -0.0005  -0.0005   0.00    3.7
2019/11/10 02:05:00.000  -2420721.4200  -3439856.1268   4778532.7549   1   7   0.0008   0.0011   0.0010   0.0008  -0.0005  -0.0005   0.00    4.3
2019/11/10 02:05:30.000  -2420721.4200  -3439856.1267   4778532.7547   1   7   0.0008   0.0011   0.0010   0.0008  -0.0005  -0.0005   0.00    5.0
2019/11/10 02:06:00.000  -2420721.4199  -3439856.1266   4778532.7545   1   7   0.0008   0.0011   0.0010   0.0007  -0.0005  -0.0005   0.00    5.6
2019/11/10 02:06:30.000  -2420721.4200  -3439856.1265   4778532.7544   1   7   0.0008   0.0011   0.0010   0.0007  -0.0005  -0.0005   0.00    6.2
2019/11/10 02:07:00.000  -2420721.4199  -3439856.1264   4778532.7542   1   7   0.0008   0.0011   0.0010   0.0007  -0.0005  -0.0005   0.00    6.9
2019/11/10 02:07:30.000  -2420721.4200  -3439856.1262   4778532.7541   1   7   0.0008   0.0010   0.0010   0.0007  -0.0005  -0.0005   0.00    7.6
2019/11/10 02:08:00.000  -2420721.4202  -3439856.1261   4778532.7540   1   7   0.0008   0.0010   0.0010   0.0007  -0.0005  -0.0005   0.00    8.2
2019/11/10 02:08:30.000  -2420721.4203  -3439856.1260   4778532.7540   1   7   0.0008   0.0010   0.0010   0.0007  -0.0005  -0.0005   0.00    8.6
2019/11/10 02:09:00.000  -2420721.4205  -3439856.1260   4778532.7540   1   7   0.0008   0.0010   0.0010   0.0007  -0.0005  -0.0005   0.00    8.9
2019/11/10 02:09:30.000  -2420721.4207  -3439856.1261   4778532.7540   1   7   0.0008   0.0010   0.0010   0.0007  -0.0005  -0.0005   0.00    9.4
2019/11/10 02:10:00.000  -2420721.4208  -3439856.1261   4778532.7539   1   7   0.0008   0.0010   0.0010   0.0007  -0.0005  -0.0005   0.00   10.0
2019/11/10 02:10:30.000  -2420721.4208  -3439856.1260   4778532.7538   1   7   0.0008   0.0010   0.0010   0.0007  -0.0005  -0.0005   0.00   10.6
2019/11/10 02:11:00.000  -2420721.4209  -3439856.1261   4778532.7537   1   7   0.0008   0.0010   0.0010   0.0007  -0.0005  -0.0005   0.00   11.2
2019/11/10 02:11:30.000  -2420721.4203  -3439856.1258   4778532.7530   1   6   0.0008   0.0010   0.0010   0.0007  -0.0005  -0.0005   0.00   40.3
2019/11/10 02:12:00.000  -2420721.4221  -3439856.1268   4778532.7533   1   5   0.0017   0.0014   0.0011   0.0014  -0.0008  -0.0009   0.00   41.0
2019/11/10 02:12:30.000  -2420721.4220  -3439856.1268   4778532.7532   1   5   0.0017   0.0014   0.0011   0.0014  -0.0008  -0.0009   0.00   41.6
2019/11/10 02:13:00.000  -2420721.4908  -3439856.1269   4778532.7596   2   6   0.0047   0.0015   0.0013   0.0015  -0.0009  -0.0014   0.00    1.5
2019/11/10 02:13:30.000  -2420721.4905  -3439856.1268   4778532.7596   2   6   0.0047   0.0015   0.0013   0.0015  -0.0009  -0.0014   0.00    2.0
2019/11/10 02:14:00.000  -2420721.4902  -3439856.1267   4778532.7595   2   6   0.0047   0.0015   0.0013   0.0015  -0.0009  -0.0014   0.00    2.3
2019/11/10 02:14:30.000  -2420721.4899  -3439856.1266   4778532.7595   2   6   0.0047   0.0015   0.0013   0.0015  -0.0009  -0.0014   0.00    2.7
2019/11/10 02:15:00.000  -2420721.4173  -3439856.1241   4778532.7512   1   6   0.0016   0.0013   0.0010   0.0013  -0.0007  -0.0008   0.00    3.3
2019/11/10 02:15:30.000  -2420721.4895  -3439856.1265   4778532.7594   2   7   0.0046   0.0015   0.0013   0.0015  -0.0009  -0.0014   0.00    2.0
2019/11/10 02:16:00.000  -2420721.4892  -3439856.1264   4778532.7594   2   7   0.0046   0.0015   0.0013   0.0015  -0.0009  -0.0014   0.00    2.9
2019/11/10 02:16:30.000  -2420721.4189  -3439856.1254   4778532.7513   1   7   0.0014   0.0012   0.0010   0.0011  -0.0006  -0.0007   0.00    3.8
2019/11/10 02:17:00.000  -2420721.4192  -3439856.1257   4778532.7513   1   7   0.0014   0.0012   0.0010   0.0011  -0.0006  -0.0007   0.00    4.7
2019/11/10 02:17:30.000  -2420721.4194  -3439856.1260   4778532.7513   1   7   0.0013   0.0011   0.0010   0.0011  -0.0006  -0.0007   0.00    5.6
2019/11/10 02:18:00.000  -2420721.4201  -3439856.1266   4778532.7514   1   7   0.0013   0.0011   0.0010   0.0010  -0.0005  -0.0006   0.00    6.6
2019/11/10 02:18:30.000  -2420721.4205  -3439856.1269   4778532.7515   1   7   0.0012   0.0011   0.0010   0.0010  -0.0005  -0.0006   0.00    7.7
2019/11/10 02:19:00.000  -2420721.4203  -3439856.1269   4778532.7515   1   7   0.0012   0.0011   0.0010   0.0010  -0.0005  -0.0006   0.00    8.7
2019/11/10 02:19:30.000  -2420721.4883  -3439856.1263   4778532.7584   2   8   0.0046   0.0014   0.0013   0.0014  -0.0009  -0.0014   0.00    1.4
2019/11/10 02:20:00.000  -2420721.4882  -3439856.1263   4778532.7583   2   8   0.0046   0.0014   0.0013   0.0014  -0.0009  -0.0014   0.00    1.8
2019/11/10 02:20:30.000  -2420721.4883  -3439856.1262   4778532.7582   2   8   0.0046   0.0014   0.0013   0.0014  -0.0009  -0.0014   0.00    2.2
2019/11/10 02:21:00.000  -2420721.4883  -3439856.1262   4778532.7581   2   8   0.0046   0.0014   0.0013   0.0014  -0.0009  -0.0014   0.00    2.6
2019/11/10 02:21:30.000  -2420721.4213  -3439856.1282   4778532.7517   1   8   0.0011   0.0010   0.0009   0.0008  -0.0005  -0.0005   0.00    3.0
2019/11/10 02:22:00.000  -2420721.4217  -3439856.1285   4778532.7517   1   8   0.0010   0.0010   0.0009   0.0008  -0.0005  -0.0005   0.00    3.5
2019/11/10 02:22:30.000  -2420721.4884  -3439856.1263   4778532.7578   2   9   0.0046   0.0014   0.0013   0.0014  -0.0009  -0.0014   0.00    1.4
2019/11/10 02:23:00.000  -2420721.4886  -3439856.1263   4778532.7578   2   9   0.0046   0.0014   0.0013   0.0014  -0.0009  -0.0014   0.00    1.8
2019/11/10 02:23:30.000  -2420721.4888  -3439856.1263   4778532.7578   2   9   0.0046   0.0014   0.0013   0.0014  -0.0009  -0.0014   0.00    2.1
2019/11/10 02:24:00.000  -2420721.4890  -3439856.1263   4778532.7578   2   9   0.0046   0.0014   0.0013   0.0014  -0.0009  -0.0014   0.00    2.5
2019/11/10 02:24:30.000  -2420721.4890  -3439856.1263   4778532.7578   2   9   0.0046   0.0014   0.0013   0.0014  -0.0009  -0.0014   0.00    2.8
2019/11/10 02:25:00.000  -2420721.4226  -3439856.1298   4778532.7506   1   9   0.0009   0.0009   0.0009   0.0007  -0.0004  -0.0004   0.00    3.1
2019/11/10 02:25:30.000  -2420721.4226  -3439856.1299   4778532.7503   1   9   0.0009   0.0009   0.0009   0.0007  -0.0004  -0.0004   0.00    3.4
2019/11/10 02:26:00.000  -2420721.4226  -3439856.1301   4778532.7500   1   9   0.0009   0.0009   0.0009   0.0007  -0.0004  -0.0004   0.00    3.5
2019/11/10 02:26:30.000  -2420721.4173  -3439856.1265   4778532.7496   1   8   0.0011   0.0010   0.0009   0.0009  -0.0004  -0.0004   0.00    4.1
2019/11/10 02:27:00.000  -2420721.4172  -3439856.1265   4778532.7494   1   8   0.0011   0.0010   0.0009   0.0009  -0.0004  -0.0004   0.00    4.3
2019/11/10 02:27:30.000  -2420721.4171  -3439856.1265   4778532.7493   1   8   0.0011   0.0010   0.0009   0.0009  -0.0004  -0.0004   0.00    4.7
2019/11/10 02:28:00.000  -2420721.4170  -3439856.1265   4778532.7492   1   8   0.0011   0.0010   0.0009   0.0009  -0.0004  -0.0004   0.00    5.1
2019/11/10 02:28:30.000  -2420721.4171  -3439856.1266   4778532.7491   1   8   0.0011   0.0010   0.0009   0.0008  -0.0004  -0.0004   0.00    5.4
2019/11/10 02:29:00.000  -2420721.4170  -3439856.1266   4778532.7490   1   8   0.0011   0.0010   0.0009   0.0008  -0.0004  -0.0003   0.00    5.8
2019/11/10 02:29:30.000  -2420721.4878  -3439856.1259   4778532.7577   2   9   0.0045   0.0014   0.0013   0.0014  -0.0008  -0.0014   0.00    1.7
2019/11/10 02:30:00.000  -2420721.4877  -3439856.1259   4778532.7577   2   9   0.0045   0.0014   0.0013   0.0014  -0.0008  -0.0014   0.00    2.2
2019/11/10 02:30:30.000  -2420721.4876  -3439856.1258   4778532.7577   2   9   0.0045   0.0014   0.0012   0.0014  -0.0008  -0.0014   0.00    2.7
2019/11/10 02:31:00.000  -2420721.4877  -3439856.1258   4778532.7577   2   9   0.0045   0.0014   0.0012   0.0014  -0.0008  -0.0014   0.00    2.9
2019/11/10 02:31:30.000  -2420721.4187  -3439856.1280   4778532.7483   1   9   0.0010   0.0009   0.0009   0.0007  -0.0004  -0.0003   0.00    3.1
2019/11/10 02:32:00.000  -2420721.4159  -3439856.1261   4778532.7483   1   8   0.0010   0.0009   0.0009   0.0008  -0.0004  -0.0003   0.00    8.0
2019/11/10 02:32:30.000  -2420721.4157  -3439856.1260   4778532.7482   1   8   0.0010   0.0009   0.0009   0.0008  -0.0004  -0.0003   0.00    8.4
2019/11/10 02:33:00.000  -2420721.4155  -3439856.1259   4778532.7482   1   8   0.0010   0.0009   0.0009   0.0008  -0.0004  -0.0003   0.00    8.8
2019/11/10 02:33:30.000  -2420721.4154  -3439856.1258   4778532.7481   1   8   0.0010   0.0009   0.0009   0.0007  -0.0004  -0.0002   0.00    9.2
2019/11/10 02:34:00.000  -2420721.4154  -3439856.1257   4778532.7480   1   8   0.0010   0.0009   0.0009   0.0007  -0.0004  -0.0002   0.00    9.7
2019/11/10 02:34:30.000  -2420721.4151  -3439856.1257   4778532.7479   1   8   0.0010   0.0009   0.0009   0.0007  -0.0004  -0.0002   0.00   10.1
2019/11/10 02:35:00.000  -2420721.4866  -3439856.1255   4778532.7579   2   9   0.0044   0.0014   0.0012   0.0013  -0.0008  -0.0014   0.00    1.1
2019/11/10 02:35:30.000  -2420721.4866  -3439856.1255   4778532.7579   2   9   0.0044   0.0014   0.0012   0.0013  -0.0008  -0.0014   0.00    1.1
2019/11/10 02:36:00.000  -2420721.4146  -3439856.1256   4778532.7474   1   8   0.0009   0.0009   0.0009   0.0007  -0.0004  -0.0002   0.00   10.8
2019/11/10 02:36:30.000  -2420721.4144  -3439856.1255   4778532.7472   1   8   0.0009   0.0008   0.0009   0.0007  -0.0004  -0.0002   0.00   11.1
2019/11/10 02:37:00.000  -2420721.4142  -3439856.1255   4778532.7471   1   8   0.0009   0.0008   0.0009   0.0007  -0.0004  -0.0002   0.00   11.4
2019/11/10 02:37:30.000  -2420721.4141  -3439856.1255   4778532.7470   1   8   0.0009   0.0008   0.0009   0.0007  -0.0004  -0.0002   0.00   11.7
2019/11/10 02:38:00.000  -2420721.4140  -3439856.1255   4778532.7469   1   8   0.0009   0.0008   0.0009   0.0007  -0.0004  -0.0002   0.00   12.0
2019/11/10 02:38:30.000  -2420721.4139  -3439856.1256   4778532.7468   1   8   0.0009   0.0008   0.0009   0.0007  -0.0004  -0.0001   0.00   12.4
2019/11/10 02:39:00.000  -2420721.4138  -3439856.1256   4778532.7468   1   8   0.0009   0.0008   0.0008   0.0007  -0.0004  -0.0001   0.00   12.7
2019/11/10 02:39:30.000  -2420721.4136  -3439856.1256   4778532.7467   1   8   0.0009   0.0008   0.0008   0.0007  -0.0004  -0.0001   0.00   12.9
2019/11/10 02:40:00.000  -2420721.4137  -3439856.1257   4778532.7467   1   8   0.0009   0.0008   0.0008   0.0007  -0.0004  -0.0001   0.00   13.4
2019/11/10 02:40:30.000  -2420721.4139  -3439856.1258   4778532.7468   1   8   0.0009   0.0008   0.0008   0.0006  -0.0004  -0.0001   0.00   14.0
2019/11/10 02:41:00.000  -2420721.4139  -3439856.1259   4778532.7469   1   8   0.0009   0.0008   0.0008   0.0006  -0.0004  -0.0001   0.00   14.5
2019/11/10 02:41:30.000  -2420721.4140  -3439856.1260   4778532.7469   1   8   0.0009   0.0008   0.0008   0.0006  -0.0004  -0.0001   0.00   15.0
2019/11/10 02:42:00.000  -2420721.4140  -3439856.1260   4778532.7469   1   8   0.0009   0.0008   0.0008   0.0006  -0.0004  -0.0001   0.00   15.5
2019/11/10 02:42:30.000  -2420721.4140  -3439856.1261   4778532.7469   1   8   0.0008   0.0008   0.0008   0.0006  -0.0004  -0.0001   0.00   16.0
2019/11/10 02:43:00.000  -2420721.4140  -3439856.1261   4778532.7469   1   8   0.0008   0.0008   0.0008   0.0006  -0.0004  -0.0000   0.00   16.5
2019/11/10 02:43:30.000  -2420721.4140  -3439856.1261   4778532.7469   1   8   0.0008   0.0008   0.0008   0.0006  -0.0004   0.0000   0.00   17.0
2019/11/10 02:44:00.000  -2420721.4141  -3439856.1261   4778532.7469   1   8   0.0008   0.0008   0.0008   0.0006  -0.0004   0.0001   0.00   17.5
2019/11/10 02:44:30.000  -2420721.4142  -3439856.1261   4778532.7469   1   8   0.0008   0.0008   0.0008   0.0006  -0.0004   0.0001   0.00   18.0
2019/11/10 02:45:00.000  -2420721.4142  -3439856.1261   4778532.7469   1   8   0.0008   0.0008   0.0008   0.0006  -0.0004   0.0001   0.00   18.5
2019/11/10 02:45:30.000  -2420721.4141  -3439856.1260   4778532.7468   1   8   0.0008   0.0008   0.0008   0.0006  -0.0004   0.0001   0.00   18.8
2019/11/10 02:46:00.000  -2420721.4141  -3439856.1260   4778532.7467   1   8   0.0008   0.0008   0.0008   0.0006  -0.0004   0.0001   0.00   19.2
2019/11/10 02:46:30.000  -2420721.4141  -3439856.1260   4778532.7466   1   8   0.0008   0.0007   0.0008   0.0006  -0.0004   0.0001   0.00   19.5
2019/11/10 02:47:00.000  -2420721.4141  -3439856.1260   4778532.7465   1   8   0.0008   0.0007   0.0008   0.0006  -0.0004   0.0001   0.00   19.9
2019/11/10 02:47:30.000  -2420721.4141  -3439856.1259   4778532.7464   1   8   0.0008   0.0007   0.0008   0.0006  -0.0004   0.0001   0.00   20.1
2019/11/10 02:48:00.000  -2420721.4140  -3439856.1258   4778532.7463   1   8   0.0008   0.0007   0.0008   0.0006  -0.0004   0.0001   0.00   20.3
2019/11/10 02:48:30.000  -2420721.4139  -3439856.1256   4778532.7462   1   8   0.0008   0.0007   0.0008   0.0006  -0.0004   0.0001   0.00   20.5
2019/11/10 02:49:00.000  -2420721.4138  -3439856.1255   4778532.7461   1   8   0.0008   0.0007   0.0008   0.0006  -0.0004   0.0001   0.00   20.7
2019/11/10 02:49:30.000  -2420721.4137  -3439856.1253   4778532.7460   1   8   0.0008   0.0007   0.0008   0.0006  -0.0004   0.0001   0.00   20.9
2019/11/10 02:50:00.000  -2420721.4137  -3439856.1252   4778532.7459   1   8   0.0008   0.0007   0.0008   0.0006  -0.0004   0.0001   0.00   21.2
2019/11/10 02:50:30.000  -2420721.4137  -3439856.1251   4778532.7459   1   8   0.0008   0.0007   0.0008   0.0006  -0.0004   0.0001   0.00   21.7
2019/11/10 02:51:00.000  -2420721.4137  -3439856.1250   4778532.7458   1   8   0.0008   0.0007   0.0008   0.0005  -0.0004   0.0001   0.00   22.2
2019/11/10 02:51:30.000  -2420721.4136  -3439856.1249   4778532.7457   1   8   0.0008   0.0007   0.0008   0.0005  -0.0004   0.0001   0.00   22.3
2019/11/10 02:52:00.000  -2420721.4136  -3439856.1247   4778532.7456   1   8   0.0008   0.0007   0.0008   0.0005  -0.0004   0.0001   0.00   22.4
2019/11/10 02:52:30.000  -2420721.4135  -3439856.1247   4778532.7455   1   8   0.0008   0.0007   0.0008   0.0005  -0.0004   0.0001   0.00   22.6
2019/11/10 02:53:00.000  -2420721.4136  -3439856.1247   4778532.7455   1   8   0.0008   0.0007   0.0008   0.0005  -0.0004   0.0001   0.00   23.1
2019/11/10 02:53:30.000  -2420721.4135  -3439856.1246   4778532.7456   1   8   0.0008   0.0007   0.0008   0.0005  -0.0004   0.0001   0.00   23.6
2019/11/10 02:54:00.000  -2420721.4135  -3439856.1245   4778532.7455   1   8   0.0008   0.0007   0.0008   0.0005  -0.0004   0.0001   0.00   23.9
2019/11/10 02:54:30.000  -2420721.4134  -3439856.1244   4778532.7455   1   8   0.0008   0.0007   0.0008   0.0005  -0.0004   0.0001   0.00   24.2
2019/11/10 02:55:00.000  -2420721.4134  -3439856.1244   4778532.7455   1   8   0.0007   0.0007   0.0008   0.0005  -0.0004   0.0001   0.00   24.7
2019/11/10 02:55:30.000  -2420721.4134  -3439856.1244   4778532.7455   1   8   0.0007   0.0007   0.0008   0.0005  -0.0004   0.0001   0.00   25.1
2019/11/10 02:56:00.000  -2420721.4135  -3439856.1244   4778532.7455   1   8   0.0007   0.0007   0.0008   0.0005  -0.0004   0.0001   0.00   25.7
2019/11/10 02:56:30.000  -2420721.4136  -3439856.1244   4778532.7455   1   8   0.0007   0.0007   0.0008   0.0005  -0.0004   0.0001   0.00   26.4
2019/11/10 02:57:00.000  -2420721.4137  -3439856.1243   4778532.7455   1   8   0.0007   0.0007   0.0008   0.0005  -0.0004   0.0001   0.00   26.8
2019/11/10 02:57:30.000  -2420721.4138  -3439856.1244   4778532.7456   1   8   0.0007   0.0007   0.0008   0.0005  -0.0004   0.0001   0.00   27.7
2019/11/10 02:58:00.000  -2420721.4140  -3439856.1244   4778532.7456   1   8   0.0007   0.0007   0.0008   0.0005  -0.0004   0.0001   0.00   28.4
2019/11/10 02:58:30.000  -2420721.4141  -3439856.1244   4778532.7457   1   8   0.0007   0.0007   0.0008   0.0005  -0.0004   0.0001   0.00   29.1
2019/11/10 02:59:00.000  -2420721.4142  -3439856.1245   4778532.7458   1   8   0.0007   0.0007   0.0008   0.0005  -0.0004   0.0001   0.00   29.9
2019/11/10 02:59:30.000  -2420721.4143  -3439856.1245   4778532.7459   1   8   0.0007   0.0007   0.0008   0.0005  -0.0004   0.0001   0.00   30.4
2019/11/10 03:00:00.000  -2420721.4143  -3439856.1244   4778532.7461   1   8   0.0007   0.0007   0.0008   0.0005  -0.0004   0.0001   0.00   30.9
2019/11/10 03:00:30.000  -2420721.4144  -3439856.1244   4778532.7463   1   8   0.0007   0.0007   0.0008   0.0005  -0.0004   0.0001   0.00   31.4
2019/11/10 03:01:00.000  -2420721.4145  -3439856.1245   4778532.7465   1   8   0.0007   0.0007   0.0008   0.0005  -0.0004   0.0001   0.00   32.0
2019/11/10 03:01:30.000  -2420721.4147  -3439856.1245   4778532.7467   1   8   0.0007   0.0007   0.0008   0.0005  -0.0004   0.0001   0.00   32.7
2019/11/10 03:02:00.000  -2420721.4148  -3439856.1245   4778532.7469   1   8   0.0007   0.0007   0.0008   0.0005  -0.0004   0.0001   0.00   33.6
2019/11/10 03:02:30.000  -2420721.4149  -3439856.1245   4778532.7471   1   8   0.0007   0.0007   0.0008   0.0005  -0.0004   0.0001   0.00   34.5
2019/11/10 03:03:00.000  -2420721.4149  -3439856.1245   4778532.7474   1   8   0.0007   0.0007   0.0008   0.0005  -0.0004   0.0001   0.00   35.1
2019/11/10 03:03:30.000  -2420721.4150  -3439856.1245   4778532.7477   1   8   0.0007   0.0007   0.0008   0.0005  -0.0004   0.0001   0.00   35.5
2019/11/10 03:04:00.000  -2420721.4151  -3439856.1245   4778532.7480   1   8   0.0007   0.0007   0.0008   0.0005  -0.0004   0.0001   0.00   35.9
2019/11/10 03:04:30.000  -2420721.4151  -3439856.1245   4778532.7484   1   8   0.0007   0.0007   0.0008   0.0005  -0.0004   0.0001   0.00   35.9
2019/11/10 03:05:00.000  -2420721.4152  -3439856.1245   4778532.7487   1   8   0.0007   0.0007   0.0008   0.0005  -0.0004   0.0001   0.00   35.9
2019/11/10 03:05:30.000  -2420721.4153  -3439856.1246   4778532.7490   1   8   0.0007   0.0007   0.0008   0.0005  -0.0004   0.0001   0.00   35.9
2019/11/10 03:06:00.000  -2420721.4154  -3439856.1246   4778532.7495   1   8   0.0007   0.0007   0.0008   0.0005  -0.0004   0.0001   0.00   35.7
2019/11/10 03:06:30.000  -2420721.4676  -3439856.1288   4778532.7595   2   9   0.0034   0.0013   0.0011   0.0011  -0.0008  -0.0012   0.00    1.3
2019/11/10 03:07:00.000  -2420721.4670  -3439856.1288   4778532.7594   2   8   0.0034   0.0013   0.0011   0.0011  -0.0008  -0.0012   0.00    1.6
2019/11/10 03:07:30.000  -2420721.4664  -3439856.1289   4778532.7593   2   8   0.0034   0.0013   0.0011   0.0011  -0.0008  -0.0012   0.00    1.9
2019/11/10 03:08:00.000  -2420721.4659  -3439856.1289   4778532.7592   2   8   0.0034   0.0013   0.0011   0.0011  -0.0008  -0.0012   0.00    2.2
2019/11/10 03:08:30.000  -2420721.4654  -3439856.1290   4778532.7591   2   8   0.0034   0.0013   0.0011   0.0011  -0.0008  -0.0012   0.00    2.7
2019/11/10 03:09:00.000  -2420721.4158  -3439856.1258   4778532.7485   1   8   0.0007   0.0007   0.0008   0.0005  -0.0004  -0.0000   0.00    3.1
2019/11/10 03:09:30.000  -2420721.4159  -3439856.1258   4778532.7484   1   8   0.0007   0.0007   0.0008   0.0005  -0.0004  -0.0001   0.00    3.5
2019/11/10 03:10:00.000  -2420721.4160  -3439856.1258   4778532.7483   1   8   0.0007   0.0007   0.0008   0.0005  -0.0004  -0.0001   0.00    3.8
2019/11/10 03:10:30.000  -2420721.4161  -3439856.1259   4778532.7483   1   8   0.0007   0.0007   0.0008   0.0005  -0.0004  -0.0001   0.00    4.3
2019/11/10 03:11:00.000  -2420721.4161  -3439856.1258   4778532.7482   1   8   0.0007   0.0007   0.0008   0.0005  -0.0004  -0.0001   0.00    4.7
2019/11/10 03:11:30.000  -2420721.4162  -3439856.1259   4778532.7481   1   8   0.0007   0.0007   0.0008   0.0005  -0.0004  -0.0001   0.00    5.1
2019/11/10 03:12:00.000  -2420721.4162  -3439856.1259   4778532.7481   1   8   0.0007   0.0007   0.0008   0.0005  -0.0004  -0.0001   0.00    5.6
2019/11/10 03:12:30.000  -2420721.4163  -3439856.1258   4778532.7480   1   8   0.0007   0.0007   0.0008   0.0004  -0.0004  -0.0001   0.00    6.0
2019/11/10 03:13:00.000  -2420721.4164  -3439856.1259   4778532.7479   1   8   0.0007   0.0007   0.0008   0.0004  -0.0004  -0.0001   0.00    6.4
2019/11/10 03:13:30.000  -2420721.4166  -3439856.1259   4778532.7477   1   8   0.0007   0.0007   0.0008   0.0004  -0.0004  -0.0001   0.00    6.8
2019/11/10 03:14:00.000  -2420721.4167  -3439856.1259   4778532.7476   1   8   0.0007   0.0007   0.0008   0.0004  -0.0004  -0.0001   0.00    7.1
2019/11/10 03:14:30.000  -2420721.4169  -3439856.1259   4778532.7475   1   8   0.0007   0.0007   0.0008   0.0004  -0.0004  -0.0001   0.00    7.6
2019/11/10 03:15:00.000  -2420721.4610  -3439856.1295   4778532.7579   2   9   0.0031   0.0013   0.0010   0.0010  -0.0008  -0.0012   0.00    1.3
2019/11/10 03:15:30.000  -2420721.4172  -3439856.1259   4778532.7474   1   8   0.0007   0.0007   0.0008   0.0004  -0.0004  -0.0002   0.00    8.4
2019/11/10 03:16:00.000  -2420721.4174  -3439856.1260   4778532.7473   1   8   0.0007   0.0007   0.0008   0.0004  -0.0004  -0.0002   0.00    8.9
2019/11/10 03:16:30.000  -2420721.4176  -3439856.1260   4778532.7472   1   8   0.0007   0.0007   0.0008   0.0004  -0.0004  -0.0002   0.00    9.3
2019/11/10 03:17:00.000  -2420721.4177  -3439856.1261   4778532.7472   1   8   0.0007   0.0007   0.0008   0.0004  -0.0004  -0.0002   0.00    9.9
2019/11/10 03:17:30.000  -2420721.4179  -3439856.1261   4778532.7471   1   8   0.0007   0.0007   0.0008   0.0004  -0.0004  -0.0002   0.00   10.2
2019/11/10 03:18:00.000  -2420721.4180  -3439856.1261   4778532.7470   1   8   0.0007   0.0007   0.0008   0.0004  -0.0004  -0.0002   0.00   10.6
2019/11/10 03:18:30.000  -2420721.4182  -3439856.1261   4778532.7469   1   8   0.0007   0.0007   0.0008   0.0004  -0.0004  -0.0002   0.00   11.1
2019/11/10 03:19:00.000  -2420721.4184  -3439856.1262   4778532.7468   1   8   0.0007   0.0006   0.0008   0.0004  -0.0004  -0.0002   0.00   11.6
2019/11/10 03:19:30.000  -2420721.4185  -3439856.1263   4778532.7468   1   8   0.0007   0.0006   0.0008   0.0004  -0.0004  -0.0002   0.00   12.2
2019/11/10 03:20:00.000  -2420721.4187  -3439856.1264   4778532.7467   1   8   0.0007   0.0006   0.0008   0.0004  -0.0004  -0.0002   0.00   12.6
2019/11/10 03:20:30.000  -2420721.4188  -3439856.1264   4778532.7466   1   8   0.0006   0.0006   0.0008   0.0004  -0.0004  -0.0002   0.00   13.1
2019/11/10 03:21:00.000  -2420721.4190  -3439856.1265   4778532.7465   1   8   0.0006   0.0006   0.0008   0.0004  -0.0004  -0.0002   0.00   13.5
2019/11/10 03:21:30.000  -2420721.4191  -3439856.1266   4778532.7465   1   8   0.0006   0.0006   0.0008   0.0004  -0.0004  -0.0002   0.00   14.1
2019/11/10 03:22:00.000  -2420721.4193  -3439856.1267   4778532.7464   1   8   0.0006   0.0006   0.0008   0.0004  -0.0004  -0.0002   0.00   14.6
