% program   : RTKPOST ver.2.4.3 b34
% inp file  : C:\Users\Danisimo\Desktop\????\BOR1\bor13140.19o
% inp file  : C:\Users\Danisimo\Desktop\????\JOZ2\joz23140.19o
% inp file  : C:\Users\Danisimo\Desktop\????\brdc3140.19n
% inp file  : C:\Users\Danisimo\Desktop\????\igs20790.sp3
% inp file  : C:\Users\Danisimo\Desktop\????\igs20790.clk_30s
% obs start : 2019/11/10 00:00:00.0 GPST (week2079      0.0s)
% obs end   : 2019/11/10 23:59:30.0 GPST (week2079  86370.0s)
% pos mode  : Static
% freqs     : L1+2
% solution  : Combined
% elev mask : 15.0 deg
% dynamics  : off
% tidecorr  : off
% ionos opt : Broadcast
% tropo opt : Saastamoinen
% ephemeris : Precise
% navi sys  : GPS
% amb res   : Continuous
% val thres : 3.0
% antenna1  :                       ( 0.0000  0.0000  0.0622)
% antenna2  :                       ( 0.0000  0.0000  0.0000)
% ref pos   :  3664880.3060   1409190.8210   5009618.6060
%
% (x/y/z-ecef=WGS84,Q=1:fix,2:float,3:sbas,4:dgps,5:single,6:ppp,ns=# of satellites)
%  GPST                      x-ecef(m)      y-ecef(m)      z-ecef(m)   Q  ns   sdx(m)   sdy(m)   sdz(m)  sdxy(m)  sdyz(m)  sdzx(m) age(s)  ratio
2019/11/10 00:00:00.000   3738358.1053   1148173.9751   5021815.8389   2   5   0.0004   0.0005   0.0003  -0.0002   0.0001   0.0002   0.00    1.1
2019/11/10 00:00:30.000   3738358.1054   1148173.9751   5021815.8389   2   5   0.0004   0.0005   0.0003  -0.0002   0.0001   0.0002   0.00    1.1
2019/11/10 00:01:00.000   3738358.1054   1148173.9750   5021815.8389   2   5   0.0004   0.0005   0.0003  -0.0002   0.0001   0.0002   0.00    1.0
2019/11/10 00:01:30.000   3738358.1055   1148173.9750   5021815.8389   2   5   0.0004   0.0005   0.0003  -0.0002   0.0001   0.0002   0.00    1.1
2019/11/10 00:02:00.000   3738358.1055   1148173.9750   5021815.8389   2   5   0.0004   0.0005   0.0003  -0.0002   0.0001   0.0002   0.00    1.2
2019/11/10 00:02:30.000   3738358.1055   1148173.9750   5021815.8389   2   5   0.0004   0.0005   0.0003  -0.0002   0.0001   0.0002   0.00    1.4
2019/11/10 00:03:00.000   3738358.1055   1148173.9751   5021815.8390   2   5   0.0004   0.0005   0.0003  -0.0002   0.0001   0.0002   0.00    1.0
2019/11/10 00:03:30.000   3738358.1056   1148173.9751   5021815.8390   2   6   0.0004   0.0005   0.0003  -0.0002   0.0001   0.0002   0.00    1.1
2019/11/10 00:04:00.000   3738358.1056   1148173.9751   5021815.8390   2   6   0.0004   0.0005   0.0003  -0.0002   0.0001   0.0002   0.00    1.1
2019/11/10 00:04:30.000   3738358.1056   1148173.9750   5021815.8390   2   6   0.0004   0.0005   0.0003  -0.0002   0.0001   0.0002   0.00    1.0
2019/11/10 00:05:00.000   3738358.1057   1148173.9750   5021815.8390   2   6   0.0004   0.0005   0.0003  -0.0002   0.0001   0.0002   0.00    1.0
2019/11/10 00:05:30.000   3738358.1057   1148173.9750   5021815.8390   2   6   0.0004   0.0005   0.0003  -0.0002   0.0001   0.0002   0.00    1.0
2019/11/10 00:06:00.000   3738358.1057   1148173.9750   5021815.8390   2   6   0.0004   0.0005   0.0003  -0.0002   0.0001   0.0002   0.00    1.1
2019/11/10 00:06:30.000   3738358.1058   1148173.9750   5021815.8390   2   6   0.0004   0.0005   0.0003  -0.0002   0.0001   0.0002   0.00    1.1
2019/11/10 00:07:00.000   3738358.1058   1148173.9749   5021815.8390   2   6   0.0004   0.0005   0.0003  -0.0002   0.0001   0.0002   0.00    1.1
2019/11/10 00:07:30.000   3738358.1059   1148173.9749   5021815.8390   2   6   0.0004   0.0005   0.0003  -0.0002   0.0001   0.0002   0.00    1.1
2019/11/10 00:08:00.000   3738358.1059   1148173.9749   5021815.8390   2   6   0.0004   0.0005   0.0003  -0.0002   0.0001   0.0002   0.00    1.1
2019/11/10 00:08:30.000   3738358.1059   1148173.9749   5021815.8390   2   6   0.0004   0.0005   0.0003  -0.0002   0.0001   0.0002   0.00    1.0
2019/11/10 00:09:00.000   3738358.1059   1148173.9749   5021815.8390   2   6   0.0004   0.0005   0.0003  -0.0002   0.0001   0.0002   0.00    1.0
2019/11/10 00:09:30.000   3738358.1059   1148173.9748   5021815.8390   2   6   0.0004   0.0005   0.0003  -0.0002   0.0001   0.0002   0.00    1.0
2019/11/10 00:10:00.000   3738358.1060   1148173.9748   5021815.8390   2   6   0.0004   0.0005   0.0003  -0.0002   0.0001   0.0002   0.00    1.0
2019/11/10 00:10:30.000   3738358.1060   1148173.9748   5021815.8390   2   6   0.0004   0.0005   0.0003  -0.0002   0.0001   0.0002   0.00    1.0
2019/11/10 00:11:00.000   3738358.1060   1148173.9747   5021815.8390   2   6   0.0004   0.0005   0.0003  -0.0002   0.0001   0.0002   0.00    1.0
2019/11/10 00:11:30.000   3738358.1060   1148173.9747   5021815.8390   2   6   0.0004   0.0005   0.0003  -0.0002   0.0001   0.0002   0.00    1.1
2019/11/10 00:12:00.000   3738358.1060   1148173.9747   5021815.8390   2   6   0.0004   0.0005   0.0003  -0.0002   0.0001   0.0002   0.00    1.2
2019/11/10 00:12:30.000   3738358.1060   1148173.9747   5021815.8390   2   6   0.0004   0.0005   0.0003  -0.0002   0.0001   0.0002   0.00    1.2
2019/11/10 00:13:00.000   3738358.1060   1148173.9748   5021815.8391   2   6   0.0004   0.0005   0.0003  -0.0002   0.0001   0.0002   0.00    1.3
2019/11/10 00:13:30.000   3738358.1059   1148173.9748   5021815.8391   2   7   0.0004   0.0005   0.0003  -0.0002   0.0001   0.0002   0.00    1.1
2019/11/10 00:14:00.000   3738358.1059   1148173.9748   5021815.8391   2   7   0.0004   0.0005   0.0003  -0.0002   0.0001   0.0002   0.00    1.1
2019/11/10 00:14:30.000   3738358.1059   1148173.9748   5021815.8392   2   7   0.0004   0.0005   0.0003  -0.0002   0.0001   0.0002   0.00    1.2
2019/11/10 00:15:00.000   3738358.1059   1148173.9748   5021815.8393   2   7   0.0004   0.0005   0.0003  -0.0002   0.0001   0.0002   0.00    1.2
2019/11/10 00:15:30.000   3738358.1059   1148173.9749   5021815.8393   2   7   0.0004   0.0005   0.0003  -0.0002   0.0001   0.0002   0.00    1.3
2019/11/10 00:16:00.000   3738358.1059   1148173.9749   5021815.8394   2   7   0.0004   0.0005   0.0003  -0.0002   0.0001   0.0002   0.00    1.1
2019/11/10 00:16:30.000   3738358.1058   1148173.9750   5021815.8395   2   7   0.0004   0.0005   0.0003  -0.0002   0.0001   0.0002   0.00    1.2
2019/11/10 00:17:00.000   3738358.1058   1148173.9750   5021815.8395   2   7   0.0004   0.0005   0.0003  -0.0002   0.0001   0.0002   0.00    1.3
2019/11/10 00:17:30.000   3738358.1058   1148173.9750   5021815.8396   2   8   0.0004   0.0005   0.0003  -0.0002   0.0001   0.0002   0.00    1.0
2019/11/10 00:18:00.000   3738358.1058   1148173.9750   5021815.8397   2   8   0.0004   0.0005   0.0003  -0.0002   0.0001   0.0002   0.00    1.0
2019/11/10 00:18:30.000   3738358.1058   1148173.9750   5021815.8398   2   8   0.0004   0.0005   0.0003  -0.0002   0.0001   0.0002   0.00    1.1
2019/11/10 00:19:00.000   3738358.1058   1148173.9749   5021815.8399   2   8   0.0004   0.0005   0.0003  -0.0002   0.0001   0.0002   0.00    1.0
2019/11/10 00:19:30.000   3738358.1058   1148173.9748   5021815.8399   2   8   0.0004   0.0005   0.0003  -0.0002   0.0001   0.0002   0.00    1.1
2019/11/10 00:20:00.000   3738358.1059   1148173.9747   5021815.8400   2   8   0.0004   0.0005   0.0003  -0.0002   0.0001   0.0002   0.00    1.2
2019/11/10 00:20:30.000   3738358.1059   1148173.9747   5021815.8401   2   8   0.0004   0.0005   0.0003  -0.0002   0.0001   0.0002   0.00    1.3
2019/11/10 00:21:00.000   3738358.1060   1148173.9746   5021815.8402   2   8   0.0004   0.0005   0.0003  -0.0002   0.0001   0.0002   0.00    1.3
2019/11/10 00:21:30.000   3738358.1060   1148173.9745   5021815.8403   2   8   0.0004   0.0005   0.0003  -0.0002   0.0001   0.0002   0.00    1.3
2019/11/10 00:22:00.000   3738358.1061   1148173.9744   5021815.8404   2   8   0.0004   0.0005   0.0003  -0.0002   0.0001   0.0002   0.00    1.3
2019/11/10 00:22:30.000   3738358.1061   1148173.9744   5021815.8405   2   8   0.0004   0.0005   0.0003  -0.0002   0.0001   0.0002   0.00    1.3
2019/11/10 00:23:00.000   3738358.1061   1148173.9744   5021815.8406   2   8   0.0004   0.0005   0.0003  -0.0002   0.0001   0.0002   0.00    1.3
2019/11/10 00:23:30.000   3738358.1062   1148173.9744   5021815.8407   2   8   0.0004   0.0005   0.0003  -0.0002   0.0001   0.0002   0.00    1.3
2019/11/10 00:24:00.000   3738358.1062   1148173.9744   5021815.8408   2   7   0.0004   0.0005   0.0003  -0.0002   0.0001   0.0002   0.00    1.3
2019/11/10 00:24:30.000   3738358.1062   1148173.9744   5021815.8409   2   7   0.0004   0.0005   0.0003  -0.0002   0.0001   0.0002   0.00    1.3
2019/11/10 00:25:00.000   3738358.1062   1148173.9745   5021815.8410   2   7   0.0004   0.0005   0.0003  -0.0002   0.0001   0.0002   0.00    1.3
2019/11/10 00:25:30.000   3738358.1062   1148173.9745   5021815.8410   2   7   0.0004   0.0005   0.0003  -0.0002   0.0001   0.0002   0.00    1.2
2019/11/10 00:26:00.000   3738358.1062   1148173.9745   5021815.8411   2   7   0.0004   0.0005   0.0003  -0.0002   0.0001   0.0002   0.00    1.2
2019/11/10 00:26:30.000   3738358.1062   1148173.9746   5021815.8412   2   7   0.0004   0.0005   0.0003  -0.0002   0.0001   0.0002   0.00    1.2
2019/11/10 00:27:00.000   3738358.1062   1148173.9746   5021815.8413   2   7   0.0004   0.0005   0.0003  -0.0002   0.0001   0.0002   0.00    1.2
2019/11/10 00:27:30.000   3738358.1062   1148173.9747   5021815.8413   2   7   0.0004   0.0005   0.0003  -0.0002   0.0001   0.0002   0.00    1.2
2019/11/10 00:28:00.000   3738358.1062   1148173.9747   5021815.8414   2   7   0.0004   0.0005   0.0003  -0.0002   0.0001   0.0002   0.00    1.2
2019/11/10 00:28:30.000   3738358.1062   1148173.9747   5021815.8415   2   7   0.0004   0.0005   0.0003  -0.0002   0.0001   0.0002   0.00    1.2
2019/11/10 00:29:00.000   3738358.1063   1148173.9747   5021815.8416   2   7   0.0004   0.0005   0.0003  -0.0002   0.0001   0.0002   0.00    1.2
2019/11/10 00:29:30.000   3738358.1063   1148173.9747   5021815.8416   2   7   0.0004   0.0005   0.0003  -0.0002   0.0001   0.0002   0.00    1.2
2019/11/10 00:30:00.000   3738358.1063   1148173.9748   5021815.8417   2   7   0.0004   0.0005   0.0003  -0.0002   0.0001   0.0002   0.00    1.2
2019/11/10 00:30:30.000   3738358.1063   1148173.9748   5021815.8418   2   7   0.0004   0.0005   0.0003  -0.0002   0.0001   0.0002   0.00    1.2
2019/11/10 00:31:00.000   3738358.1063   1148173.9748   5021815.8418   2   7   0.0004   0.0005   0.0003  -0.0002   0.0001   0.0002   0.00    1.2
2019/11/10 00:31:30.000   3738358.1063   1148173.9748   5021815.8419   2   7   0.0004   0.0005   0.0003  -0.0002   0.0001   0.0002   0.00    1.2
2019/11/10 00:32:00.000   3738358.1063   1148173.9749   5021815.8420   2   7   0.0004   0.0005   0.0003  -0.0002   0.0001   0.0002   0.00    1.2
2019/11/10 00:32:30.000   3738358.1063   1148173.9750   5021815.8420   2   7   0.0004   0.0005   0.0003  -0.0002   0.0001   0.0002   0.00    1.2
2019/11/10 00:33:00.000   3738358.1063   1148173.9751   5021815.8421   2   7   0.0004   0.0005   0.0003  -0.0002   0.0001   0.0002   0.00    1.2
2019/11/10 00:33:30.000   3738358.1063   1148173.9752   5021815.8421   2   7   0.0004   0.0005   0.0003  -0.0002   0.0001   0.0002   0.00    1.1
2019/11/10 00:34:00.000   3738358.1062   1148173.9753   5021815.8422   2   7   0.0004   0.0005   0.0003  -0.0002   0.0001   0.0002   0.00    1.1
2019/11/10 00:34:30.000   3738358.1062   1148173.9755   5021815.8422   2   7   0.0004   0.0005   0.0003  -0.0002   0.0001   0.0002   0.00    1.0
2019/11/10 00:35:00.000   3738358.1061   1148173.9756   5021815.8422   2   7   0.0004   0.0005   0.0003  -0.0002   0.0001   0.0002   0.00    1.0
2019/11/10 00:35:30.000   3738358.1061   1148173.9757   5021815.8422   2   7   0.0004   0.0005   0.0003  -0.0002   0.0001   0.0002   0.00    1.1
2019/11/10 00:36:00.000   3738358.1061   1148173.9758   5021815.8423   2   7   0.0004   0.0005   0.0003  -0.0002   0.0001   0.0002   0.00    1.1
2019/11/10 00:36:30.000   3738358.1061   1148173.9759   5021815.8423   2   7   0.0004   0.0005   0.0003  -0.0002   0.0001   0.0002   0.00    1.2
2019/11/10 00:37:00.000   3738358.1060   1148173.9760   5021815.8423   2   7   0.0004   0.0005   0.0003  -0.0002   0.0001   0.0002   0.00    1.2
2019/11/10 00:37:30.000   3738358.1060   1148173.9761   5021815.8423   2   7   0.0004   0.0005   0.0003  -0.0002   0.0001   0.0002   0.00    1.1
2019/11/10 00:38:00.000   3738358.1060   1148173.9762   5021815.8423   2   7   0.0004   0.0005   0.0003  -0.0002   0.0001   0.0002   0.00    1.1
2019/11/10 00:38:30.000   3738358.1061   1148173.9762   5021815.8424   2   7   0.0004   0.0005   0.0003  -0.0002   0.0001   0.0002   0.00    1.1
2019/11/10 00:39:00.000   3738358.1061   1148173.9763   5021815.8424   2   7   0.0004   0.0005   0.0003  -0.0002   0.0001   0.0002   0.00    1.1
2019/11/10 00:39:30.000   3738358.1061   1148173.9763   5021815.8424   2   7   0.0004   0.0005   0.0003  -0.0002   0.0001   0.0002   0.00    1.1
2019/11/10 00:40:00.000   3738358.1062   1148173.9762   5021815.8423   2   7   0.0004   0.0005   0.0003  -0.0002   0.0001   0.0002   0.00    1.1
2019/11/10 00:40:30.000   3738358.1063   1148173.9762   5021815.8423   2   7   0.0004   0.0005   0.0003  -0.0002   0.0001   0.0002   0.00    1.1
2019/11/10 00:41:00.000   3738358.1064   1148173.9762   5021815.8423   2   7   0.0004   0.0005   0.0003  -0.0002   0.0001   0.0002   0.00    1.1
2019/11/10 00:41:30.000   3738358.1065   1148173.9761   5021815.8422   2   7   0.0004   0.0005   0.0003  -0.0002   0.0001   0.0002   0.00    1.1
2019/11/10 00:42:00.000   3738358.1065   1148173.9761   5021815.8422   2   7   0.0004   0.0005   0.0003  -0.0002   0.0001   0.0002   0.00    1.0
2019/11/10 00:42:30.000   3738358.1066   1148173.9761   5021815.8421   2   7   0.0004   0.0005   0.0003  -0.0002   0.0001   0.0002   0.00    1.0
2019/11/10 00:43:00.000   3738358.1066   1148173.9760   5021815.8420   2   7   0.0004   0.0005   0.0003  -0.0002   0.0001   0.0002   0.00    1.0
2019/11/10 00:43:30.000   3738358.1067   1148173.9760   5021815.8420   2   7   0.0004   0.0005   0.0003  -0.0002   0.0001   0.0002   0.00    1.0
2019/11/10 00:44:00.000   3738358.1067   1148173.9760   5021815.8419   2   7   0.0004   0.0005   0.0003  -0.0002   0.0001   0.0002   0.00    1.0
2019/11/10 00:44:30.000   3738358.1068   1148173.9760   5021815.8418   2   7   0.0004   0.0005   0.0003  -0.0002   0.0001   0.0002   0.00    1.0
2019/11/10 00:45:00.000   3738358.1068   1148173.9760   5021815.8417   2   7   0.0004   0.0005   0.0003  -0.0002   0.0001   0.0002   0.00    1.1
2019/11/10 00:45:30.000   3738358.1069   1148173.9759   5021815.8416   2   7   0.0004   0.0005   0.0003  -0.0002   0.0001   0.0002   0.00    1.1
2019/11/10 00:46:00.000   3738358.1069   1148173.9759   5021815.8416   2   7   0.0004   0.0005   0.0003  -0.0002   0.0001   0.0002   0.00    1.1
2019/11/10 00:46:30.000   3738358.1070   1148173.9758   5021815.8415   2   7   0.0004   0.0005   0.0003  -0.0002   0.0001   0.0002   0.00    1.1
2019/11/10 00:47:00.000   3738358.1071   1148173.9757   5021815.8414   2   7   0.0004   0.0005   0.0003  -0.0002   0.0001   0.0002   0.00    1.1
2019/11/10 00:47:30.000   3738358.1072   1148173.9756   5021815.8413   2   7   0.0004   0.0005   0.0003  -0.0002   0.0001   0.0002   0.00    1.1
2019/11/10 00:48:00.000   3738358.1073   1148173.9755   5021815.8413   2   7   0.0004   0.0005   0.0003  -0.0002   0.0001   0.0002   0.00    1.1
2019/11/10 00:48:30.000   3738358.1075   1148173.9753   5021815.8412   2   7   0.0004   0.0005   0.0003  -0.0002   0.0001   0.0002   0.00    1.1
2019/11/10 00:49:00.000   3738358.1076   1148173.9752   5021815.8411   2   7   0.0004   0.0005   0.0003  -0.0002   0.0001   0.0002   0.00    1.1
2019/11/10 00:49:30.000   3738358.1077   1148173.9750   5021815.8411   2   7   0.0004   0.0005   0.0003  -0.0002   0.0001   0.0002   0.00    1.1
2019/11/10 00:50:00.000   3738358.1078   1148173.9748   5021815.8410   2   7   0.0004   0.0005   0.0003  -0.0002   0.0001   0.0002   0.00    1.1
2019/11/10 00:50:30.000   3738358.1079   1148173.9747   5021815.8410   2   7   0.0004   0.0005   0.0003  -0.0002   0.0001   0.0002   0.00    1.1
2019/11/10 00:51:00.000   3738358.1080   1148173.9745   5021815.8409   2   7   0.0004   0.0005   0.0003  -0.0002   0.0001   0.0002   0.00    1.1
2019/11/10 00:51:30.000   3738358.1081   1148173.9743   5021815.8408   2   7   0.0004   0.0005   0.0003  -0.0002   0.0001   0.0002   0.00    1.1
2019/11/10 00:52:00.000   3738358.1082   1148173.9742   5021815.8408   2   7   0.0004   0.0005   0.0003  -0.0002   0.0001   0.0002   0.00    1.1
2019/11/10 00:52:30.000   3738358.1083   1148173.9740   5021815.8407   2   7   0.0004   0.0005   0.0003  -0.0002   0.0001   0.0002   0.00    1.1
2019/11/10 00:53:00.000   3738358.1083   1148173.9739   5021815.8407   2   7   0.0004   0.0005   0.0003  -0.0002   0.0001   0.0002   0.00    1.1
2019/11/10 00:53:30.000   3738358.1084   1148173.9737   5021815.8406   2   6   0.0004   0.0005   0.0003  -0.0002   0.0001   0.0002   0.00    1.4
2019/11/10 00:54:00.000   3738358.1084   1148173.9735   5021815.8405   2   6   0.0004   0.0005   0.0003  -0.0002   0.0001   0.0002   0.00    1.3
2019/11/10 00:54:30.000   3738358.1085   1148173.9734   5021815.8405   2   6   0.0004   0.0005   0.0003  -0.0002   0.0001   0.0002   0.00    1.3
2019/11/10 00:55:00.000   3738358.1085   1148173.9732   5021815.8404   2   6   0.0004   0.0005   0.0003  -0.0002   0.0001   0.0002   0.00    1.3
2019/11/10 00:55:30.000   3738358.1086   1148173.9731   5021815.8403   2   6   0.0004   0.0005   0.0003  -0.0002   0.0001   0.0002   0.00    1.3
2019/11/10 00:56:00.000   3738358.1086   1148173.9729   5021815.8402   2   6   0.0004   0.0005   0.0003  -0.0002   0.0001   0.0002   0.00    1.3
2019/11/10 00:56:30.000   3738358.1087   1148173.9727   5021815.8402   2   6   0.0004   0.0005   0.0003  -0.0002   0.0001   0.0002   0.00    1.3
2019/11/10 00:57:00.000   3738358.1088   1148173.9725   5021815.8401   2   6   0.0004   0.0005   0.0003  -0.0002   0.0001   0.0002   0.00    1.3
2019/11/10 00:57:30.000   3738358.1088   1148173.9724   5021815.8400   2   6   0.0004   0.0005   0.0003  -0.0002   0.0001   0.0002   0.00    1.3
2019/11/10 00:58:00.000   3738358.1089   1148173.9722   5021815.8400   2   6   0.0004   0.0005   0.0003  -0.0002   0.0001   0.0002   0.00    1.3
2019/11/10 00:58:30.000   3738358.1089   1148173.9721   5021815.8399   2   6   0.0004   0.0005   0.0003  -0.0002   0.0001   0.0002   0.00    1.3
2019/11/10 00:59:00.000   3738358.1089   1148173.9720   5021815.8399   2   6   0.0004   0.0005   0.0003  -0.0002   0.0001   0.0002   0.00    1.3
2019/11/10 00:59:30.000   3738358.1089   1148173.9719   5021815.8398   2   6   0.0004   0.0005   0.0003  -0.0002   0.0001   0.0002   0.00    1.3
2019/11/10 01:00:00.000   3738358.1089   1148173.9719   5021815.8398   2   6   0.0004   0.0005   0.0003  -0.0002   0.0001   0.0002   0.00    1.3
2019/11/10 01:00:30.000   3738358.1089   1148173.9719   5021815.8397   2   6   0.0004   0.0005   0.0003  -0.0002   0.0001   0.0002   0.00    1.4
2019/11/10 01:01:00.000   3738358.1089   1148173.9718   5021815.8397   2   6   0.0004   0.0005   0.0003  -0.0002   0.0001   0.0002   0.00    1.4
2019/11/10 01:01:30.000   3738358.1088   1148173.9719   5021815.8397   2   6   0.0004   0.0005   0.0003  -0.0002   0.0001   0.0002   0.00    1.5
2019/11/10 01:02:00.000   3738358.1088   1148173.9719   5021815.8397   2   6   0.0004   0.0005   0.0003  -0.0002   0.0001   0.0002   0.00    1.5
2019/11/10 01:02:30.000   3738358.1087   1148173.9719   5021815.8398   2   6   0.0004   0.0005   0.0003  -0.0002   0.0001   0.0002   0.00    1.6
2019/11/10 01:03:00.000   3738358.1087   1148173.9720   5021815.8398   2   6   0.0004   0.0005   0.0003  -0.0002   0.0001   0.0002   0.00    1.6
2019/11/10 01:03:30.000   3738358.1086   1148173.9721   5021815.8398   2   6   0.0004   0.0005   0.0003  -0.0002   0.0001   0.0002   0.00    1.7
2019/11/10 01:04:00.000   3738358.1086   1148173.9721   5021815.8398   2   6   0.0004   0.0005   0.0003  -0.0002   0.0001   0.0002   0.00    1.8
2019/11/10 01:04:30.000   3738358.1085   1148173.9722   5021815.8399   2   6   0.0004   0.0005   0.0003  -0.0002   0.0001   0.0002   0.00    1.8
2019/11/10 01:05:00.000   3738358.1085   1148173.9722   5021815.8399   2   6   0.0004   0.0005   0.0003  -0.0002   0.0001   0.0002   0.00    1.9
2019/11/10 01:05:30.000   3738358.1084   1148173.9723   5021815.8399   2   6   0.0004   0.0005   0.0003  -0.0002   0.0001   0.0002   0.00    2.0
2019/11/10 01:06:00.000   3738358.1083   1148173.9724   5021815.8399   2   6   0.0004   0.0005   0.0003  -0.0002   0.0001   0.0002   0.00    2.0
2019/11/10 01:06:30.000   3738358.1082   1148173.9725   5021815.8400   2   6   0.0004   0.0005   0.0003  -0.0002   0.0001   0.0002   0.00    2.1
2019/11/10 01:07:00.000   3738358.1081   1148173.9727   5021815.8400   2   6   0.0004   0.0005   0.0003  -0.0002   0.0001   0.0002   0.00    2.2
2019/11/10 01:07:30.000   3738358.1080   1148173.9728   5021815.8400   2   7   0.0004   0.0005   0.0003  -0.0002   0.0001   0.0002   0.00    1.0
2019/11/10 01:08:00.000   3738358.1080   1148173.9729   5021815.8400   2   7   0.0004   0.0005   0.0003  -0.0002   0.0001   0.0002   0.00    1.1
2019/11/10 01:08:30.000   3738358.1079   1148173.9730   5021815.8400   2   7   0.0004   0.0005   0.0003  -0.0002   0.0001   0.0002   0.00    1.1
2019/11/10 01:09:00.000   3738358.1079   1148173.9731   5021815.8401   2   7   0.0004   0.0005   0.0003  -0.0002   0.0001   0.0002   0.00    1.1
2019/11/10 01:09:30.000   3738358.1078   1148173.9732   5021815.8401   2   7   0.0004   0.0005   0.0003  -0.0002   0.0001   0.0002   0.00    1.1
2019/11/10 01:10:00.000   3738358.1078   1148173.9733   5021815.8402   2   7   0.0004   0.0005   0.0003  -0.0002   0.0001   0.0002   0.00    1.2
2019/11/10 01:10:30.000   3738358.1078   1148173.9735   5021815.8402   2   7   0.0004   0.0005   0.0003  -0.0002   0.0001   0.0002   0.00    1.2
2019/11/10 01:11:00.000   3738358.1078   1148173.9736   5021815.8403   2   7   0.0004   0.0005   0.0003  -0.0002   0.0001   0.0002   0.00    1.3
2019/11/10 01:11:30.000   3738358.1078   1148173.9737   5021815.8403   2   7   0.0004   0.0005   0.0003  -0.0002   0.0001   0.0002   0.00    1.3
2019/11/10 01:12:00.000   3738358.1078   1148173.9738   5021815.8404   2   7   0.0004   0.0005   0.0003  -0.0002   0.0001   0.0002   0.00    1.3
2019/11/10 01:12:30.000   3738358.1079   1148173.9738   5021815.8405   2   7   0.0004   0.0005   0.0003  -0.0002   0.0001   0.0002   0.00    1.3
2019/11/10 01:13:00.000   3738358.1079   1148173.9739   5021815.8406   2   7   0.0004   0.0005   0.0003  -0.0002   0.0001   0.0002   0.00    1.3
2019/11/10 01:13:30.000   3738358.1080   1148173.9740   5021815.8406   2   7   0.0004   0.0005   0.0003  -0.0002   0.0001   0.0002   0.00    1.3
2019/11/10 01:14:00.000   3738358.1080   1148173.9740   5021815.8407   2   7   0.0004   0.0005   0.0003  -0.0002   0.0001   0.0002   0.00    1.3
2019/11/10 01:14:30.000   3738358.1081   1148173.9741   5021815.8407   2   7   0.0004   0.0005   0.0003  -0.0002   0.0001   0.0002   0.00    1.3
2019/11/10 01:15:00.000   3738358.1081   1148173.9742   5021815.8408   2   7   0.0004   0.0005   0.0003  -0.0002   0.0001   0.0002   0.00    1.3
2019/11/10 01:15:30.000   3738358.1082   1148173.9743   5021815.8408   2   7   0.0004   0.0005   0.0003  -0.0002   0.0001   0.0002   0.00    1.4
2019/11/10 01:16:00.000   3738358.1082   1148173.9744   5021815.8408   2   7   0.0004   0.0005   0.0003  -0.0002   0.0001   0.0002   0.00    1.4
2019/11/10 01:16:30.000   3738358.1083   1148173.9745   5021815.8408   2   7   0.0004   0.0005   0.0003  -0.0002   0.0001   0.0002   0.00    1.4
2019/11/10 01:17:00.000   3738358.1083   1148173.9746   5021815.8408   2   7   0.0004   0.0005   0.0003  -0.0002   0.0001   0.0002   0.00    1.4
2019/11/10 01:17:30.000   3738358.1084   1148173.9748   5021815.8408   2   7   0.0004   0.0005   0.0003  -0.0002   0.0001   0.0002   0.00    1.4
2019/11/10 01:18:00.000   3738358.1084   1148173.9749   5021815.8408   2   7   0.0004   0.0005   0.0003  -0.0002   0.0001   0.0002   0.00    1.5
2019/11/10 01:18:30.000   3738358.1085   1148173.9751   5021815.8408   2   7   0.0004   0.0005   0.0003  -0.0002   0.0001   0.0002   0.00    1.5
2019/11/10 01:19:00.000   3738358.1085   1148173.9752   5021815.8408   2   7   0.0004   0.0005   0.0003  -0.0002   0.0001   0.0002   0.00    1.5
2019/11/10 01:19:30.000   3738358.1085   1148173.9754   5021815.8407   2   7   0.0004   0.0005   0.0003  -0.0002   0.0001   0.0002   0.00    1.5
2019/11/10 01:20:00.000   3738358.1086   1148173.9755   5021815.8407   2   7   0.0004   0.0005   0.0003  -0.0002   0.0001   0.0002   0.00    1.5
2019/11/10 01:20:30.000   3738358.1086   1148173.9757   5021815.8407   2   7   0.0004   0.0005   0.0003  -0.0002   0.0001   0.0002   0.00    1.5
2019/11/10 01:21:00.000   3738358.1087   1148173.9758   5021815.8407   2   7   0.0004   0.0005   0.0003  -0.0002   0.0001   0.0002   0.00    1.6
2019/11/10 01:21:30.000   3738358.1087   1148173.9759   5021815.8406   2   7   0.0004   0.0005   0.0003  -0.0002   0.0001   0.0002   0.00    1.6
2019/11/10 01:22:00.000   3738358.1088   1148173.9761   5021815.8406   2   7   0.0004   0.0005   0.0003  -0.0002   0.0001   0.0002   0.00    1.6
2019/11/10 01:22:30.000   3738358.1088   1148173.9762   5021815.8406   2   7   0.0004   0.0005   0.0003  -0.0002   0.0001   0.0002   0.00    1.6
2019/11/10 01:23:00.000   3738358.1088   1148173.9764   5021815.8405   2   7   0.0004   0.0005   0.0003  -0.0002   0.0001   0.0002   0.00    1.7
2019/11/10 01:23:30.000   3738358.1088   1148173.9766   5021815.8405   2   7   0.0004   0.0005   0.0003  -0.0002   0.0001   0.0002   0.00    1.7
2019/11/10 01:24:00.000   3738358.1089   1148173.9767   5021815.8405   2   7   0.0004   0.0005   0.0003  -0.0002   0.0001   0.0002   0.00    1.7
2019/11/10 01:24:30.000   3738358.1089   1148173.9768   5021815.8405   2   7   0.0004   0.0005   0.0003  -0.0002   0.0001   0.0002   0.00    1.8
2019/11/10 01:25:00.000   3738358.1090   1148173.9769   5021815.8404   2   7   0.0004   0.0005   0.0003  -0.0002   0.0001   0.0002   0.00    1.8
2019/11/10 01:25:30.000   3738358.1090   1148173.9770   5021815.8404   2   7   0.0004   0.0005   0.0003  -0.0002   0.0001   0.0002   0.00    1.8
2019/11/10 01:26:00.000   3738358.1090   1148173.9771   5021815.8404   2   7   0.0004   0.0005   0.0003  -0.0002   0.0001   0.0002   0.00    1.8
2019/11/10 01:26:30.000   3738358.1091   1148173.9772   5021815.8403   2   7   0.0004   0.0005   0.0003  -0.0002   0.0001   0.0002   0.00    1.8
2019/11/10 01:27:00.000   3738358.1091   1148173.9773   5021815.8403   2   7   0.0004   0.0005   0.0003  -0.0002   0.0001   0.0002   0.00    1.8
2019/11/10 01:27:30.000   3738358.1091   1148173.9774   5021815.8403   2   7   0.0004   0.0005   0.0003  -0.0002   0.0001   0.0002   0.00    1.8
2019/11/10 01:28:00.000   3738358.1091   1148173.9775   5021815.8402   2   7   0.0004   0.0005   0.0003  -0.0002   0.0001   0.0002   0.00    1.8
2019/11/10 01:28:30.000   3738358.1092   1148173.9775   5021815.8402   2   7   0.0004   0.0005   0.0003  -0.0002   0.0001   0.0002   0.00    1.8
2019/11/10 01:29:00.000   3738358.1092   1148173.9776   5021815.8401   2   7   0.0004   0.0005   0.0003  -0.0002   0.0001   0.0002   0.00    1.8
2019/11/10 01:29:30.000   3738358.1092   1148173.9776   5021815.8401   2   7   0.0004   0.0005   0.0003  -0.0002   0.0001   0.0002   0.00    1.8
2019/11/10 01:30:00.000   3738358.1093   1148173.9776   5021815.8401   2   7   0.0004   0.0005   0.0003  -0.0002   0.0001   0.0002   0.00    1.8
2019/11/10 01:30:30.000   3738358.1093   1148173.9776   5021815.8400   2   7   0.0004   0.0005   0.0003  -0.0002   0.0001   0.0002   0.00    1.8
2019/11/10 01:31:00.000   3738358.1093   1148173.9776   5021815.8400   2   7   0.0004   0.0005   0.0003  -0.0002   0.0001   0.0002   0.00    1.8
2019/11/10 01:31:30.000   3738358.1094   1148173.9776   5021815.8399   2   7   0.0004   0.0005   0.0003  -0.0002   0.0001   0.0002   0.00    1.8
2019/11/10 01:32:00.000   3738358.1094   1148173.9776   5021815.8399   2   7   0.0004   0.0005   0.0003  -0.0002   0.0001   0.0002   0.00    1.8
2019/11/10 01:32:30.000   3738358.1094   1148173.9776   5021815.8398   2   7   0.0004   0.0005   0.0003  -0.0002   0.0001   0.0002   0.00    1.8
2019/11/10 01:33:00.000   3738358.1094   1148173.9775   5021815.8398   2   7   0.0004   0.0005   0.0003  -0.0002   0.0001   0.0002   0.00    1.8
2019/11/10 01:33:30.000   3738358.1094   1148173.9775   5021815.8397   2   7   0.0004   0.0005   0.0003  -0.0002   0.0001   0.0002   0.00    1.8
2019/11/10 01:34:00.000   3738358.1094   1148173.9775   5021815.8397   2   7   0.0004   0.0005   0.0003  -0.0002   0.0001   0.0002   0.00    1.8
2019/11/10 01:34:30.000   3738358.1095   1148173.9774   5021815.8396   2   7   0.0004   0.0005   0.0003  -0.0002   0.0001   0.0002   0.00    1.8
2019/11/10 01:35:00.000   3738358.1095   1148173.9774   5021815.8395   2   7   0.0004   0.0005   0.0003  -0.0002   0.0001   0.0002   0.00    1.8
2019/11/10 01:35:30.000   3738358.1095   1148173.9773   5021815.8394   2   7   0.0004   0.0005   0.0003  -0.0002   0.0001   0.0002   0.00    1.9
2019/11/10 01:36:00.000   3738358.1095   1148173.9773   5021815.8394   2   7   0.0004   0.0005   0.0003  -0.0002   0.0001   0.0002   0.00    1.9
2019/11/10 01:36:30.000   3738358.1095   1148173.9772   5021815.8393   2   7   0.0004   0.0005   0.0003  -0.0002   0.0001   0.0002   0.00    1.9
2019/11/10 01:37:00.000   3738358.1095   1148173.9772   5021815.8392   2   7   0.0004   0.0005   0.0003  -0.0002   0.0001   0.0002   0.00    1.9
2019/11/10 01:37:30.000   3738358.1095   1148173.9771   5021815.8391   2   7   0.0004   0.0005   0.0003  -0.0002   0.0001   0.0002   0.00    1.9
2019/11/10 01:38:00.000   3738358.1095   1148173.9771   5021815.8390   2   7   0.0004   0.0005   0.0003  -0.0002   0.0001   0.0002   0.00    2.0
2019/11/10 01:38:30.000   3738358.1094   1148173.9771   5021815.8390   2   7   0.0004   0.0005   0.0003  -0.0002   0.0001   0.0002   0.00    2.0
2019/11/10 01:39:00.000   3738358.1094   1148173.9770   5021815.8389   2   7   0.0004   0.0005   0.0003  -0.0002   0.0001   0.0002   0.00    2.0
2019/11/10 01:39:30.000   3738358.1094   1148173.9770   5021815.8388   2   7   0.0004   0.0005   0.0003  -0.0002   0.0001   0.0002   0.00    2.0
2019/11/10 01:40:00.000   3738358.1093   1148173.9770   5021815.8388   2   7   0.0004   0.0005   0.0003  -0.0002   0.0001   0.0002   0.00    2.0
2019/11/10 01:40:30.000   3738358.1093   1148173.9769   5021815.8387   2   7   0.0004   0.0005   0.0003  -0.0002   0.0001   0.0002   0.00    2.1
2019/11/10 01:41:00.000   3738358.1093   1148173.9769   5021815.8386   2   7   0.0004   0.0005   0.0003  -0.0002   0.0001   0.0002   0.00    2.1
2019/11/10 01:41:30.000   3738358.1092   1148173.9769   5021815.8386   2   7   0.0004   0.0005   0.0003  -0.0002   0.0001   0.0002   0.00    2.1
2019/11/10 01:42:00.000   3738358.1092   1148173.9768   5021815.8385   2   7   0.0004   0.0005   0.0003  -0.0002   0.0001   0.0002   0.00    2.1
2019/11/10 01:42:30.000   3738358.1092   1148173.9768   5021815.8385   2   7   0.0004   0.0005   0.0003  -0.0002   0.0001   0.0002   0.00    2.1
2019/11/10 01:43:00.000   3738358.1091   1148173.9767   5021815.8385   2   7   0.0004   0.0005   0.0003  -0.0002   0.0001   0.0002   0.00    2.0
2019/11/10 01:43:30.000   3738358.1091   1148173.9766   5021815.8386   2   7   0.0004   0.0005   0.0003  -0.0002   0.0001   0.0002   0.00    1.9
2019/11/10 01:44:00.000   3738358.1091   1148173.9765   5021815.8386   2   7   0.0004   0.0005   0.0003  -0.0002   0.0001   0.0002   0.00    1.9
2019/11/10 01:44:30.000   3738358.1090   1148173.9764   5021815.8386   2   7   0.0004   0.0005   0.0003  -0.0002   0.0001   0.0002   0.00    1.8
2019/11/10 01:45:00.000   3738358.1090   1148173.9763   5021815.8387   2   7   0.0004   0.0005   0.0003  -0.0002   0.0001   0.0002   0.00    1.7
2019/11/10 01:45:30.000   3738358.1089   1148173.9762   5021815.8387   2   7   0.0004   0.0005   0.0003  -0.0002   0.0001   0.0002   0.00    1.6
2019/11/10 01:46:00.000   3738358.1089   1148173.9761   5021815.8388   2   7   0.0004   0.0005   0.0003  -0.0002   0.0001   0.0002   0.00    1.6
2019/11/10 01:46:30.000   3738358.1089   1148173.9761   5021815.8388   2   7   0.0004   0.0005   0.0003  -0.0002   0.0001   0.0002   0.00    1.5
2019/11/10 01:47:00.000   3738358.1088   1148173.9760   5021815.8389   2   7   0.0004   0.0005   0.0003  -0.0002   0.0001   0.0002   0.00    1.4
2019/11/10 01:47:30.000   3738358.1088   1148173.9760   5021815.8390   2   7   0.0004   0.0005   0.0003  -0.0002   0.0001   0.0002   0.00    1.4
2019/11/10 01:48:00.000   3738358.1088   1148173.9759   5021815.8391   2   7   0.0004   0.0005   0.0003  -0.0002   0.0001   0.0002   0.00    1.3
2019/11/10 01:48:30.000   3738358.1088   1148173.9758   5021815.8392   2   7   0.0004   0.0005   0.0003  -0.0002   0.0001   0.0002   0.00    1.3
2019/11/10 01:49:00.000   3738358.1088   1148173.9758   5021815.8392   2   7   0.0004   0.0005   0.0003  -0.0002   0.0001   0.0002   0.00    1.2
2019/11/10 01:49:30.000   3738358.1087   1148173.9757   5021815.8393   2   7   0.0004   0.0005   0.0003  -0.0002   0.0001   0.0002   0.00    1.2
2019/11/10 01:50:00.000   3738358.1087   1148173.9757   5021815.8394   2   7   0.0004   0.0005   0.0003  -0.0002   0.0001   0.0002   0.00    1.1
2019/11/10 01:50:30.000   3738358.1086   1148173.9756   5021815.8395   2   7   0.0004   0.0005   0.0003  -0.0002   0.0001   0.0002   0.00    1.1
2019/11/10 01:51:00.000   3738358.1086   1148173.9756   5021815.8395   2   7   0.0004   0.0005   0.0003  -0.0002   0.0001   0.0002   0.00    1.0
2019/11/10 01:51:30.000   3738358.1085   1148173.9755   5021815.8396   2   7   0.0004   0.0005   0.0003  -0.0002   0.0001   0.0002   0.00    1.0
2019/11/10 01:52:00.000   3738358.1084   1148173.9755   5021815.8397   2   7   0.0004   0.0005   0.0003  -0.0002   0.0001   0.0002   0.00    1.0
2019/11/10 01:52:30.000   3738358.1083   1148173.9754   5021815.8397   2   7   0.0004   0.0005   0.0003  -0.0002   0.0001   0.0002   0.00    1.0
2019/11/10 01:53:00.000   3738358.1083   1148173.9754   5021815.8398   2   7   0.0004   0.0005   0.0003  -0.0002   0.0001   0.0002   0.00    1.0
2019/11/10 01:53:30.000   3738358.1082   1148173.9753   5021815.8399   2   7   0.0004   0.0005   0.0003  -0.0002   0.0001   0.0002   0.00    1.1
2019/11/10 01:54:00.000   3738358.1081   1148173.9753   5021815.8399   2   7   0.0004   0.0005   0.0003  -0.0002   0.0001   0.0002   0.00    1.1
2019/11/10 01:54:30.000   3738358.1080   1148173.9753   5021815.8400   2   7   0.0004   0.0005   0.0003  -0.0002   0.0001   0.0002   0.00    1.1
2019/11/10 01:55:00.000   3738358.1080   1148173.9753   5021815.8400   2   7   0.0004   0.0005   0.0003  -0.0002   0.0001   0.0002   0.00    1.1
2019/11/10 01:55:30.000   3738358.1079   1148173.9753   5021815.8401   2   7   0.0004   0.0005   0.0003  -0.0002   0.0001   0.0002   0.00    1.1
2019/11/10 01:56:00.000   3738358.1079   1148173.9752   5021815.8401   2   7   0.0004   0.0005   0.0003  -0.0002   0.0001   0.0002   0.00    1.1
2019/11/10 01:56:30.000   3738358.1078   1148173.9752   5021815.8401   2   7   0.0004   0.0005   0.0003  -0.0002   0.0001   0.0002   0.00    1.1
2019/11/10 01:57:00.000   3738358.1078   1148173.9752   5021815.8401   2   7   0.0004   0.0005   0.0003  -0.0002   0.0001   0.0002   0.00    1.1
2019/11/10 01:57:30.000   3738358.1078   1148173.9752   5021815.8401   2   7   0.0004   0.0005   0.0003  -0.0002   0.0001   0.0002   0.00    1.1
2019/11/10 01:58:00.000   3738358.1077   1148173.9752   5021815.8401   2   7   0.0004   0.0005   0.0003  -0.0002   0.0001   0.0002   0.00    1.1
2019/11/10 01:58:30.000   3738358.1077   1148173.9752   5021815.8401   2   7   0.0004   0.0005   0.0003  -0.0002   0.0001   0.0002   0.00    1.1
2019/11/10 01:59:00.000   3738358.1077   1148173.9752   5021815.8401   2   7   0.0004   0.0005   0.0003  -0.0002   0.0001   0.0002   0.00    1.1
2019/11/10 01:59:30.000   3738358.1077   1148173.9752   5021815.8400   2   7   0.0004   0.0005   0.0003  -0.0002   0.0001   0.0002   0.00    1.1
2019/11/10 02:00:00.000   3738358.1076   1148173.9752   5021815.8400   2   7   0.0004   0.0005   0.0003  -0.0002   0.0001   0.0002   0.00    1.1
2019/11/10 02:00:30.000   3738358.1076   1148173.9752   5021815.8400   2   7   0.0004   0.0005   0.0003  -0.0002   0.0001   0.0002   0.00    1.1
2019/11/10 02:01:00.000   3738358.1076   1148173.9752   5021815.8400   2   7   0.0004   0.0005   0.0003  -0.0002   0.0001   0.0002   0.00    1.1
2019/11/10 02:01:30.000   3738358.1076   1148173.9751   5021815.8400   2   7   0.0004   0.0005   0.0003  -0.0002   0.0001   0.0002   0.00    1.1
2019/11/10 02:02:00.000   3738358.1076   1148173.9751   5021815.8399   2   6   0.0004   0.0005   0.0003  -0.0002   0.0001   0.0002   0.00    1.1
2019/11/10 02:02:30.000   3738358.1076   1148173.9751   5021815.8399   2   6   0.0004   0.0005   0.0003  -0.0002   0.0001   0.0002   0.00    1.1
2019/11/10 02:03:00.000   3738358.1075   1148173.9751   5021815.8398   2   6   0.0004   0.0005   0.0003  -0.0002   0.0001   0.0002   0.00    1.1
2019/11/10 02:03:30.000   3738358.1075   1148173.9751   5021815.8398   2   6   0.0004   0.0005   0.0003  -0.0002   0.0001   0.0002   0.00    1.1
2019/11/10 02:04:00.000   3738358.1074   1148173.9751   5021815.8397   2   6   0.0004   0.0005   0.0003  -0.0002   0.0001   0.0002   0.00    1.1
2019/11/10 02:04:30.000   3738358.1074   1148173.9750   5021815.8397   2   6   0.0004   0.0005   0.0003  -0.0002   0.0001   0.0002   0.00    1.1
2019/11/10 02:05:00.000   3738358.1073   1148173.9750   5021815.8396   2   6   0.0004   0.0005   0.0003  -0.0002   0.0001   0.0002   0.00    1.1
2019/11/10 02:05:30.000   3738358.1073   1148173.9750   5021815.8396   2   6   0.0004   0.0005   0.0003  -0.0002   0.0001   0.0002   0.00    1.1
2019/11/10 02:06:00.000   3738358.1072   1148173.9750   5021815.8396   2   6   0.0004   0.0005   0.0003  -0.0002   0.0001   0.0002   0.00    1.1
2019/11/10 02:06:30.000   3738358.1071   1148173.9749   5021815.8396   2   6   0.0004   0.0005   0.0003  -0.0002   0.0001   0.0002   0.00    1.0
2019/11/10 02:07:00.000   3738358.1071   1148173.9749   5021815.8395   2   6   0.0004   0.0005   0.0003  -0.0002   0.0001   0.0002   0.00    1.0
2019/11/10 02:07:30.000   3738358.1070   1148173.9749   5021815.8395   2   6   0.0004   0.0005   0.0003  -0.0002   0.0001   0.0002   0.00    1.0
2019/11/10 02:08:00.000   3738358.1069   1148173.9749   5021815.8395   2   7   0.0004   0.0005   0.0003  -0.0002   0.0001   0.0002   0.00    1.0
2019/11/10 02:08:30.000   3738358.1068   1148173.9749   5021815.8394   2   7   0.0004   0.0005   0.0003  -0.0002   0.0001   0.0002   0.00    1.0
2019/11/10 02:09:00.000   3738358.1067   1148173.9749   5021815.8394   2   7   0.0004   0.0005   0.0003  -0.0002   0.0001   0.0002   0.00    1.0
2019/11/10 02:09:30.000   3738358.1066   1148173.9750   5021815.8393   2   7   0.0004   0.0005   0.0003  -0.0002   0.0001   0.0002   0.00    1.0
2019/11/10 02:10:00.000   3738358.1065   1148173.9750   5021815.8393   2   7   0.0004   0.0005   0.0003  -0.0002   0.0001   0.0002   0.00    1.1
2019/11/10 02:10:30.000   3738358.1064   1148173.9750   5021815.8393   2   7   0.0004   0.0005   0.0003  -0.0002   0.0001   0.0002   0.00    1.1
2019/11/10 02:11:00.000   3738358.1064   1148173.9750   5021815.8392   2   7   0.0004   0.0005   0.0003  -0.0002   0.0001   0.0002   0.00    1.1
2019/11/10 02:11:30.000   3738358.1063   1148173.9750   5021815.8392   2   7   0.0004   0.0005   0.0003  -0.0002   0.0001   0.0002   0.00    1.1
2019/11/10 02:12:00.000   3738358.1062   1148173.9750   5021815.8392   2   7   0.0004   0.0005   0.0003  -0.0002   0.0001   0.0002   0.00    1.1
2019/11/10 02:12:30.000   3738358.1062   1148173.9750   5021815.8392   2   7   0.0004   0.0005   0.0003  -0.0002   0.0001   0.0002   0.00    1.1
2019/11/10 02:13:00.000   3738358.1061   1148173.9750   5021815.8392   2   7   0.0004   0.0005   0.0003  -0.0002   0.0001   0.0002   0.00    1.1
2019/11/10 02:13:30.000   3738358.1061   1148173.9750   5021815.8391   2   7   0.0004   0.0005   0.0003  -0.0002   0.0001   0.0002   0.00    1.2
2019/11/10 02:14:00.000   3738358.1061   1148173.9750   5021815.8391   2   7   0.0004   0.0005   0.0003  -0.0002   0.0001   0.0002   0.00    1.2
2019/11/10 02:14:30.000   3738358.1060   1148173.9750   5021815.8391   2   7   0.0004   0.0005   0.0003  -0.0002   0.0001   0.0002   0.00    1.2
2019/11/10 02:15:00.000   3738358.1060   1148173.9751   5021815.8391   2   7   0.0004   0.0005   0.0003  -0.0002   0.0001   0.0002   0.00    1.2
2019/11/10 02:15:30.000   3738358.1060   1148173.9751   5021815.8391   2   7   0.0004   0.0005   0.0003  -0.0002   0.0001   0.0002   0.00    1.2
2019/11/10 02:16:00.000   3738358.1059   1148173.9751   5021815.8391   2   6   0.0004   0.0005   0.0003  -0.0002   0.0001   0.0002   0.00    1.3
2019/11/10 02:16:30.000   3738358.1058   1148173.9752   5021815.8390   2   6   0.0004   0.0005   0.0003  -0.0002   0.0001   0.0002   0.00    1.3
2019/11/10 02:17:00.000   3738358.1058   1148173.9752   5021815.8390   2   6   0.0004   0.0005   0.0003  -0.0002   0.0001   0.0002   0.00    1.3
2019/11/10 02:17:30.000   3738358.1057   1148173.9752   5021815.8389   2   6   0.0004   0.0005   0.0003  -0.0002   0.0001   0.0002   0.00    1.3
2019/11/10 02:18:00.000   3738358.1057   1148173.9753   5021815.8388   2   6   0.0004   0.0005   0.0003  -0.0002   0.0001   0.0002   0.00    1.3
2019/11/10 02:18:30.000   3738358.1056   1148173.9753   5021815.8388   2   6   0.0004   0.0005   0.0003  -0.0002   0.0001   0.0002   0.00    1.3
2019/11/10 02:19:00.000   3738358.1055   1148173.9753   5021815.8387   2   6   0.0004   0.0005   0.0003  -0.0002   0.0001   0.0002   0.00    1.3
2019/11/10 02:19:30.000   3738358.1055   1148173.9753   5021815.8386   2   6   0.0004   0.0005   0.0003  -0.0002   0.0001   0.0002   0.00    1.3
2019/11/10 02:20:00.000   3738358.1055   1148173.9754   5021815.8386   2   6   0.0004   0.0005   0.0003  -0.0002   0.0001   0.0002   0.00    1.3
2019/11/10 02:20:30.000   3738358.1054   1148173.9754   5021815.8385   2   6   0.0004   0.0005   0.0003  -0.0002   0.0001   0.0002   0.00    1.3
2019/11/10 02:21:00.000   3738358.1054   1148173.9754   5021815.8385   2   6   0.0004   0.0005   0.0003  -0.0002   0.0001   0.0002   0.00    1.3
2019/11/10 02:21:30.000   3738358.1053   1148173.9754   5021815.8384   2   6   0.0004   0.0005   0.0003  -0.0002   0.0001   0.0002   0.00    1.3
2019/11/10 02:22:00.000   3738358.1053   1148173.9754   5021815.8384   2   6   0.0004   0.0005   0.0003  -0.0002   0.0001   0.0002   0.00    1.3
2019/11/10 02:22:30.000   3738358.1053   1148173.9755   5021815.8383   2   6   0.0004   0.0005   0.0003  -0.0002   0.0001   0.0002   0.00    1.3
2019/11/10 02:23:00.000   3738358.1053   1148173.9755   5021815.8383   2   6   0.0004   0.0005   0.0003  -0.0002   0.0001   0.0002   0.00    1.3
2019/11/10 02:23:30.000   3738358.1052   1148173.9755   5021815.8382   2   6   0.0004   0.0005   0.0003  -0.0002   0.0001   0.0002   0.00    1.3
2019/11/10 02:24:00.000   3738358.1052   1148173.9756   5021815.8381   2   6   0.0004   0.0005   0.0003  -0.0002   0.0001   0.0002   0.00    1.3
2019/11/10 02:24:30.000   3738358.1052   1148173.9756   5021815.8381   2   6   0.0004   0.0005   0.0003  -0.0002   0.0001   0.0002   0.00    1.3
2019/11/10 02:25:00.000   3738358.1052   1148173.9756   5021815.8381   2   6   0.0004   0.0005   0.0003  -0.0002   0.0001   0.0002   0.00    1.3
2019/11/10 02:25:30.000   3738358.1052   1148173.9756   5021815.8380   2   6   0.0004   0.0005   0.0003  -0.0002   0.0001   0.0002   0.00    1.4
2019/11/10 02:26:00.000   3738358.1052   1148173.9757   5021815.8380   2   7   0.0004   0.0005   0.0003  -0.0002   0.0001   0.0002   0.00    1.0
2019/11/10 02:26:30.000   3738358.1052   1148173.9757   5021815.8380   2   7   0.0004   0.0005   0.0003  -0.0002   0.0001   0.0002   0.00    1.0
2019/11/10 02:27:00.000   3738358.1052   1148173.9757   5021815.8380   2   7   0.0004   0.0005   0.0003  -0.0002   0.0001   0.0002   0.00    1.0
2019/11/10 02:27:30.000   3738358.1053   1148173.9758   5021815.8380   2   7   0.0004   0.0005   0.0003  -0.0002   0.0001   0.0002   0.00    1.0
2019/11/10 02:28:00.000   3738358.1053   1148173.9758   5021815.8380   2   7   0.0004   0.0005   0.0003  -0.0002   0.0001   0.0002   0.00    1.0
2019/11/10 02:28:30.000   3738358.1053   1148173.9758   5021815.8380   2   7   0.0004   0.0005   0.0003  -0.0002   0.0001   0.0002   0.00    1.1
2019/11/10 02:29:00.000   3738358.1053   1148173.9758   5021815.8380   2   7   0.0004   0.0005   0.0003  -0.0002   0.0001   0.0002   0.00    1.1
2019/11/10 02:29:30.000   3738358.1053   1148173.9759   5021815.8380   2   7   0.0004   0.0005   0.0003  -0.0002   0.0001   0.0002   0.00    1.1
2019/11/10 02:30:00.000   3738358.1053   1148173.9759   5021815.8380   2   7   0.0004   0.0005   0.0003  -0.0002   0.0001   0.0002   0.00    1.1
2019/11/10 02:30:30.000   3738358.1053   1148173.9759   5021815.8380   2   7   0.0004   0.0005   0.0003  -0.0002   0.0001   0.0002   0.00    1.1
2019/11/10 02:31:00.000   3738358.1052   1148173.9759   5021815.8380   2   7   0.0004   0.0005   0.0003  -0.0002   0.0001   0.0002   0.00    1.1
2019/11/10 02:31:30.000   3738358.1052   1148173.9760   5021815.8380   2   7   0.0004   0.0005   0.0003  -0.0002   0.0001   0.0002   0.00    1.1
2019/11/10 02:32:00.000   3738358.1052   1148173.9760   5021815.8380   2   7   0.0004   0.0005   0.0003  -0.0002   0.0001   0.0002   0.00    1.2
2019/11/10 02:32:30.000   3738358.1052   1148173.9760   5021815.8379   2   7   0.0004   0.0005   0.0003  -0.0002   0.0001   0.0002   0.00    1.2
2019/11/10 02:33:00.000   3738358.1052   1148173.9760   5021815.8379   2   7   0.0004   0.0005   0.0003  -0.0002   0.0001   0.0002   0.00    1.2
2019/11/10 02:33:30.000   3738358.1051   1148173.9761   5021815.8379   2   7   0.0004   0.0005   0.0003  -0.0002   0.0001   0.0002   0.00    1.2
2019/11/10 02:34:00.000   3738358.1051   1148173.9761   5021815.8379   2   7   0.0004   0.0005   0.0003  -0.0002   0.0001   0.0002   0.00    1.2
2019/11/10 02:34:30.000   3738358.1051   1148173.9761   5021815.8379   2   7   0.0004   0.0005   0.0003  -0.0002   0.0001   0.0002   0.00    1.3
2019/11/10 02:35:00.000   3738358.1050   1148173.9761   5021815.8379   2   7   0.0004   0.0005   0.0003  -0.0002   0.0001   0.0002   0.00    1.3
2019/11/10 02:35:30.000   3738358.1050   1148173.9762   5021815.8378   2   7   0.0004   0.0005   0.0003  -0.0002   0.0001   0.0002   0.00    1.3
2019/11/10 02:36:00.000   3738358.1049   1148173.9762   5021815.8378   2   6   0.0004   0.0005   0.0003  -0.0002   0.0001   0.0002   0.00    1.5
2019/11/10 02:36:30.000   3738358.1049   1148173.9762   5021815.8378   2   6   0.0004   0.0005   0.0003  -0.0002   0.0001   0.0002   0.00    1.5
2019/11/10 02:37:00.000   3738358.1048   1148173.9762   5021815.8378   2   6   0.0004   0.0005   0.0003  -0.0002   0.0001   0.0002   0.00    1.5
2019/11/10 02:37:30.000   3738358.1047   1148173.9762   5021815.8377   2   6   0.0004   0.0005   0.0003  -0.0002   0.0001   0.0002   0.00    1.5
2019/11/10 02:38:00.000   3738358.1046   1148173.9762   5021815.8377   2   6   0.0004   0.0005   0.0003  -0.0002   0.0001   0.0002   0.00    1.5
2019/11/10 02:38:30.000   3738358.1045   1148173.9763   5021815.8377   2   6   0.0004   0.0005   0.0003  -0.0002   0.0001   0.0002   0.00    1.5
2019/11/10 02:39:00.000   3738358.1044   1148173.9763   5021815.8377   2   6   0.0004   0.0005   0.0003  -0.0002   0.0001   0.0002   0.00    1.5
2019/11/10 02:39:30.000   3738358.1043   1148173.9763   5021815.8376   2   6   0.0004   0.0005   0.0003  -0.0002   0.0001   0.0002   0.00    1.5
2019/11/10 02:40:00.000   3738358.1042   1148173.9763   5021815.8376   2   6   0.0004   0.0005   0.0003  -0.0002   0.0001   0.0002   0.00    1.5
2019/11/10 02:40:30.000   3738358.1041   1148173.9763   5021815.8375   2   6   0.0004   0.0005   0.0003  -0.0002   0.0001   0.0002   0.00    1.5
2019/11/10 02:41:00.000   3738358.1039   1148173.9764   5021815.8375   2   6   0.0004   0.0005   0.0003  -0.0002   0.0001   0.0002   0.00    1.5
2019/11/10 02:41:30.000   3738358.1038   1148173.9764   5021815.8374   2   6   0.0004   0.0005   0.0003  -0.0002   0.0001   0.0002   0.00    1.5
2019/11/10 02:42:00.000   3738358.1037   1148173.9764   5021815.8373   2   6   0.0004   0.0005   0.0003  -0.0002   0.0001   0.0002   0.00    1.5
2019/11/10 02:42:30.000   3738358.1036   1148173.9764   5021815.8372   2   6   0.0004   0.0005   0.0003  -0.0002   0.0001   0.0002   0.00    1.5
2019/11/10 02:43:00.000   3738358.1035   1148173.9765   5021815.8372   2   6   0.0004   0.0005   0.0003  -0.0002   0.0001   0.0002   0.00    1.5
2019/11/10 02:43:30.000   3738358.1034   1148173.9765   5021815.8371   2   6   0.0004   0.0005   0.0003  -0.0002   0.0001   0.0002   0.00    1.5
2019/11/10 02:44:00.000   3738358.1033   1148173.9765   5021815.8370   2   6   0.0004   0.0005   0.0003  -0.0002   0.0001   0.0002   0.00    1.5
2019/11/10 02:44:30.000   3738358.1033   1148173.9765   5021815.8369   2   6   0.0004   0.0005   0.0003  -0.0002   0.0001   0.0002   0.00    1.5
2019/11/10 02:45:00.000   3738358.1032   1148173.9766   5021815.8369   2   6   0.0004   0.0005   0.0003  -0.0002   0.0001   0.0002   0.00    1.5
2019/11/10 02:45:30.000   3738358.1032   1148173.9766   5021815.8368   2   6   0.0004   0.0005   0.0003  -0.0002   0.0001   0.0002   0.00    1.5
2019/11/10 02:46:00.000   3738358.1032   1148173.9766   5021815.8367   2   6   0.0004   0.0005   0.0003  -0.0002   0.0001   0.0002   0.00    1.5
2019/11/10 02:46:30.000   3738358.1031   1148173.9767   5021815.8367   2   6   0.0004   0.0005   0.0003  -0.0002   0.0001   0.0002   0.00    1.5
2019/11/10 02:47:00.000   3738358.1031   1148173.9767   5021815.8366   2   6   0.0004   0.0005   0.0003  -0.0002   0.0001   0.0002   0.00    1.5
2019/11/10 02:47:30.000   3738358.1031   1148173.9767   5021815.8366   2   6   0.0004   0.0005   0.0003  -0.0002   0.0001   0.0002   0.00    1.5
2019/11/10 02:48:00.000   3738358.1031   1148173.9768   5021815.8365   2   6   0.0004   0.0005   0.0003  -0.0002   0.0001   0.0002   0.00    1.5
2019/11/10 02:48:30.000   3738358.1030   1148173.9768   5021815.8364   2   6   0.0004   0.0005   0.0003  -0.0002   0.0001   0.0002   0.00    1.5
2019/11/10 02:49:00.000   3738358.1030   1148173.9769   5021815.8363   2   6   0.0004   0.0005   0.0003  -0.0002   0.0001   0.0002   0.00    1.6
2019/11/10 02:49:30.000   3738358.1029   1148173.9769   5021815.8362   2   6   0.0004   0.0005   0.0003  -0.0002   0.0001   0.0002   0.00    1.6
2019/11/10 02:50:00.000   3738358.1028   1148173.9770   5021815.8361   2   6   0.0004   0.0005   0.0003  -0.0002   0.0001   0.0002   0.00    1.6
2019/11/10 02:50:30.000   3738358.1028   1148173.9771   5021815.8360   2   6   0.0004   0.0005   0.0003  -0.0002   0.0001   0.0002   0.00    1.6
2019/11/10 02:51:00.000   3738358.1027   1148173.9771   5021815.8359   2   6   0.0004   0.0005   0.0003  -0.0002   0.0001   0.0002   0.00    1.6
2019/11/10 02:51:30.000   3738358.1026   1148173.9772   5021815.8358   2   6   0.0004   0.0005   0.0003  -0.0002   0.0001   0.0002   0.00    1.6
2019/11/10 02:52:00.000   3738358.1026   1148173.9772   5021815.8357   2   6   0.0004   0.0005   0.0003  -0.0002   0.0001   0.0002   0.00    1.7
2019/11/10 02:52:30.000   3738358.1025   1148173.9773   5021815.8356   2   6   0.0004   0.0005   0.0003  -0.0002   0.0001   0.0002   0.00    1.7
2019/11/10 02:53:00.000   3738358.1024   1148173.9774   5021815.8355   2   6   0.0004   0.0005   0.0003  -0.0002   0.0001   0.0002   0.00    1.7
2019/11/10 02:53:30.000   3738358.1024   1148173.9774   5021815.8354   2   6   0.0004   0.0005   0.0003  -0.0002   0.0001   0.0002   0.00    1.7
2019/11/10 02:54:00.000   3738358.1023   1148173.9775   5021815.8353   2   6   0.0004   0.0005   0.0003  -0.0002   0.0001   0.0002   0.00    1.7
2019/11/10 02:54:30.000   3738358.1022   1148173.9776   5021815.8352   2   6   0.0004   0.0005   0.0003  -0.0002   0.0001   0.0002   0.00    1.7
2019/11/10 02:55:00.000   3738358.1022   1148173.9776   5021815.8351   2   6   0.0004   0.0005   0.0003  -0.0002   0.0001   0.0002   0.00    1.7
2019/11/10 02:55:30.000   3738358.1021   1148173.9777   5021815.8350   2   6   0.0004   0.0005   0.0003  -0.0002   0.0001   0.0002   0.00    1.7
2019/11/10 02:56:00.000   3738358.1021   1148173.9778   5021815.8349   2   6   0.0004   0.0005   0.0003  -0.0002   0.0001   0.0002   0.00    1.7
2019/11/10 02:56:30.000   3738358.1020   1148173.9778   5021815.8348   2   6   0.0004   0.0005   0.0003  -0.0002   0.0001   0.0002   0.00    1.7
2019/11/10 02:57:00.000   3738358.1020   1148173.9779   5021815.8347   2   6   0.0004   0.0005   0.0003  -0.0002   0.0001   0.0002   0.00    1.7
2019/11/10 02:57:30.000   3738358.1019   1148173.9779   5021815.8346   2   6   0.0004   0.0005   0.0003  -0.0002   0.0001   0.0002   0.00    1.6
2019/11/10 02:58:00.000   3738358.1019   1148173.9779   5021815.8345   2   6   0.0004   0.0005   0.0003  -0.0002   0.0001   0.0002   0.00    1.6
2019/11/10 02:58:30.000   3738358.1019   1148173.9780   5021815.8344   2   6   0.0004   0.0005   0.0003  -0.0002   0.0001   0.0002   0.00    1.5
2019/11/10 02:59:00.000   3738358.1019   1148173.9780   5021815.8343   2   6   0.0004   0.0005   0.0003  -0.0002   0.0001   0.0002   0.00    1.5
2019/11/10 02:59:30.000   3738358.1019   1148173.9780   5021815.8343   2   6   0.0004   0.0005   0.0003  -0.0002   0.0001   0.0002   0.00    1.4
2019/11/10 03:00:00.000   3738358.1019   1148173.9780   5021815.8342   2   6   0.0004   0.0005   0.0003  -0.0002   0.0001   0.0002   0.00    1.3
2019/11/10 03:00:30.000   3738358.1018   1148173.9779   5021815.8341   2   6   0.0004   0.0005   0.0003  -0.0002   0.0001   0.0002   0.00    1.3
2019/11/10 03:01:00.000   3738358.1018   1148173.9779   5021815.8341   2   6   0.0004   0.0005   0.0003  -0.0002   0.0001   0.0002   0.00    1.2
2019/11/10 03:01:30.000   3738358.1018   1148173.9779   5021815.8340   2   6   0.0004   0.0005   0.0003  -0.0002   0.0001   0.0002   0.00    1.1
2019/11/10 03:02:00.000   3738358.1018   1148173.9778   5021815.8340   2   6   0.0004   0.0005   0.0003  -0.0002   0.0001   0.0002   0.00    1.1
2019/11/10 03:02:30.000   3738358.1018   1148173.9778   5021815.8339   2   6   0.0004   0.0005   0.0003  -0.0002   0.0001   0.0002   0.00    1.0
2019/11/10 03:03:00.000   3738358.1018   1148173.9777   5021815.8339   2   7   0.0004   0.0005   0.0003  -0.0002   0.0001   0.0002   0.00    1.0
2019/11/10 03:03:30.000   3738358.1018   1148173.9776   5021815.8339   2   7   0.0004   0.0005   0.0003  -0.0002   0.0001   0.0002   0.00    1.0
2019/11/10 03:04:00.000   3738358.1018   1148173.9776   5021815.8339   2   7   0.0004   0.0005   0.0003  -0.0002   0.0001   0.0002   0.00    1.0
2019/11/10 03:04:30.000   3738358.1018   1148173.9775   5021815.8339   2   7   0.0004   0.0005   0.0003  -0.0002   0.0001   0.0002   0.00    1.0
2019/11/10 03:05:00.000   3738358.1018   1148173.9774   5021815.8338   2   7   0.0004   0.0005   0.0003  -0.0002   0.0001   0.0002   0.00    1.1
2019/11/10 03:05:30.000   3738358.1018   1148173.9773   5021815.8338   2   7   0.0004   0.0005   0.0003  -0.0002   0.0001   0.0002   0.00    1.1
2019/11/10 03:06:00.000   3738358.1018   1148173.9772   5021815.8338   2   7   0.0004   0.0005   0.0003  -0.0002   0.0001   0.0002   0.00    1.1
2019/11/10 03:06:30.000   3738358.1018   1148173.9771   5021815.8338   2   7   0.0004   0.0005   0.0003  -0.0002   0.0001   0.0002   0.00    1.1
2019/11/10 03:07:00.000   3738358.1018   1148173.9770   5021815.8338   2   7   0.0004   0.0005   0.0003  -0.0002   0.0001   0.0002   0.00    1.2
2019/11/10 03:07:30.000   3738358.1019   1148173.9769   5021815.8339   2   7   0.0004   0.0005   0.0003  -0.0002   0.0001   0.0002   0.00    1.2
2019/11/10 03:08:00.000   3738358.1019   1148173.9769   5021815.8339   2   7   0.0004   0.0005   0.0003  -0.0002   0.0001   0.0002   0.00    1.2
2019/11/10 03:08:30.000   3738358.1019   1148173.9768   5021815.8339   2   7   0.0004   0.0005   0.0003  -0.0002   0.0001   0.0002   0.00    1.2
2019/11/10 03:09:00.000   3738358.1018   1148173.9767   5021815.8340   2   7   0.0004   0.0005   0.0003  -0.0002   0.0001   0.0002   0.00    1.2
2019/11/10 03:09:30.000   3738358.1018   1148173.9767   5021815.8340   2   7   0.0004   0.0005   0.0003  -0.0002   0.0001   0.0002   0.00    1.3
2019/11/10 03:10:00.000   3738358.1018   1148173.9766   5021815.8340   2   7   0.0004   0.0005   0.0003  -0.0002   0.0001   0.0002   0.00    1.3
2019/11/10 03:10:30.000   3738358.1018   1148173.9765   5021815.8341   2   7   0.0004   0.0005   0.0003  -0.0002   0.0001   0.0002   0.00    1.3
2019/11/10 03:11:00.000   3738358.1018   1148173.9765   5021815.8341   2   7   0.0004   0.0005   0.0003  -0.0002   0.0001   0.0002   0.00    1.3
2019/11/10 03:11:30.000   3738358.1017   1148173.9764   5021815.8342   2   7   0.0004   0.0005   0.0003  -0.0002   0.0001   0.0002   0.00    1.3
2019/11/10 03:12:00.000   3738358.1017   1148173.9763   5021815.8342   2   7   0.0004   0.0005   0.0003  -0.0002   0.0001   0.0002   0.00    1.4
2019/11/10 03:12:30.000   3738358.1017   1148173.9763   5021815.8343   2   7   0.0004   0.0005   0.0003  -0.0002   0.0001   0.0002   0.00    1.4
2019/11/10 03:13:00.000   3738358.1017   1148173.9762   5021815.8343   2   7   0.0004   0.0005   0.0003  -0.0002   0.0001   0.0002   0.00    1.4
2019/11/10 03:13:30.000   3738358.1017   1148173.9761   5021815.8344   2   7   0.0004   0.0005   0.0003  -0.0002   0.0001   0.0002   0.00    1.4
2019/11/10 03:14:00.000   3738358.1017   1148173.9760   5021815.8345   2   7   0.0004   0.0005   0.0003  -0.0002   0.0001   0.0002   0.00    1.4
2019/11/10 03:14:30.000   3738358.1016   1148173.9760   5021815.8345   2   7   0.0004   0.0005   0.0003  -0.0002   0.0001   0.0002   0.00    1.5
2019/11/10 03:15:00.000   3738358.1016   1148173.9759   5021815.8346   2   7   0.0004   0.0005   0.0003  -0.0002   0.0001   0.0002   0.00    1.5
2019/11/10 03:15:30.000   3738358.1016   1148173.9758   5021815.8347   2   7   0.0004   0.0005   0.0003  -0.0002   0.0001   0.0002   0.00    1.5
2019/11/10 03:16:00.000   3738358.1016   1148173.9758   5021815.8348   2   7   0.0004   0.0005   0.0003  -0.0002   0.0001   0.0002   0.00    1.5
2019/11/10 03:16:30.000   3738358.1016   1148173.9757   5021815.8349   2   7   0.0004   0.0005   0.0003  -0.0002   0.0001   0.0002   0.00    1.5
2019/11/10 03:17:00.000   3738358.1016   1148173.9756   5021815.8350   2   7   0.0004   0.0005   0.0003  -0.0002   0.0001   0.0002   0.00    1.5
2019/11/10 03:17:30.000   3738358.1016   1148173.9755   5021815.8351   2   7   0.0004   0.0005   0.0003  -0.0002   0.0001   0.0002   0.00    1.5
2019/11/10 03:18:00.000   3738358.1016   1148173.9755   5021815.8352   2   7   0.0004   0.0005   0.0003  -0.0002   0.0001   0.0002   0.00    1.5
2019/11/10 03:18:30.000   3738358.1016   1148173.9754   5021815.8352   2   7   0.0004   0.0005   0.0003  -0.0002   0.0001   0.0002   0.00    1.5
2019/11/10 03:19:00.000   3738358.1016   1148173.9753   5021815.8353   2   7   0.0004   0.0005   0.0003  -0.0002   0.0001   0.0002   0.00    1.5
2019/11/10 03:19:30.000   3738358.1017   1148173.9753   5021815.8354   2   7   0.0004   0.0005   0.0003  -0.0002   0.0001   0.0002   0.00    1.5
2019/11/10 03:20:00.000   3738358.1017   1148173.9752   5021815.8355   2   7   0.0004   0.0005   0.0003  -0.0002   0.0001   0.0002   0.00    1.5
2019/11/10 03:20:30.000   3738358.1017   1148173.9752   5021815.8356   2   7   0.0004   0.0005   0.0003  -0.0002   0.0001   0.0002   0.00    1.5
2019/11/10 03:21:00.000   3738358.1017   1148173.9752   5021815.8356   2   7   0.0004   0.0005   0.0003  -0.0002   0.0001   0.0002   0.00    1.5
2019/11/10 03:21:30.000   3738358.1017   1148173.9751   5021815.8357   2   7   0.0004   0.0005   0.0003  -0.0002   0.0001   0.0002   0.00    1.4
2019/11/10 03:22:00.000   3738358.1017   1148173.9751   5021815.8357   2   7   0.0004   0.0005   0.0003  -0.0002   0.0001   0.0002   0.00    1.4
