% program   : RTKPOST ver.2.4.3 b34
% inp file  : C:\Users\Danisimo\Desktop\????_????\???????\BREW\brew3140.22o
% inp file  : C:\Users\Danisimo\Desktop\????_????\???????\NANO\nano3140.22o
% inp file  : C:\Users\Danisimo\Desktop\????_????\???????\BRDC00IGS_R_20223140000_01D_MN.rnx
% inp file  : C:\Users\Danisimo\Desktop\????_????\???????\igs22354.sp3
% inp file  : C:\Users\Danisimo\Desktop\????_????\???????\igs22354.clk_30s
% obs start : 2022/11/10 00:00:00.0 GPST (week2235 345600.0s)
% obs end   : 2022/11/10 23:59:30.0 GPST (week2235 431970.0s)
% pos mode  : Static
% freqs     : L1+2
% solution  : Combined
% elev mask : 15.0 deg
% dynamics  : off
% tidecorr  : off
% ionos opt : Broadcast
% tropo opt : Saastamoinen
% ephemeris : Precise
% navi sys  : GPS
% amb res   : Continuous
% val thres : 3.0
% antenna1  :                       ( 0.0000  0.0000  0.0083)
% antenna2  :                       ( 0.0000  0.0000  0.0771)
% ref pos   : -2335726.8763  -3451608.3402   4812009.9238
%
% (x/y/z-ecef=WGS84,Q=1:fix,2:float,3:sbas,4:dgps,5:single,6:ppp,ns=# of satellites)
%  GPST                      x-ecef(m)      y-ecef(m)      z-ecef(m)   Q  ns   sdx(m)   sdy(m)   sdz(m)  sdxy(m)  sdyz(m)  sdzx(m) age(s)  ratio
2022/11/10 00:00:00.000  -2112007.4305  -3705351.5249   4726827.0005   2   8   0.0005   0.0004   0.0003  -0.0002  -0.0002  -0.0002   0.00    1.0
2022/11/10 00:00:30.000  -2112007.4306  -3705351.5246   4726827.0003   2   8   0.0005   0.0004   0.0003  -0.0002  -0.0002  -0.0002   0.00    1.1
2022/11/10 00:01:00.000  -2112007.4307  -3705351.5244   4726827.0000   2   8   0.0005   0.0004   0.0003  -0.0003  -0.0002  -0.0002   0.00    1.0
2022/11/10 00:01:30.000  -2112007.4308  -3705351.5242   4726826.9998   2   8   0.0005   0.0004   0.0003  -0.0003  -0.0002  -0.0002   0.00    1.0
2022/11/10 00:02:00.000  -2112007.4309  -3705351.5240   4726826.9995   2   8   0.0005   0.0004   0.0003  -0.0003  -0.0002  -0.0002   0.00    1.0
2022/11/10 00:02:30.000  -2112007.4310  -3705351.5238   4726826.9993   2   8   0.0005   0.0004   0.0003  -0.0003  -0.0002  -0.0002   0.00    1.1
2022/11/10 00:03:00.000  -2112007.4312  -3705351.5236   4726826.9991   2   8   0.0005   0.0004   0.0003  -0.0003  -0.0002  -0.0002   0.00    1.2
2022/11/10 00:03:30.000  -2112007.4313  -3705351.5234   4726826.9989   2   9   0.0005   0.0004   0.0003  -0.0003  -0.0002  -0.0002   0.00    1.0
2022/11/10 00:04:00.000  -2112007.4315  -3705351.5231   4726826.9987   2   9   0.0005   0.0004   0.0003  -0.0003  -0.0002  -0.0002   0.00    1.1
2022/11/10 00:04:30.000  -2112007.4316  -3705351.5229   4726826.9985   2   9   0.0005   0.0004   0.0003  -0.0003  -0.0002  -0.0002   0.00    1.1
2022/11/10 00:05:00.000  -2112007.4318  -3705351.5227   4726826.9983   2   9   0.0005   0.0004   0.0003  -0.0003  -0.0002  -0.0002   0.00    1.0
2022/11/10 00:05:30.000  -2112007.4320  -3705351.5225   4726826.9981   2   9   0.0005   0.0004   0.0003  -0.0003  -0.0002  -0.0002   0.00    1.0
2022/11/10 00:06:00.000  -2112007.4321  -3705351.5223   4726826.9980   2   9   0.0005   0.0004   0.0003  -0.0003  -0.0002  -0.0002   0.00    1.1
2022/11/10 00:06:30.000  -2112007.4323  -3705351.5221   4726826.9978   2   9   0.0005   0.0004   0.0003  -0.0003  -0.0002  -0.0002   0.00    1.0
2022/11/10 00:07:00.000  -2112007.4325  -3705351.5219   4726826.9977   2   9   0.0005   0.0004   0.0003  -0.0003  -0.0002  -0.0002   0.00    1.0
2022/11/10 00:07:30.000  -2112007.4327  -3705351.5217   4726826.9976   2  10   0.0005   0.0004   0.0003  -0.0003  -0.0002  -0.0002   0.00    1.0
2022/11/10 00:08:00.000  -2112007.4329  -3705351.5215   4726826.9975   2  10   0.0005   0.0004   0.0003  -0.0003  -0.0002  -0.0002   0.00    1.1
2022/11/10 00:08:30.000  -2112007.4331  -3705351.5214   4726826.9974   2  10   0.0005   0.0004   0.0003  -0.0003  -0.0002  -0.0002   0.00    1.1
2022/11/10 00:09:00.000  -2112007.4333  -3705351.5212   4726826.9974   2  10   0.0005   0.0004   0.0003  -0.0003  -0.0002  -0.0002   0.00    1.1
2022/11/10 00:09:30.000  -2112007.4335  -3705351.5210   4726826.9973   2  10   0.0005   0.0004   0.0003  -0.0003  -0.0002  -0.0002   0.00    1.1
2022/11/10 00:10:00.000  -2112007.4337  -3705351.5209   4726826.9972   2   9   0.0005   0.0004   0.0003  -0.0003  -0.0002  -0.0002   0.00    1.0
2022/11/10 00:10:30.000  -2112007.4338  -3705351.5208   4726826.9972   2   9   0.0005   0.0004   0.0003  -0.0003  -0.0002  -0.0002   0.00    1.0
2022/11/10 00:11:00.000  -2112007.4339  -3705351.5208   4726826.9971   2   9   0.0005   0.0004   0.0003  -0.0003  -0.0002  -0.0002   0.00    1.0
2022/11/10 00:11:30.000  -2112007.4340  -3705351.5207   4726826.9971   2   9   0.0005   0.0004   0.0003  -0.0003  -0.0002  -0.0002   0.00    1.0
2022/11/10 00:12:00.000  -2112007.4340  -3705351.5207   4726826.9970   2   9   0.0005   0.0004   0.0003  -0.0003  -0.0002  -0.0002   0.00    1.0
2022/11/10 00:12:30.000  -2112007.4340  -3705351.5208   4726826.9970   2   9   0.0005   0.0004   0.0003  -0.0003  -0.0002  -0.0002   0.00    1.0
2022/11/10 00:13:00.000  -2112007.4340  -3705351.5208   4726826.9969   2   9   0.0005   0.0004   0.0003  -0.0003  -0.0002  -0.0002   0.00    1.1
2022/11/10 00:13:30.000  -2112007.4340  -3705351.5209   4726826.9969   2   9   0.0005   0.0004   0.0003  -0.0003  -0.0002  -0.0002   0.00    1.1
2022/11/10 00:14:00.000  -2112007.4339  -3705351.5211   4726826.9968   2   9   0.0005   0.0005   0.0003  -0.0003  -0.0002  -0.0002   0.00    1.0
2022/11/10 00:14:30.000  -2112007.4338  -3705351.5212   4726826.9967   2   9   0.0005   0.0005   0.0003  -0.0003  -0.0002  -0.0002   0.00    1.0
2022/11/10 00:15:00.000  -2112007.4336  -3705351.5214   4726826.9966   2   9   0.0005   0.0005   0.0003  -0.0003  -0.0002  -0.0002   0.00    1.0
2022/11/10 00:15:30.000  -2112007.4335  -3705351.5216   4726826.9965   2   9   0.0005   0.0005   0.0003  -0.0003  -0.0002  -0.0002   0.00    1.0
2022/11/10 00:16:00.000  -2112007.4333  -3705351.5218   4726826.9964   2   9   0.0005   0.0005   0.0003  -0.0003  -0.0002  -0.0002   0.00    1.0
2022/11/10 00:16:30.000  -2112007.4332  -3705351.5221   4726826.9964   2   9   0.0005   0.0005   0.0003  -0.0003  -0.0002  -0.0002   0.00    1.1
2022/11/10 00:17:00.000  -2112007.4331  -3705351.5223   4726826.9964   2   9   0.0005   0.0005   0.0003  -0.0003  -0.0002  -0.0002   0.00    1.2
2022/11/10 00:17:30.000  -2112007.4330  -3705351.5226   4726826.9964   2   9   0.0005   0.0005   0.0003  -0.0003  -0.0002  -0.0002   0.00    1.2
2022/11/10 00:18:00.000  -2112007.4329  -3705351.5229   4726826.9964   2   9   0.0005   0.0005   0.0003  -0.0003  -0.0002  -0.0002   0.00    1.1
2022/11/10 00:18:30.000  -2112007.4329  -3705351.5231   4726826.9964   2   9   0.0005   0.0005   0.0003  -0.0003  -0.0002  -0.0002   0.00    1.0
2022/11/10 00:19:00.000  -2112007.4328  -3705351.5234   4726826.9965   2   9   0.0005   0.0005   0.0003  -0.0003  -0.0002  -0.0002   0.00    1.1
2022/11/10 00:19:30.000  -2112007.4328  -3705351.5236   4726826.9965   2   9   0.0005   0.0005   0.0003  -0.0003  -0.0002  -0.0002   0.00    1.1
2022/11/10 00:20:00.000  -2112007.4328  -3705351.5239   4726826.9965   2   9   0.0005   0.0005   0.0003  -0.0003  -0.0002  -0.0002   0.00    1.0
2022/11/10 00:20:30.000  -2112007.4327  -3705351.5241   4726826.9965   2   9   0.0005   0.0005   0.0003  -0.0003  -0.0002  -0.0002   0.00    1.0
2022/11/10 00:21:00.000  -2112007.4326  -3705351.5243   4726826.9965   2   9   0.0005   0.0005   0.0003  -0.0003  -0.0002  -0.0002   0.00    1.1
2022/11/10 00:21:30.000  -2112007.4325  -3705351.5245   4726826.9964   2   9   0.0005   0.0005   0.0003  -0.0003  -0.0002  -0.0002   0.00    1.1
2022/11/10 00:22:00.000  -2112007.4324  -3705351.5247   4726826.9964   2   9   0.0005   0.0005   0.0003  -0.0003  -0.0002  -0.0002   0.00    1.1
2022/11/10 00:22:30.000  -2112007.4323  -3705351.5249   4726826.9963   2   8   0.0005   0.0005   0.0003  -0.0003  -0.0002  -0.0002   0.00    1.2
2022/11/10 00:23:00.000  -2112007.4322  -3705351.5251   4726826.9962   2   8   0.0005   0.0005   0.0003  -0.0003  -0.0002  -0.0002   0.00    1.1
2022/11/10 00:23:30.000  -2112007.4320  -3705351.5253   4726826.9961   2   8   0.0005   0.0005   0.0003  -0.0003  -0.0002  -0.0002   0.00    1.0
2022/11/10 00:24:00.000  -2112007.4318  -3705351.5255   4726826.9960   2   8   0.0005   0.0005   0.0003  -0.0003  -0.0002  -0.0002   0.00    1.1
2022/11/10 00:24:30.000  -2112007.4316  -3705351.5258   4726826.9960   2   8   0.0005   0.0005   0.0003  -0.0003  -0.0002  -0.0002   0.00    1.1
2022/11/10 00:25:00.000  -2112007.4313  -3705351.5260   4726826.9959   2   8   0.0005   0.0005   0.0003  -0.0003  -0.0002  -0.0002   0.00    1.2
2022/11/10 00:25:30.000  -2112007.4311  -3705351.5263   4726826.9958   2   8   0.0005   0.0005   0.0003  -0.0003  -0.0002  -0.0002   0.00    1.2
2022/11/10 00:26:00.000  -2112007.4308  -3705351.5266   4726826.9958   2   8   0.0005   0.0005   0.0003  -0.0003  -0.0002  -0.0002   0.00    1.1
2022/11/10 00:26:30.000  -2112007.4306  -3705351.5269   4726826.9958   2   8   0.0005   0.0005   0.0003  -0.0003  -0.0002  -0.0002   0.00    1.1
2022/11/10 00:27:00.000  -2112007.4303  -3705351.5272   4726826.9958   2   8   0.0005   0.0005   0.0003  -0.0003  -0.0002  -0.0002   0.00    1.1
2022/11/10 00:27:30.000  -2112007.4300  -3705351.5275   4726826.9958   2   8   0.0005   0.0005   0.0003  -0.0003  -0.0002  -0.0002   0.00    1.0
2022/11/10 00:28:00.000  -2112007.4297  -3705351.5278   4726826.9958   2   8   0.0005   0.0005   0.0003  -0.0003  -0.0002  -0.0002   0.00    1.0
2022/11/10 00:28:30.000  -2112007.4295  -3705351.5281   4726826.9958   2   8   0.0005   0.0005   0.0003  -0.0003  -0.0002  -0.0002   0.00    1.1
2022/11/10 00:29:00.000  -2112007.4292  -3705351.5285   4726826.9959   2   8   0.0005   0.0005   0.0003  -0.0003  -0.0002  -0.0002   0.00    1.1
2022/11/10 00:29:30.000  -2112007.4290  -3705351.5288   4726826.9960   2   8   0.0005   0.0005   0.0003  -0.0003  -0.0002  -0.0002   0.00    1.0
2022/11/10 00:30:00.000  -2112007.4287  -3705351.5292   4726826.9961   2   8   0.0005   0.0005   0.0003  -0.0003  -0.0002  -0.0002   0.00    1.0
2022/11/10 00:30:30.000  -2112007.4285  -3705351.5295   4726826.9962   2   8   0.0005   0.0005   0.0003  -0.0003  -0.0002  -0.0002   0.00    1.0
2022/11/10 00:31:00.000  -2112007.4282  -3705351.5298   4726826.9963   2   8   0.0005   0.0005   0.0003  -0.0003  -0.0002  -0.0002   0.00    1.0
2022/11/10 00:31:30.000  -2112007.4280  -3705351.5302   4726826.9965   2   8   0.0005   0.0005   0.0003  -0.0003  -0.0002  -0.0002   0.00    1.0
2022/11/10 00:32:00.000  -2112007.4278  -3705351.5306   4726826.9966   2   8   0.0005   0.0005   0.0003  -0.0003  -0.0002  -0.0002   0.00    1.1
2022/11/10 00:32:30.000  -2112007.4275  -3705351.5310   4726826.9968   2   8   0.0005   0.0005   0.0003  -0.0003  -0.0002  -0.0002   0.00    1.1
2022/11/10 00:33:00.000  -2112007.4273  -3705351.5314   4726826.9970   2   8   0.0005   0.0005   0.0003  -0.0003  -0.0002  -0.0002   0.00    1.1
2022/11/10 00:33:30.000  -2112007.4270  -3705351.5318   4726826.9971   2   8   0.0005   0.0005   0.0003  -0.0003  -0.0002  -0.0002   0.00    1.0
2022/11/10 00:34:00.000  -2112007.4267  -3705351.5323   4726826.9973   2   8   0.0005   0.0005   0.0003  -0.0003  -0.0002  -0.0002   0.00    1.0
2022/11/10 00:34:30.000  -2112007.4264  -3705351.5327   4726826.9975   2   8   0.0005   0.0005   0.0003  -0.0003  -0.0002  -0.0002   0.00    1.0
2022/11/10 00:35:00.000  -2112007.4261  -3705351.5332   4726826.9977   2   8   0.0005   0.0005   0.0003  -0.0003  -0.0002  -0.0002   0.00    1.1
2022/11/10 00:35:30.000  -2112007.4258  -3705351.5337   4726826.9978   2   8   0.0005   0.0005   0.0003  -0.0003  -0.0002  -0.0002   0.00    1.1
2022/11/10 00:36:00.000  -2112007.4255  -3705351.5341   4726826.9979   2   8   0.0005   0.0005   0.0003  -0.0003  -0.0002  -0.0002   0.00    1.1
2022/11/10 00:36:30.000  -2112007.4252  -3705351.5345   4726826.9981   2   8   0.0005   0.0005   0.0003  -0.0003  -0.0002  -0.0002   0.00    1.2
2022/11/10 00:37:00.000  -2112007.4249  -3705351.5349   4726826.9982   2   8   0.0005   0.0005   0.0003  -0.0003  -0.0002  -0.0002   0.00    1.2
2022/11/10 00:37:30.000  -2112007.4246  -3705351.5353   4726826.9983   2   8   0.0005   0.0005   0.0003  -0.0003  -0.0002  -0.0002   0.00    1.2
2022/11/10 00:38:00.000  -2112007.4243  -3705351.5356   4726826.9984   2   8   0.0005   0.0005   0.0003  -0.0003  -0.0002  -0.0002   0.00    1.2
2022/11/10 00:38:30.000  -2112007.4240  -3705351.5359   4726826.9984   2   8   0.0005   0.0005   0.0003  -0.0003  -0.0002  -0.0002   0.00    1.2
2022/11/10 00:39:00.000  -2112007.4238  -3705351.5362   4726826.9985   2   8   0.0005   0.0005   0.0003  -0.0003  -0.0002  -0.0002   0.00    1.2
2022/11/10 00:39:30.000  -2112007.4236  -3705351.5364   4726826.9986   2   8   0.0005   0.0005   0.0003  -0.0003  -0.0002  -0.0002   0.00    1.1
2022/11/10 00:40:00.000  -2112007.4234  -3705351.5366   4726826.9987   2   8   0.0005   0.0005   0.0003  -0.0003  -0.0002  -0.0002   0.00    1.1
2022/11/10 00:40:30.000  -2112007.4232  -3705351.5368   4726826.9987   2   8   0.0005   0.0005   0.0003  -0.0003  -0.0002  -0.0002   0.00    1.0
2022/11/10 00:41:00.000  -2112007.4231  -3705351.5370   4726826.9988   2   8   0.0005   0.0005   0.0003  -0.0003  -0.0002  -0.0002   0.00    1.0
2022/11/10 00:41:30.000  -2112007.4229  -3705351.5372   4726826.9988   2   8   0.0005   0.0005   0.0003  -0.0003  -0.0002  -0.0002   0.00    1.0
2022/11/10 00:42:00.000  -2112007.4228  -3705351.5373   4726826.9989   2   8   0.0005   0.0005   0.0003  -0.0003  -0.0002  -0.0002   0.00    1.0
2022/11/10 00:42:30.000  -2112007.4227  -3705351.5375   4726826.9989   2   8   0.0005   0.0005   0.0003  -0.0003  -0.0002  -0.0002   0.00    1.0
2022/11/10 00:43:00.000  -2112007.4226  -3705351.5376   4726826.9990   2   8   0.0005   0.0005   0.0003  -0.0003  -0.0002  -0.0002   0.00    1.1
2022/11/10 00:43:30.000  -2112007.4225  -3705351.5378   4726826.9991   2   8   0.0005   0.0005   0.0003  -0.0003  -0.0002  -0.0002   0.00    1.2
2022/11/10 00:44:00.000  -2112007.4225  -3705351.5380   4726826.9991   2   8   0.0005   0.0005   0.0003  -0.0003  -0.0002  -0.0002   0.00    1.2
2022/11/10 00:44:30.000  -2112007.4224  -3705351.5381   4726826.9992   2   8   0.0005   0.0005   0.0003  -0.0003  -0.0002  -0.0002   0.00    1.2
2022/11/10 00:45:00.000  -2112007.4224  -3705351.5382   4726826.9993   2   8   0.0005   0.0005   0.0003  -0.0003  -0.0002  -0.0002   0.00    1.2
2022/11/10 00:45:30.000  -2112007.4224  -3705351.5384   4726826.9994   2   8   0.0005   0.0005   0.0003  -0.0003  -0.0002  -0.0002   0.00    1.3
2022/11/10 00:46:00.000  -2112007.4224  -3705351.5385   4726826.9995   2   8   0.0005   0.0005   0.0003  -0.0003  -0.0002  -0.0002   0.00    1.3
2022/11/10 00:46:30.000  -2112007.4224  -3705351.5387   4726826.9996   2   8   0.0005   0.0005   0.0003  -0.0003  -0.0002  -0.0002   0.00    1.3
2022/11/10 00:47:00.000  -2112007.4225  -3705351.5388   4726826.9997   2   8   0.0005   0.0005   0.0003  -0.0003  -0.0002  -0.0002   0.00    1.4
2022/11/10 00:47:30.000  -2112007.4225  -3705351.5390   4726826.9998   2   8   0.0005   0.0005   0.0003  -0.0003  -0.0002  -0.0002   0.00    1.4
2022/11/10 00:48:00.000  -2112007.4226  -3705351.5391   4726826.9999   2   8   0.0005   0.0005   0.0003  -0.0003  -0.0002  -0.0002   0.00    1.5
2022/11/10 00:48:30.000  -2112007.4228  -3705351.5392   4726827.0001   2   8   0.0005   0.0005   0.0003  -0.0003  -0.0002  -0.0002   0.00    1.5
2022/11/10 00:49:00.000  -2112007.4229  -3705351.5394   4726827.0002   2   8   0.0005   0.0005   0.0003  -0.0003  -0.0002  -0.0002   0.00    1.5
2022/11/10 00:49:30.000  -2112007.4231  -3705351.5395   4726827.0004   2   8   0.0005   0.0005   0.0003  -0.0003  -0.0002  -0.0002   0.00    1.5
2022/11/10 00:50:00.000  -2112007.4232  -3705351.5396   4726827.0005   2   8   0.0005   0.0005   0.0003  -0.0003  -0.0002  -0.0002   0.00    1.5
2022/11/10 00:50:30.000  -2112007.4234  -3705351.5397   4726827.0007   2   8   0.0005   0.0005   0.0003  -0.0003  -0.0002  -0.0002   0.00    1.4
2022/11/10 00:51:00.000  -2112007.4236  -3705351.5397   4726827.0009   2   8   0.0005   0.0005   0.0003  -0.0003  -0.0002  -0.0002   0.00    1.4
2022/11/10 00:51:30.000  -2112007.4238  -3705351.5398   4726827.0010   2   8   0.0005   0.0005   0.0003  -0.0003  -0.0002  -0.0002   0.00    1.4
2022/11/10 00:52:00.000  -2112007.4240  -3705351.5399   4726827.0012   2   8   0.0005   0.0005   0.0003  -0.0003  -0.0002  -0.0002   0.00    1.4
2022/11/10 00:52:30.000  -2112007.4243  -3705351.5399   4726827.0013   2   8   0.0005   0.0005   0.0003  -0.0003  -0.0002  -0.0002   0.00    1.4
2022/11/10 00:53:00.000  -2112007.4245  -3705351.5399   4726827.0015   2   8   0.0005   0.0005   0.0003  -0.0003  -0.0002  -0.0002   0.00    1.4
2022/11/10 00:53:30.000  -2112007.4247  -3705351.5399   4726827.0016   2   8   0.0005   0.0005   0.0003  -0.0003  -0.0002  -0.0002   0.00    1.4
2022/11/10 00:54:00.000  -2112007.4249  -3705351.5399   4726827.0017   2   8   0.0005   0.0005   0.0003  -0.0003  -0.0002  -0.0002   0.00    1.4
2022/11/10 00:54:30.000  -2112007.4251  -3705351.5399   4726827.0018   2   8   0.0005   0.0005   0.0003  -0.0003  -0.0002  -0.0002   0.00    1.4
2022/11/10 00:55:00.000  -2112007.4254  -3705351.5398   4726827.0019   2   8   0.0005   0.0005   0.0003  -0.0003  -0.0002  -0.0002   0.00    1.4
2022/11/10 00:55:30.000  -2112007.4256  -3705351.5397   4726827.0020   2   8   0.0005   0.0005   0.0003  -0.0003  -0.0002  -0.0002   0.00    1.4
2022/11/10 00:56:00.000  -2112007.4258  -3705351.5396   4726827.0020   2   8   0.0005   0.0005   0.0003  -0.0003  -0.0002  -0.0002   0.00    1.4
2022/11/10 00:56:30.000  -2112007.4260  -3705351.5395   4726827.0021   2   9   0.0005   0.0005   0.0003  -0.0003  -0.0002  -0.0002   0.00    1.0
2022/11/10 00:57:00.000  -2112007.4263  -3705351.5395   4726827.0022   2   9   0.0005   0.0005   0.0003  -0.0003  -0.0002  -0.0002   0.00    1.0
2022/11/10 00:57:30.000  -2112007.4266  -3705351.5394   4726827.0022   2   9   0.0005   0.0005   0.0003  -0.0003  -0.0002  -0.0002   0.00    1.0
2022/11/10 00:58:00.000  -2112007.4268  -3705351.5393   4726827.0022   2   9   0.0005   0.0005   0.0003  -0.0003  -0.0002  -0.0002   0.00    1.0
2022/11/10 00:58:30.000  -2112007.4271  -3705351.5392   4726827.0023   2   9   0.0005   0.0005   0.0003  -0.0003  -0.0002  -0.0002   0.00    1.0
2022/11/10 00:59:00.000  -2112007.4273  -3705351.5391   4726827.0023   2   9   0.0005   0.0005   0.0003  -0.0003  -0.0002  -0.0002   0.00    1.0
2022/11/10 00:59:30.000  -2112007.4275  -3705351.5390   4726827.0023   2   9   0.0005   0.0005   0.0003  -0.0003  -0.0002  -0.0002   0.00    1.0
2022/11/10 01:00:00.000  -2112007.4277  -3705351.5389   4726827.0023   2   9   0.0005   0.0005   0.0003  -0.0003  -0.0002  -0.0002   0.00    1.0
2022/11/10 01:00:30.000  -2112007.4280  -3705351.5388   4726827.0023   2   9   0.0005   0.0005   0.0003  -0.0003  -0.0002  -0.0002   0.00    1.0
2022/11/10 01:01:00.000  -2112007.4282  -3705351.5386   4726827.0023   2   9   0.0005   0.0005   0.0003  -0.0003  -0.0002  -0.0002   0.00    1.0
2022/11/10 01:01:30.000  -2112007.4284  -3705351.5385   4726827.0023   2   9   0.0005   0.0005   0.0003  -0.0003  -0.0002  -0.0002   0.00    1.0
2022/11/10 01:02:00.000  -2112007.4286  -3705351.5383   4726827.0022   2   9   0.0005   0.0005   0.0003  -0.0003  -0.0002  -0.0002   0.00    1.0
2022/11/10 01:02:30.000  -2112007.4287  -3705351.5381   4726827.0022   2   9   0.0005   0.0005   0.0003  -0.0003  -0.0002  -0.0002   0.00    1.0
2022/11/10 01:03:00.000  -2112007.4289  -3705351.5380   4726827.0021   2   9   0.0005   0.0005   0.0003  -0.0003  -0.0002  -0.0002   0.00    1.0
2022/11/10 01:03:30.000  -2112007.4291  -3705351.5378   4726827.0020   2   9   0.0005   0.0005   0.0003  -0.0003  -0.0002  -0.0002   0.00    1.0
2022/11/10 01:04:00.000  -2112007.4292  -3705351.5376   4726827.0020   2   9   0.0005   0.0005   0.0003  -0.0003  -0.0002  -0.0002   0.00    1.0
2022/11/10 01:04:30.000  -2112007.4294  -3705351.5374   4726827.0019   2   9   0.0005   0.0005   0.0003  -0.0003  -0.0002  -0.0002   0.00    1.0
2022/11/10 01:05:00.000  -2112007.4295  -3705351.5372   4726827.0018   2   8   0.0005   0.0005   0.0003  -0.0003  -0.0002  -0.0002   0.00    1.0
2022/11/10 01:05:30.000  -2112007.4297  -3705351.5370   4726827.0018   2   8   0.0005   0.0005   0.0003  -0.0003  -0.0002  -0.0002   0.00    1.0
2022/11/10 01:06:00.000  -2112007.4299  -3705351.5368   4726827.0017   2   8   0.0005   0.0005   0.0003  -0.0003  -0.0002  -0.0002   0.00    1.0
2022/11/10 01:06:30.000  -2112007.4300  -3705351.5367   4726827.0017   2   8   0.0005   0.0005   0.0003  -0.0003  -0.0002  -0.0002   0.00    1.0
2022/11/10 01:07:00.000  -2112007.4301  -3705351.5365   4726827.0017   2   8   0.0005   0.0005   0.0003  -0.0003  -0.0002  -0.0002   0.00    1.0
2022/11/10 01:07:30.000  -2112007.4303  -3705351.5364   4726827.0016   2   8   0.0005   0.0005   0.0003  -0.0003  -0.0002  -0.0002   0.00    1.0
2022/11/10 01:08:00.000  -2112007.4304  -3705351.5362   4726827.0016   2   8   0.0005   0.0005   0.0003  -0.0003  -0.0002  -0.0002   0.00    1.0
2022/11/10 01:08:30.000  -2112007.4305  -3705351.5361   4726827.0016   2   8   0.0005   0.0005   0.0003  -0.0003  -0.0002  -0.0002   0.00    1.0
2022/11/10 01:09:00.000  -2112007.4307  -3705351.5360   4726827.0015   2   8   0.0005   0.0005   0.0003  -0.0003  -0.0002  -0.0002   0.00    1.0
2022/11/10 01:09:30.000  -2112007.4308  -3705351.5359   4726827.0015   2   8   0.0005   0.0005   0.0003  -0.0003  -0.0002  -0.0002   0.00    1.0
2022/11/10 01:10:00.000  -2112007.4309  -3705351.5358   4726827.0015   2   8   0.0005   0.0005   0.0003  -0.0003  -0.0002  -0.0002   0.00    1.0
2022/11/10 01:10:30.000  -2112007.4309  -3705351.5357   4726827.0015   2   8   0.0005   0.0005   0.0003  -0.0003  -0.0002  -0.0002   0.00    1.0
2022/11/10 01:11:00.000  -2112007.4310  -3705351.5357   4726827.0014   2   8   0.0005   0.0005   0.0003  -0.0003  -0.0002  -0.0002   0.00    1.0
2022/11/10 01:11:30.000  -2112007.4310  -3705351.5356   4726827.0014   2   8   0.0005   0.0005   0.0003  -0.0003  -0.0002  -0.0002   0.00    1.0
2022/11/10 01:12:00.000  -2112007.4311  -3705351.5355   4726827.0014   2   8   0.0005   0.0005   0.0003  -0.0003  -0.0002  -0.0002   0.00    1.0
2022/11/10 01:12:30.000  -2112007.4311  -3705351.5355   4726827.0013   2   8   0.0005   0.0005   0.0003  -0.0003  -0.0002  -0.0002   0.00    1.0
2022/11/10 01:13:00.000  -2112007.4311  -3705351.5354   4726827.0013   2   8   0.0005   0.0005   0.0003  -0.0003  -0.0002  -0.0002   0.00    1.0
2022/11/10 01:13:30.000  -2112007.4311  -3705351.5354   4726827.0012   2   8   0.0005   0.0005   0.0003  -0.0003  -0.0002  -0.0002   0.00    1.0
2022/11/10 01:14:00.000  -2112007.4311  -3705351.5353   4726827.0012   2   8   0.0005   0.0005   0.0003  -0.0003  -0.0002  -0.0002   0.00    1.0
2022/11/10 01:14:30.000  -2112007.4310  -3705351.5352   4726827.0011   2   8   0.0005   0.0005   0.0003  -0.0003  -0.0002  -0.0002   0.00    1.0
2022/11/10 01:15:00.000  -2112007.4310  -3705351.5352   4726827.0010   2   8   0.0005   0.0005   0.0003  -0.0003  -0.0002  -0.0002   0.00    1.0
2022/11/10 01:15:30.000  -2112007.4310  -3705351.5351   4726827.0010   2   8   0.0005   0.0005   0.0003  -0.0003  -0.0002  -0.0002   0.00    1.0
2022/11/10 01:16:00.000  -2112007.4309  -3705351.5350   4726827.0009   2   8   0.0005   0.0005   0.0003  -0.0003  -0.0002  -0.0002   0.00    1.0
2022/11/10 01:16:30.000  -2112007.4309  -3705351.5350   4726827.0008   2   8   0.0005   0.0005   0.0003  -0.0003  -0.0002  -0.0002   0.00    1.0
2022/11/10 01:17:00.000  -2112007.4308  -3705351.5349   4726827.0007   2   8   0.0005   0.0005   0.0003  -0.0003  -0.0002  -0.0002   0.00    1.0
2022/11/10 01:17:30.000  -2112007.4308  -3705351.5349   4726827.0006   2   8   0.0005   0.0005   0.0003  -0.0003  -0.0002  -0.0002   0.00    1.1
2022/11/10 01:18:00.000  -2112007.4308  -3705351.5348   4726827.0005   2   8   0.0005   0.0005   0.0003  -0.0003  -0.0002  -0.0002   0.00    1.1
2022/11/10 01:18:30.000  -2112007.4307  -3705351.5348   4726827.0004   2   8   0.0005   0.0005   0.0003  -0.0003  -0.0002  -0.0002   0.00    1.1
2022/11/10 01:19:00.000  -2112007.4307  -3705351.5347   4726827.0003   2   8   0.0005   0.0005   0.0003  -0.0003  -0.0002  -0.0002   0.00    1.1
2022/11/10 01:19:30.000  -2112007.4307  -3705351.5347   4726827.0003   2   8   0.0005   0.0005   0.0003  -0.0003  -0.0002  -0.0002   0.00    1.1
2022/11/10 01:20:00.000  -2112007.4307  -3705351.5347   4726827.0002   2   8   0.0005   0.0005   0.0003  -0.0003  -0.0002  -0.0002   0.00    1.2
2022/11/10 01:20:30.000  -2112007.4307  -3705351.5346   4726827.0001   2   8   0.0005   0.0005   0.0003  -0.0003  -0.0002  -0.0002   0.00    1.2
2022/11/10 01:21:00.000  -2112007.4306  -3705351.5346   4726827.0000   2   8   0.0005   0.0005   0.0003  -0.0003  -0.0002  -0.0002   0.00    1.2
2022/11/10 01:21:30.000  -2112007.4306  -3705351.5346   4726826.9999   2   8   0.0005   0.0005   0.0003  -0.0003  -0.0002  -0.0002   0.00    1.2
2022/11/10 01:22:00.000  -2112007.4306  -3705351.5346   4726826.9999   2   8   0.0005   0.0005   0.0003  -0.0003  -0.0002  -0.0002   0.00    1.2
2022/11/10 01:22:30.000  -2112007.4306  -3705351.5345   4726826.9998   2   8   0.0005   0.0005   0.0003  -0.0003  -0.0002  -0.0002   0.00    1.3
2022/11/10 01:23:00.000  -2112007.4306  -3705351.5346   4726826.9998   2   7   0.0005   0.0005   0.0003  -0.0003  -0.0002  -0.0002   0.00    1.2
2022/11/10 01:23:30.000  -2112007.4306  -3705351.5346   4726826.9997   2   7   0.0005   0.0005   0.0003  -0.0003  -0.0002  -0.0002   0.00    1.2
2022/11/10 01:24:00.000  -2112007.4306  -3705351.5346   4726826.9997   2   7   0.0005   0.0005   0.0003  -0.0003  -0.0002  -0.0002   0.00    1.2
2022/11/10 01:24:30.000  -2112007.4305  -3705351.5346   4726826.9997   2   7   0.0005   0.0005   0.0003  -0.0003  -0.0002  -0.0002   0.00    1.2
2022/11/10 01:25:00.000  -2112007.4305  -3705351.5346   4726826.9997   2   7   0.0005   0.0005   0.0003  -0.0003  -0.0002  -0.0002   0.00    1.2
2022/11/10 01:25:30.000  -2112007.4306  -3705351.5346   4726826.9997   2   7   0.0005   0.0005   0.0003  -0.0003  -0.0002  -0.0002   0.00    1.2
2022/11/10 01:26:00.000  -2112007.4306  -3705351.5345   4726826.9997   2   7   0.0005   0.0005   0.0003  -0.0003  -0.0002  -0.0002   0.00    1.3
2022/11/10 01:26:30.000  -2112007.4306  -3705351.5345   4726826.9997   2   7   0.0005   0.0005   0.0003  -0.0003  -0.0002  -0.0002   0.00    1.3
2022/11/10 01:27:00.000  -2112007.4307  -3705351.5344   4726826.9997   2   7   0.0005   0.0005   0.0003  -0.0003  -0.0002  -0.0002   0.00    1.3
2022/11/10 01:27:30.000  -2112007.4307  -3705351.5343   4726826.9998   2   7   0.0005   0.0005   0.0003  -0.0003  -0.0002  -0.0002   0.00    1.3
2022/11/10 01:28:00.000  -2112007.4308  -3705351.5343   4726826.9998   2   7   0.0005   0.0005   0.0003  -0.0003  -0.0002  -0.0002   0.00    1.3
2022/11/10 01:28:30.000  -2112007.4309  -3705351.5342   4726826.9999   2   7   0.0005   0.0005   0.0003  -0.0003  -0.0002  -0.0002   0.00    1.3
2022/11/10 01:29:00.000  -2112007.4310  -3705351.5340   4726826.9999   2   7   0.0005   0.0005   0.0003  -0.0003  -0.0002  -0.0002   0.00    1.3
2022/11/10 01:29:30.000  -2112007.4311  -3705351.5339   4726826.9999   2   7   0.0005   0.0005   0.0003  -0.0003  -0.0002  -0.0002   0.00    1.4
2022/11/10 01:30:00.000  -2112007.4313  -3705351.5338   4726827.0000   2   7   0.0005   0.0005   0.0003  -0.0003  -0.0002  -0.0002   0.00    1.4
2022/11/10 01:30:30.000  -2112007.4314  -3705351.5337   4726827.0000   2   7   0.0005   0.0005   0.0003  -0.0003  -0.0002  -0.0002   0.00    1.4
2022/11/10 01:31:00.000  -2112007.4316  -3705351.5336   4726827.0001   2   7   0.0005   0.0005   0.0003  -0.0003  -0.0002  -0.0002   0.00    1.4
2022/11/10 01:31:30.000  -2112007.4318  -3705351.5334   4726827.0002   2   7   0.0005   0.0005   0.0003  -0.0003  -0.0002  -0.0002   0.00    1.4
2022/11/10 01:32:00.000  -2112007.4320  -3705351.5333   4726827.0002   2   7   0.0005   0.0005   0.0003  -0.0003  -0.0002  -0.0002   0.00    1.4
2022/11/10 01:32:30.000  -2112007.4322  -3705351.5332   4726827.0003   2   7   0.0005   0.0005   0.0003  -0.0003  -0.0002  -0.0002   0.00    1.4
2022/11/10 01:33:00.000  -2112007.4324  -3705351.5331   4726827.0003   2   7   0.0005   0.0005   0.0003  -0.0003  -0.0002  -0.0002   0.00    1.4
2022/11/10 01:33:30.000  -2112007.4326  -3705351.5329   4726827.0004   2   7   0.0005   0.0005   0.0003  -0.0003  -0.0002  -0.0002   0.00    1.5
2022/11/10 01:34:00.000  -2112007.4328  -3705351.5328   4726827.0004   2   7   0.0005   0.0005   0.0003  -0.0003  -0.0002  -0.0002   0.00    1.5
2022/11/10 01:34:30.000  -2112007.4330  -3705351.5326   4726827.0004   2   7   0.0005   0.0005   0.0003  -0.0003  -0.0002  -0.0002   0.00    1.5
2022/11/10 01:35:00.000  -2112007.4333  -3705351.5325   4726827.0004   2   7   0.0005   0.0005   0.0003  -0.0003  -0.0002  -0.0002   0.00    1.5
2022/11/10 01:35:30.000  -2112007.4335  -3705351.5323   4726827.0005   2   7   0.0005   0.0005   0.0003  -0.0003  -0.0002  -0.0002   0.00    1.5
2022/11/10 01:36:00.000  -2112007.4338  -3705351.5321   4726827.0005   2   6   0.0005   0.0005   0.0003  -0.0003  -0.0002  -0.0002   0.00    1.5
2022/11/10 01:36:30.000  -2112007.4340  -3705351.5319   4726827.0006   2   6   0.0005   0.0005   0.0003  -0.0003  -0.0002  -0.0002   0.00    1.5
2022/11/10 01:37:00.000  -2112007.4342  -3705351.5318   4726827.0006   2   6   0.0005   0.0005   0.0003  -0.0003  -0.0002  -0.0002   0.00    1.6
2022/11/10 01:37:30.000  -2112007.4344  -3705351.5316   4726827.0006   2   6   0.0005   0.0005   0.0003  -0.0003  -0.0002  -0.0002   0.00    1.6
2022/11/10 01:38:00.000  -2112007.4347  -3705351.5314   4726827.0006   2   6   0.0005   0.0005   0.0003  -0.0003  -0.0002  -0.0002   0.00    1.6
2022/11/10 01:38:30.000  -2112007.4349  -3705351.5312   4726827.0007   2   6   0.0005   0.0005   0.0003  -0.0003  -0.0002  -0.0002   0.00    1.6
2022/11/10 01:39:00.000  -2112007.4351  -3705351.5310   4726827.0007   2   6   0.0005   0.0005   0.0003  -0.0003  -0.0002  -0.0002   0.00    1.6
2022/11/10 01:39:30.000  -2112007.4353  -3705351.5308   4726827.0007   2   6   0.0005   0.0005   0.0003  -0.0003  -0.0002  -0.0002   0.00    1.6
2022/11/10 01:40:00.000  -2112007.4355  -3705351.5306   4726827.0008   2   6   0.0005   0.0005   0.0003  -0.0003  -0.0002  -0.0002   0.00    1.6
2022/11/10 01:40:30.000  -2112007.4356  -3705351.5304   4726827.0008   2   6   0.0005   0.0005   0.0003  -0.0003  -0.0002  -0.0002   0.00    1.6
2022/11/10 01:41:00.000  -2112007.4358  -3705351.5301   4726827.0009   2   6   0.0005   0.0005   0.0003  -0.0003  -0.0002  -0.0002   0.00    1.6
2022/11/10 01:41:30.000  -2112007.4360  -3705351.5299   4726827.0009   2   6   0.0005   0.0005   0.0003  -0.0003  -0.0002  -0.0002   0.00    1.7
2022/11/10 01:42:00.000  -2112007.4361  -3705351.5296   4726827.0009   2   6   0.0005   0.0005   0.0003  -0.0003  -0.0002  -0.0002   0.00    1.7
2022/11/10 01:42:30.000  -2112007.4363  -3705351.5294   4726827.0010   2   6   0.0005   0.0005   0.0003  -0.0003  -0.0002  -0.0002   0.00    1.7
2022/11/10 01:43:00.000  -2112007.4364  -3705351.5291   4726827.0010   2   6   0.0005   0.0005   0.0003  -0.0003  -0.0002  -0.0002   0.00    1.6
2022/11/10 01:43:30.000  -2112007.4366  -3705351.5288   4726827.0010   2   6   0.0005   0.0005   0.0003  -0.0003  -0.0002  -0.0002   0.00    1.6
2022/11/10 01:44:00.000  -2112007.4367  -3705351.5285   4726827.0010   2   6   0.0005   0.0005   0.0003  -0.0003  -0.0002  -0.0002   0.00    1.6
2022/11/10 01:44:30.000  -2112007.4369  -3705351.5282   4726827.0010   2   5   0.0005   0.0005   0.0003  -0.0003  -0.0002  -0.0002   0.00    1.4
2022/11/10 01:45:00.000  -2112007.4371  -3705351.5279   4726827.0010   2   5   0.0005   0.0005   0.0003  -0.0003  -0.0002  -0.0002   0.00    1.3
2022/11/10 01:45:30.000  -2112007.4372  -3705351.5276   4726827.0010   2   5   0.0005   0.0005   0.0003  -0.0003  -0.0002  -0.0002   0.00    1.3
2022/11/10 01:46:00.000  -2112007.4374  -3705351.5273   4726827.0009   2   5   0.0005   0.0005   0.0003  -0.0003  -0.0002  -0.0002   0.00    1.2
2022/11/10 01:46:30.000  -2112007.4375  -3705351.5271   4726827.0009   2   5   0.0005   0.0005   0.0003  -0.0003  -0.0002  -0.0002   0.00    1.2
2022/11/10 01:47:00.000  -2112007.4376  -3705351.5268   4726827.0009   2   5   0.0005   0.0005   0.0003  -0.0003  -0.0002  -0.0002   0.00    1.2
2022/11/10 01:47:30.000  -2112007.4378  -3705351.5265   4726827.0008   2   5   0.0005   0.0005   0.0003  -0.0003  -0.0002  -0.0002   0.00    1.1
2022/11/10 01:48:00.000  -2112007.4379  -3705351.5262   4726827.0007   2   5   0.0005   0.0005   0.0003  -0.0003  -0.0002  -0.0002   0.00    1.1
2022/11/10 01:48:30.000  -2112007.4380  -3705351.5259   4726827.0007   2   5   0.0005   0.0005   0.0003  -0.0003  -0.0002  -0.0002   0.00    1.0
2022/11/10 01:49:00.000  -2112007.4381  -3705351.5256   4726827.0006   2   5   0.0005   0.0005   0.0003  -0.0003  -0.0002  -0.0002   0.00    1.0
2022/11/10 01:49:30.000  -2112007.4381  -3705351.5254   4726827.0005   2   5   0.0005   0.0005   0.0003  -0.0003  -0.0002  -0.0002   0.00    1.0
2022/11/10 01:50:00.000  -2112007.4382  -3705351.5251   4726827.0005   2   5   0.0005   0.0005   0.0003  -0.0003  -0.0002  -0.0002   0.00    1.1
2022/11/10 01:50:30.000  -2112007.4383  -3705351.5249   4726827.0004   2   5   0.0005   0.0005   0.0003  -0.0003  -0.0002  -0.0002   0.00    1.1
2022/11/10 01:51:00.000  -2112007.4383  -3705351.5246   4726827.0003   2   6   0.0005   0.0005   0.0003  -0.0003  -0.0002  -0.0002   0.00    1.0
2022/11/10 01:51:30.000  -2112007.4384  -3705351.5244   4726827.0002   2   6   0.0005   0.0005   0.0003  -0.0003  -0.0002  -0.0002   0.00    1.0
2022/11/10 01:52:00.000  -2112007.4384  -3705351.5242   4726827.0002   2   6   0.0005   0.0005   0.0003  -0.0003  -0.0002  -0.0002   0.00    1.0
2022/11/10 01:52:30.000  -2112007.4385  -3705351.5239   4726827.0001   2   6   0.0005   0.0005   0.0003  -0.0003  -0.0002  -0.0002   0.00    1.0
2022/11/10 01:53:00.000  -2112007.4385  -3705351.5237   4726827.0001   2   6   0.0005   0.0005   0.0003  -0.0003  -0.0002  -0.0002   0.00    1.0
2022/11/10 01:53:30.000  -2112007.4386  -3705351.5235   4726827.0000   2   6   0.0005   0.0005   0.0003  -0.0003  -0.0002  -0.0002   0.00    1.0
2022/11/10 01:54:00.000  -2112007.4386  -3705351.5232   4726826.9999   2   6   0.0005   0.0005   0.0003  -0.0003  -0.0002  -0.0002   0.00    1.0
2022/11/10 01:54:30.000  -2112007.4386  -3705351.5230   4726826.9999   2   6   0.0005   0.0005   0.0003  -0.0003  -0.0002  -0.0002   0.00    1.0
2022/11/10 01:55:00.000  -2112007.4387  -3705351.5228   4726826.9998   2   6   0.0005   0.0005   0.0003  -0.0003  -0.0002  -0.0002   0.00    1.0
2022/11/10 01:55:30.000  -2112007.4387  -3705351.5226   4726826.9997   2   6   0.0005   0.0005   0.0003  -0.0003  -0.0002  -0.0002   0.00    1.0
2022/11/10 01:56:00.000  -2112007.4387  -3705351.5224   4726826.9997   2   6   0.0005   0.0005   0.0003  -0.0003  -0.0002  -0.0002   0.00    1.0
2022/11/10 01:56:30.000  -2112007.4387  -3705351.5221   4726826.9996   2   6   0.0005   0.0005   0.0003  -0.0003  -0.0002  -0.0002   0.00    1.0
2022/11/10 01:57:00.000  -2112007.4387  -3705351.5219   4726826.9995   2   6   0.0005   0.0005   0.0003  -0.0003  -0.0002  -0.0002   0.00    1.0
2022/11/10 01:57:30.000  -2112007.4387  -3705351.5217   4726826.9994   2   6   0.0005   0.0005   0.0003  -0.0003  -0.0002  -0.0002   0.00    1.0
2022/11/10 01:58:00.000  -2112007.4387  -3705351.5215   4726826.9993   2   6   0.0005   0.0005   0.0003  -0.0003  -0.0002  -0.0002   0.00    1.0
2022/11/10 01:58:30.000  -2112007.4387  -3705351.5212   4726826.9992   2   6   0.0005   0.0005   0.0003  -0.0003  -0.0002  -0.0002   0.00    1.0
2022/11/10 01:59:00.000  -2112007.4386  -3705351.5210   4726826.9991   2   6   0.0005   0.0005   0.0003  -0.0003  -0.0002  -0.0002   0.00    1.0
2022/11/10 01:59:30.000  -2112007.4386  -3705351.5207   4726826.9990   2   6   0.0005   0.0005   0.0003  -0.0003  -0.0002  -0.0002   0.00    1.0
2022/11/10 02:00:00.000  -2112007.4386  -3705351.5205   4726826.9989   2   6   0.0005   0.0005   0.0003  -0.0003  -0.0002  -0.0002   0.00    1.0
2022/11/10 02:00:30.000  -2112007.4386  -3705351.5203   4726826.9988   2   6   0.0005   0.0005   0.0003  -0.0003  -0.0002  -0.0002   0.00    1.0
2022/11/10 02:01:00.000  -2112007.4386  -3705351.5201   4726826.9986   2   6   0.0005   0.0005   0.0003  -0.0003  -0.0002  -0.0002   0.00    1.1
2022/11/10 02:01:30.000  -2112007.4385  -3705351.5198   4726826.9985   2   6   0.0005   0.0005   0.0003  -0.0003  -0.0002  -0.0002   0.00    1.1
2022/11/10 02:02:00.000  -2112007.4385  -3705351.5196   4726826.9984   2   7   0.0005   0.0005   0.0003  -0.0003  -0.0002  -0.0002   0.00    1.0
2022/11/10 02:02:30.000  -2112007.4385  -3705351.5194   4726826.9982   2   7   0.0005   0.0005   0.0003  -0.0003  -0.0002  -0.0002   0.00    1.0
2022/11/10 02:03:00.000  -2112007.4386  -3705351.5193   4726826.9981   2   7   0.0005   0.0005   0.0003  -0.0003  -0.0002  -0.0002   0.00    1.0
2022/11/10 02:03:30.000  -2112007.4386  -3705351.5191   4726826.9980   2   7   0.0005   0.0005   0.0003  -0.0003  -0.0002  -0.0002   0.00    1.0
2022/11/10 02:04:00.000  -2112007.4386  -3705351.5190   4726826.9979   2   7   0.0005   0.0005   0.0003  -0.0003  -0.0002  -0.0002   0.00    1.0
2022/11/10 02:04:30.000  -2112007.4385  -3705351.5189   4726826.9978   2   7   0.0005   0.0005   0.0003  -0.0003  -0.0002  -0.0002   0.00    1.0
2022/11/10 02:05:00.000  -2112007.4385  -3705351.5188   4726826.9977   2   7   0.0005   0.0005   0.0003  -0.0003  -0.0002  -0.0002   0.00    1.0
2022/11/10 02:05:30.000  -2112007.4385  -3705351.5187   4726826.9976   2   7   0.0005   0.0005   0.0003  -0.0003  -0.0002  -0.0002   0.00    1.0
2022/11/10 02:06:00.000  -2112007.4385  -3705351.5187   4726826.9975   2   7   0.0005   0.0005   0.0003  -0.0003  -0.0002  -0.0002   0.00    1.0
2022/11/10 02:06:30.000  -2112007.4384  -3705351.5187   4726826.9975   2   7   0.0005   0.0005   0.0003  -0.0003  -0.0002  -0.0002   0.00    1.0
2022/11/10 02:07:00.000  -2112007.4384  -3705351.5186   4726826.9974   2   7   0.0005   0.0005   0.0003  -0.0003  -0.0002  -0.0002   0.00    1.0
2022/11/10 02:07:30.000  -2112007.4383  -3705351.5186   4726826.9974   2   7   0.0005   0.0005   0.0003  -0.0003  -0.0002  -0.0002   0.00    1.0
2022/11/10 02:08:00.000  -2112007.4383  -3705351.5186   4726826.9974   2   7   0.0005   0.0005   0.0003  -0.0003  -0.0002  -0.0002   0.00    1.1
2022/11/10 02:08:30.000  -2112007.4382  -3705351.5186   4726826.9974   2   7   0.0005   0.0005   0.0003  -0.0003  -0.0002  -0.0002   0.00    1.1
2022/11/10 02:09:00.000  -2112007.4382  -3705351.5186   4726826.9974   2   7   0.0005   0.0005   0.0003  -0.0003  -0.0002  -0.0002   0.00    1.1
2022/11/10 02:09:30.000  -2112007.4381  -3705351.5187   4726826.9974   2   7   0.0005   0.0005   0.0003  -0.0003  -0.0002  -0.0002   0.00    1.0
2022/11/10 02:10:00.000  -2112007.4381  -3705351.5187   4726826.9974   2   7   0.0005   0.0005   0.0003  -0.0003  -0.0002  -0.0002   0.00    1.0
2022/11/10 02:10:30.000  -2112007.4381  -3705351.5187   4726826.9975   2   7   0.0005   0.0005   0.0003  -0.0003  -0.0002  -0.0002   0.00    1.0
2022/11/10 02:11:00.000  -2112007.4380  -3705351.5188   4726826.9975   2   7   0.0005   0.0005   0.0003  -0.0003  -0.0002  -0.0002   0.00    1.0
2022/11/10 02:11:30.000  -2112007.4380  -3705351.5189   4726826.9976   2   7   0.0005   0.0005   0.0003  -0.0003  -0.0002  -0.0002   0.00    1.0
2022/11/10 02:12:00.000  -2112007.4380  -3705351.5189   4726826.9977   2   7   0.0005   0.0005   0.0003  -0.0003  -0.0002  -0.0002   0.00    1.0
2022/11/10 02:12:30.000  -2112007.4380  -3705351.5190   4726826.9978   2   7   0.0005   0.0005   0.0003  -0.0003  -0.0002  -0.0002   0.00    1.0
2022/11/10 02:13:00.000  -2112007.4380  -3705351.5190   4726826.9979   2   7   0.0005   0.0005   0.0003  -0.0003  -0.0002  -0.0002   0.00    1.0
2022/11/10 02:13:30.000  -2112007.4380  -3705351.5191   4726826.9980   2   7   0.0005   0.0005   0.0003  -0.0003  -0.0002  -0.0002   0.00    1.0
2022/11/10 02:14:00.000  -2112007.4380  -3705351.5191   4726826.9981   2   7   0.0005   0.0005   0.0003  -0.0003  -0.0002  -0.0002   0.00    1.0
2022/11/10 02:14:30.000  -2112007.4380  -3705351.5192   4726826.9981   2   7   0.0005   0.0005   0.0003  -0.0003  -0.0002  -0.0002   0.00    1.0
2022/11/10 02:15:00.000  -2112007.4381  -3705351.5193   4726826.9982   2   7   0.0005   0.0005   0.0003  -0.0003  -0.0002  -0.0002   0.00    1.1
2022/11/10 02:15:30.000  -2112007.4381  -3705351.5193   4726826.9983   2   7   0.0005   0.0005   0.0003  -0.0003  -0.0002  -0.0002   0.00    1.1
2022/11/10 02:16:00.000  -2112007.4381  -3705351.5194   4726826.9984   2   7   0.0005   0.0005   0.0003  -0.0003  -0.0002  -0.0002   0.00    1.1
2022/11/10 02:16:30.000  -2112007.4382  -3705351.5195   4726826.9984   2   7   0.0005   0.0005   0.0003  -0.0003  -0.0002  -0.0002   0.00    1.1
2022/11/10 02:17:00.000  -2112007.4382  -3705351.5196   4726826.9985   2   7   0.0005   0.0005   0.0003  -0.0003  -0.0002  -0.0002   0.00    1.1
2022/11/10 02:17:30.000  -2112007.4383  -3705351.5196   4726826.9985   2   7   0.0005   0.0005   0.0003  -0.0003  -0.0002  -0.0002   0.00    1.1
2022/11/10 02:18:00.000  -2112007.4383  -3705351.5197   4726826.9986   2   7   0.0005   0.0005   0.0003  -0.0003  -0.0002  -0.0002   0.00    1.1
2022/11/10 02:18:30.000  -2112007.4384  -3705351.5198   4726826.9986   2   7   0.0005   0.0005   0.0003  -0.0003  -0.0002  -0.0002   0.00    1.1
2022/11/10 02:19:00.000  -2112007.4384  -3705351.5199   4726826.9987   2   7   0.0005   0.0005   0.0003  -0.0003  -0.0002  -0.0002   0.00    1.1
2022/11/10 02:19:30.000  -2112007.4385  -3705351.5200   4726826.9987   2   7   0.0005   0.0005   0.0003  -0.0003  -0.0002  -0.0002   0.00    1.1
2022/11/10 02:20:00.000  -2112007.4385  -3705351.5201   4726826.9987   2   7   0.0005   0.0005   0.0003  -0.0003  -0.0002  -0.0002   0.00    1.0
2022/11/10 02:20:30.000  -2112007.4385  -3705351.5202   4726826.9987   2   7   0.0005   0.0005   0.0003  -0.0003  -0.0002  -0.0002   0.00    1.0
2022/11/10 02:21:00.000  -2112007.4385  -3705351.5203   4726826.9987   2   7   0.0005   0.0005   0.0003  -0.0003  -0.0002  -0.0002   0.00    1.0
2022/11/10 02:21:30.000  -2112007.4385  -3705351.5204   4726826.9987   2   7   0.0005   0.0005   0.0003  -0.0003  -0.0002  -0.0002   0.00    1.0
2022/11/10 02:22:00.000  -2112007.4385  -3705351.5205   4726826.9987   2   7   0.0005   0.0005   0.0003  -0.0003  -0.0002  -0.0002   0.00    1.0
2022/11/10 02:22:30.000  -2112007.4384  -3705351.5206   4726826.9987   2   7   0.0005   0.0005   0.0003  -0.0003  -0.0002  -0.0002   0.00    1.0
2022/11/10 02:23:00.000  -2112007.4384  -3705351.5207   4726826.9986   2   7   0.0005   0.0005   0.0003  -0.0003  -0.0002  -0.0002   0.00    1.0
2022/11/10 02:23:30.000  -2112007.4383  -3705351.5208   4726826.9986   2   7   0.0005   0.0005   0.0003  -0.0003  -0.0002  -0.0002   0.00    1.0
2022/11/10 02:24:00.000  -2112007.4382  -3705351.5210   4726826.9985   2   7   0.0005   0.0005   0.0003  -0.0003  -0.0002  -0.0002   0.00    1.0
2022/11/10 02:24:30.000  -2112007.4382  -3705351.5211   4726826.9985   2   8   0.0005   0.0005   0.0003  -0.0003  -0.0002  -0.0002   0.00    1.0
2022/11/10 02:25:00.000  -2112007.4381  -3705351.5213   4726826.9984   2   8   0.0005   0.0005   0.0003  -0.0003  -0.0002  -0.0002   0.00    1.0
2022/11/10 02:25:30.000  -2112007.4380  -3705351.5215   4726826.9984   2   8   0.0005   0.0005   0.0003  -0.0003  -0.0002  -0.0002   0.00    1.0
2022/11/10 02:26:00.000  -2112007.4379  -3705351.5217   4726826.9984   2   8   0.0005   0.0005   0.0003  -0.0003  -0.0002  -0.0002   0.00    1.0
2022/11/10 02:26:30.000  -2112007.4378  -3705351.5219   4726826.9984   2   8   0.0005   0.0005   0.0003  -0.0003  -0.0002  -0.0002   0.00    1.0
2022/11/10 02:27:00.000  -2112007.4377  -3705351.5221   4726826.9984   2   8   0.0005   0.0004   0.0003  -0.0003  -0.0002  -0.0002   0.00    1.0
2022/11/10 02:27:30.000  -2112007.4376  -3705351.5222   4726826.9984   2   8   0.0005   0.0004   0.0003  -0.0003  -0.0002  -0.0002   0.00    1.0
2022/11/10 02:28:00.000  -2112007.4375  -3705351.5224   4726826.9984   2   8   0.0005   0.0004   0.0003  -0.0003  -0.0002  -0.0002   0.00    1.0
2022/11/10 02:28:30.000  -2112007.4374  -3705351.5226   4726826.9984   2   8   0.0005   0.0004   0.0003  -0.0003  -0.0002  -0.0002   0.00    1.1
2022/11/10 02:29:00.000  -2112007.4373  -3705351.5228   4726826.9984   2   8   0.0005   0.0004   0.0003  -0.0003  -0.0002  -0.0002   0.00    1.1
2022/11/10 02:29:30.000  -2112007.4373  -3705351.5230   4726826.9984   2   8   0.0005   0.0004   0.0003  -0.0003  -0.0002  -0.0002   0.00    1.1
2022/11/10 02:30:00.000  -2112007.4372  -3705351.5231   4726826.9985   2   8   0.0005   0.0004   0.0003  -0.0003  -0.0002  -0.0002   0.00    1.1
2022/11/10 02:30:30.000  -2112007.4372  -3705351.5232   4726826.9985   2   8   0.0005   0.0004   0.0003  -0.0003  -0.0002  -0.0002   0.00    1.1
2022/11/10 02:31:00.000  -2112007.4372  -3705351.5234   4726826.9985   2   8   0.0005   0.0004   0.0003  -0.0003  -0.0002  -0.0002   0.00    1.1
2022/11/10 02:31:30.000  -2112007.4372  -3705351.5235   4726826.9986   2   8   0.0005   0.0004   0.0003  -0.0003  -0.0002  -0.0002   0.00    1.1
2022/11/10 02:32:00.000  -2112007.4372  -3705351.5236   4726826.9986   2   8   0.0005   0.0004   0.0003  -0.0003  -0.0002  -0.0002   0.00    1.1
2022/11/10 02:32:30.000  -2112007.4372  -3705351.5237   4726826.9986   2   8   0.0005   0.0004   0.0003  -0.0003  -0.0002  -0.0002   0.00    1.1
2022/11/10 02:33:00.000  -2112007.4372  -3705351.5238   4726826.9987   2   8   0.0005   0.0004   0.0003  -0.0003  -0.0002  -0.0002   0.00    1.0
2022/11/10 02:33:30.000  -2112007.4373  -3705351.5239   4726826.9987   2   8   0.0005   0.0004   0.0003  -0.0003  -0.0002  -0.0002   0.00    1.0
2022/11/10 02:34:00.000  -2112007.4373  -3705351.5240   4726826.9988   2   8   0.0005   0.0004   0.0003  -0.0003  -0.0002  -0.0002   0.00    1.0
2022/11/10 02:34:30.000  -2112007.4373  -3705351.5240   4726826.9988   2   8   0.0005   0.0004   0.0003  -0.0003  -0.0002  -0.0002   0.00    1.0
2022/11/10 02:35:00.000  -2112007.4373  -3705351.5241   4726826.9988   2   8   0.0005   0.0004   0.0003  -0.0003  -0.0002  -0.0002   0.00    1.0
2022/11/10 02:35:30.000  -2112007.4373  -3705351.5242   4726826.9989   2   8   0.0005   0.0004   0.0003  -0.0003  -0.0002  -0.0002   0.00    1.1
2022/11/10 02:36:00.000  -2112007.4373  -3705351.5242   4726826.9989   2   8   0.0005   0.0004   0.0003  -0.0003  -0.0002  -0.0002   0.00    1.1
2022/11/10 02:36:30.000  -2112007.4373  -3705351.5243   4726826.9989   2   8   0.0005   0.0004   0.0003  -0.0003  -0.0002  -0.0002   0.00    1.1
2022/11/10 02:37:00.000  -2112007.4373  -3705351.5244   4726826.9990   2   8   0.0005   0.0004   0.0003  -0.0003  -0.0002  -0.0002   0.00    1.1
2022/11/10 02:37:30.000  -2112007.4372  -3705351.5244   4726826.9990   2   8   0.0005   0.0004   0.0003  -0.0003  -0.0002  -0.0002   0.00    1.1
2022/11/10 02:38:00.000  -2112007.4372  -3705351.5245   4726826.9990   2   8   0.0005   0.0004   0.0003  -0.0003  -0.0002  -0.0002   0.00    1.1
2022/11/10 02:38:30.000  -2112007.4372  -3705351.5245   4726826.9990   2   8   0.0005   0.0004   0.0003  -0.0003  -0.0002  -0.0002   0.00    1.1
2022/11/10 02:39:00.000  -2112007.4371  -3705351.5246   4726826.9990   2   8   0.0005   0.0004   0.0003  -0.0003  -0.0002  -0.0002   0.00    1.1
2022/11/10 02:39:30.000  -2112007.4371  -3705351.5247   4726826.9990   2   8   0.0005   0.0004   0.0003  -0.0003  -0.0002  -0.0002   0.00    1.1
2022/11/10 02:40:00.000  -2112007.4371  -3705351.5247   4726826.9990   2   8   0.0005   0.0004   0.0003  -0.0003  -0.0002  -0.0002   0.00    1.1
2022/11/10 02:40:30.000  -2112007.4371  -3705351.5248   4726826.9990   2   8   0.0005   0.0004   0.0003  -0.0003  -0.0002  -0.0002   0.00    1.1
2022/11/10 02:41:00.000  -2112007.4371  -3705351.5248   4726826.9990   2   7   0.0005   0.0004   0.0003  -0.0003  -0.0002  -0.0002   0.00    1.0
2022/11/10 02:41:30.000  -2112007.4372  -3705351.5249   4726826.9990   2   7   0.0005   0.0004   0.0003  -0.0003  -0.0002  -0.0002   0.00    1.0
2022/11/10 02:42:00.000  -2112007.4372  -3705351.5249   4726826.9990   2   7   0.0005   0.0004   0.0003  -0.0003  -0.0002  -0.0002   0.00    1.0
2022/11/10 02:42:30.000  -2112007.4373  -3705351.5249   4726826.9990   2   7   0.0005   0.0004   0.0003  -0.0003  -0.0002  -0.0002   0.00    1.0
2022/11/10 02:43:00.000  -2112007.4375  -3705351.5249   4726826.9990   2   7   0.0005   0.0004   0.0003  -0.0003  -0.0002  -0.0002   0.00    1.0
2022/11/10 02:43:30.000  -2112007.4376  -3705351.5249   4726826.9990   2   7   0.0005   0.0004   0.0003  -0.0003  -0.0002  -0.0002   0.00    1.0
2022/11/10 02:44:00.000  -2112007.4378  -3705351.5249   4726826.9990   2   7   0.0005   0.0004   0.0003  -0.0003  -0.0002  -0.0002   0.00    1.0
2022/11/10 02:44:30.000  -2112007.4380  -3705351.5249   4726826.9990   2   7   0.0005   0.0004   0.0003  -0.0003  -0.0002  -0.0002   0.00    1.0
2022/11/10 02:45:00.000  -2112007.4381  -3705351.5249   4726826.9990   2   7   0.0005   0.0004   0.0003  -0.0003  -0.0002  -0.0002   0.00    1.0
2022/11/10 02:45:30.000  -2112007.4383  -3705351.5249   4726826.9990   2   7   0.0005   0.0004   0.0003  -0.0003  -0.0002  -0.0002   0.00    1.0
2022/11/10 02:46:00.000  -2112007.4385  -3705351.5249   4726826.9989   2   7   0.0005   0.0004   0.0003  -0.0003  -0.0002  -0.0002   0.00    1.1
2022/11/10 02:46:30.000  -2112007.4386  -3705351.5248   4726826.9989   2   7   0.0005   0.0004   0.0003  -0.0003  -0.0002  -0.0002   0.00    1.1
2022/11/10 02:47:00.000  -2112007.4388  -3705351.5248   4726826.9988   2   7   0.0005   0.0004   0.0003  -0.0003  -0.0002  -0.0002   0.00    1.1
2022/11/10 02:47:30.000  -2112007.4389  -3705351.5248   4726826.9988   2   7   0.0005   0.0004   0.0003  -0.0003  -0.0002  -0.0002   0.00    1.1
2022/11/10 02:48:00.000  -2112007.4390  -3705351.5247   4726826.9987   2   7   0.0005   0.0004   0.0003  -0.0003  -0.0002  -0.0002   0.00    1.1
2022/11/10 02:48:30.000  -2112007.4391  -3705351.5247   4726826.9986   2   7   0.0005   0.0004   0.0003  -0.0003  -0.0002  -0.0002   0.00    1.1
2022/11/10 02:49:00.000  -2112007.4392  -3705351.5246   4726826.9985   2   7   0.0005   0.0004   0.0003  -0.0003  -0.0002  -0.0002   0.00    1.1
2022/11/10 02:49:30.000  -2112007.4392  -3705351.5246   4726826.9985   2   7   0.0005   0.0004   0.0003  -0.0003  -0.0002  -0.0002   0.00    1.1
2022/11/10 02:50:00.000  -2112007.4393  -3705351.5245   4726826.9984   2   7   0.0005   0.0004   0.0003  -0.0003  -0.0002  -0.0002   0.00    1.0
2022/11/10 02:50:30.000  -2112007.4393  -3705351.5245   4726826.9983   2   7   0.0005   0.0004   0.0003  -0.0003  -0.0002  -0.0002   0.00    1.0
2022/11/10 02:51:00.000  -2112007.4393  -3705351.5244   4726826.9982   2   7   0.0005   0.0004   0.0003  -0.0003  -0.0002  -0.0002   0.00    1.0
2022/11/10 02:51:30.000  -2112007.4393  -3705351.5244   4726826.9981   2   7   0.0005   0.0004   0.0003  -0.0003  -0.0002  -0.0002   0.00    1.0
2022/11/10 02:52:00.000  -2112007.4393  -3705351.5243   4726826.9980   2   7   0.0005   0.0004   0.0003  -0.0003  -0.0002  -0.0002   0.00    1.0
2022/11/10 02:52:30.000  -2112007.4392  -3705351.5242   4726826.9979   2   8   0.0005   0.0004   0.0003  -0.0003  -0.0002  -0.0002   0.00    1.0
2022/11/10 02:53:00.000  -2112007.4392  -3705351.5242   4726826.9978   2   9   0.0005   0.0004   0.0003  -0.0003  -0.0002  -0.0002   0.00    1.0
2022/11/10 02:53:30.000  -2112007.4392  -3705351.5241   4726826.9977   2   9   0.0005   0.0004   0.0003  -0.0003  -0.0002  -0.0002   0.00    1.0
2022/11/10 02:54:00.000  -2112007.4391  -3705351.5240   4726826.9976   2   9   0.0005   0.0004   0.0003  -0.0003  -0.0002  -0.0002   0.00    1.0
2022/11/10 02:54:30.000  -2112007.4391  -3705351.5239   4726826.9975   2   9   0.0005   0.0004   0.0003  -0.0003  -0.0002  -0.0002   0.00    1.0
2022/11/10 02:55:00.000  -2112007.4391  -3705351.5237   4726826.9975   2   9   0.0005   0.0004   0.0003  -0.0003  -0.0002  -0.0002   0.00    1.0
2022/11/10 02:55:30.000  -2112007.4390  -3705351.5236   4726826.9974   2   9   0.0005   0.0004   0.0003  -0.0003  -0.0002  -0.0002   0.00    1.0
2022/11/10 02:56:00.000  -2112007.4389  -3705351.5235   4726826.9973   2   9   0.0005   0.0004   0.0003  -0.0003  -0.0002  -0.0002   0.00    1.0
2022/11/10 02:56:30.000  -2112007.4388  -3705351.5234   4726826.9972   2   9   0.0005   0.0004   0.0003  -0.0003  -0.0002  -0.0002   0.00    1.0
2022/11/10 02:57:00.000  -2112007.4386  -3705351.5232   4726826.9971   2   9   0.0005   0.0004   0.0003  -0.0003  -0.0002  -0.0002   0.00    1.0
2022/11/10 02:57:30.000  -2112007.4385  -3705351.5231   4726826.9970   2   9   0.0005   0.0004   0.0003  -0.0003  -0.0002  -0.0002   0.00    1.0
2022/11/10 02:58:00.000  -2112007.4383  -3705351.5229   4726826.9969   2   9   0.0005   0.0004   0.0003  -0.0003  -0.0002  -0.0002   0.00    1.0
2022/11/10 02:58:30.000  -2112007.4381  -3705351.5228   4726826.9968   2   9   0.0005   0.0004   0.0003  -0.0003  -0.0002  -0.0002   0.00    1.0
2022/11/10 02:59:00.000  -2112007.4380  -3705351.5227   4726826.9967   2   9   0.0005   0.0004   0.0003  -0.0003  -0.0002  -0.0002   0.00    1.0
2022/11/10 02:59:30.000  -2112007.4378  -3705351.5225   4726826.9966   2   9   0.0005   0.0004   0.0003  -0.0003  -0.0002  -0.0002   0.00    1.0
2022/11/10 03:00:00.000  -2112007.4377  -3705351.5224   4726826.9965   2   9   0.0005   0.0004   0.0003  -0.0003  -0.0002  -0.0002   0.00    1.0
2022/11/10 03:00:30.000  -2112007.4375  -3705351.5223   4726826.9964   2   9   0.0005   0.0004   0.0003  -0.0003  -0.0002  -0.0002   0.00    1.0
2022/11/10 03:01:00.000  -2112007.4374  -3705351.5222   4726826.9963   2   9   0.0005   0.0004   0.0003  -0.0003  -0.0002  -0.0002   0.00    1.0
2022/11/10 03:01:30.000  -2112007.4373  -3705351.5221   4726826.9962   2   9   0.0005   0.0004   0.0003  -0.0003  -0.0002  -0.0002   0.00    1.0
2022/11/10 03:02:00.000  -2112007.4373  -3705351.5219   4726826.9962   2   9   0.0005   0.0004   0.0003  -0.0003  -0.0002  -0.0002   0.00    1.0
2022/11/10 03:02:30.000  -2112007.4372  -3705351.5219   4726826.9962   2   9   0.0005   0.0004   0.0003  -0.0003  -0.0002  -0.0002   0.00    1.0
2022/11/10 03:03:00.000  -2112007.4372  -3705351.5218   4726826.9961   2   9   0.0005   0.0004   0.0003  -0.0003  -0.0002  -0.0002   0.00    1.0
2022/11/10 03:03:30.000  -2112007.4371  -3705351.5217   4726826.9961   2   9   0.0005   0.0004   0.0003  -0.0003  -0.0002  -0.0002   0.00    1.0
2022/11/10 03:04:00.000  -2112007.4371  -3705351.5216   4726826.9961   2   9   0.0005   0.0004   0.0003  -0.0003  -0.0002  -0.0002   0.00    1.0
2022/11/10 03:04:30.000  -2112007.4372  -3705351.5215   4726826.9961   2   9   0.0005   0.0004   0.0003  -0.0003  -0.0002  -0.0002   0.00    1.0
2022/11/10 03:05:00.000  -2112007.4372  -3705351.5214   4726826.9961   2   9   0.0005   0.0004   0.0003  -0.0003  -0.0002  -0.0002   0.00    1.0
2022/11/10 03:05:30.000  -2112007.4372  -3705351.5213   4726826.9961   2   9   0.0005   0.0004   0.0003  -0.0003  -0.0002  -0.0002   0.00    1.0
2022/11/10 03:06:00.000  -2112007.4373  -3705351.5212   4726826.9961   2   9   0.0005   0.0004   0.0003  -0.0003  -0.0002  -0.0002   0.00    1.0
2022/11/10 03:06:30.000  -2112007.4374  -3705351.5211   4726826.9960   2   9   0.0005   0.0004   0.0003  -0.0003  -0.0002  -0.0002   0.00    1.0
2022/11/10 03:07:00.000  -2112007.4375  -3705351.5210   4726826.9960   2   9   0.0005   0.0004   0.0003  -0.0003  -0.0002  -0.0002   0.00    1.0
2022/11/10 03:07:30.000  -2112007.4375  -3705351.5210   4726826.9960   2   9   0.0005   0.0004   0.0003  -0.0003  -0.0002  -0.0002   0.00    1.0
2022/11/10 03:08:00.000  -2112007.4376  -3705351.5209   4726826.9960   2   9   0.0005   0.0004   0.0003  -0.0003  -0.0002  -0.0002   0.00    1.0
2022/11/10 03:08:30.000  -2112007.4377  -3705351.5208   4726826.9960   2   9   0.0005   0.0004   0.0003  -0.0003  -0.0002  -0.0002   0.00    1.0
2022/11/10 03:09:00.000  -2112007.4378  -3705351.5207   4726826.9960   2   9   0.0005   0.0004   0.0003  -0.0003  -0.0002  -0.0002   0.00    1.0
2022/11/10 03:09:30.000  -2112007.4378  -3705351.5207   4726826.9959   2   9   0.0005   0.0004   0.0003  -0.0003  -0.0002  -0.0002   0.00    1.0
2022/11/10 03:10:00.000  -2112007.4378  -3705351.5206   4726826.9959   2   9   0.0005   0.0004   0.0003  -0.0003  -0.0002  -0.0002   0.00    1.0
2022/11/10 03:10:30.000  -2112007.4378  -3705351.5206   4726826.9958   2   9   0.0005   0.0004   0.0003  -0.0003  -0.0002  -0.0002   0.00    1.0
2022/11/10 03:11:00.000  -2112007.4378  -3705351.5206   4726826.9958   2   9   0.0005   0.0005   0.0003  -0.0003  -0.0002  -0.0002   0.00    1.0
2022/11/10 03:11:30.000  -2112007.4378  -3705351.5205   4726826.9957   2   9   0.0005   0.0005   0.0003  -0.0003  -0.0002  -0.0002   0.00    1.0
2022/11/10 03:12:00.000  -2112007.4378  -3705351.5205   4726826.9957   2   9   0.0005   0.0005   0.0003  -0.0003  -0.0002  -0.0002   0.00    1.0
2022/11/10 03:12:30.000  -2112007.4378  -3705351.5204   4726826.9956   2   9   0.0005   0.0005   0.0003  -0.0003  -0.0002  -0.0002   0.00    1.0
2022/11/10 03:13:00.000  -2112007.4378  -3705351.5204   4726826.9956   2   9   0.0005   0.0005   0.0003  -0.0003  -0.0002  -0.0002   0.00    1.0
2022/11/10 03:13:30.000  -2112007.4377  -3705351.5203   4726826.9955   2   9   0.0005   0.0005   0.0003  -0.0003  -0.0002  -0.0002   0.00    1.0
2022/11/10 03:14:00.000  -2112007.4377  -3705351.5203   4726826.9954   2   9   0.0005   0.0005   0.0003  -0.0003  -0.0002  -0.0002   0.00    1.0
2022/11/10 03:14:30.000  -2112007.4376  -3705351.5202   4726826.9954   2   9   0.0005   0.0005   0.0003  -0.0003  -0.0002  -0.0002   0.00    1.0
2022/11/10 03:15:00.000  -2112007.4376  -3705351.5202   4726826.9953   2   9   0.0005   0.0005   0.0003  -0.0003  -0.0002  -0.0002   0.00    1.0
2022/11/10 03:15:30.000  -2112007.4376  -3705351.5201   4726826.9953   2   9   0.0005   0.0005   0.0003  -0.0003  -0.0002  -0.0002   0.00    1.0
2022/11/10 03:16:00.000  -2112007.4375  -3705351.5201   4726826.9953   2   9   0.0005   0.0005   0.0003  -0.0003  -0.0002  -0.0002   0.00    1.0
2022/11/10 03:16:30.000  -2112007.4374  -3705351.5201   4726826.9952   2   9   0.0005   0.0005   0.0003  -0.0003  -0.0002  -0.0002   0.00    1.0
2022/11/10 03:17:00.000  -2112007.4373  -3705351.5200   4726826.9952   2   9   0.0005   0.0005   0.0003  -0.0003  -0.0002  -0.0002   0.00    1.0
2022/11/10 03:17:30.000  -2112007.4372  -3705351.5200   4726826.9951   2   9   0.0005   0.0005   0.0003  -0.0003  -0.0002  -0.0002   0.00    1.0
2022/11/10 03:18:00.000  -2112007.4371  -3705351.5200   4726826.9951   2   9   0.0005   0.0005   0.0003  -0.0003  -0.0002  -0.0002   0.00    1.0
2022/11/10 03:18:30.000  -2112007.4370  -3705351.5200   4726826.9951   2   9   0.0005   0.0005   0.0003  -0.0003  -0.0002  -0.0002   0.00    1.0
2022/11/10 03:19:00.000  -2112007.4369  -3705351.5200   4726826.9950   2   9   0.0005   0.0005   0.0003  -0.0003  -0.0002  -0.0002   0.00    1.0
2022/11/10 03:19:30.000  -2112007.4367  -3705351.5200   4726826.9950   2   9   0.0005   0.0005   0.0003  -0.0003  -0.0002  -0.0002   0.00    1.0
2022/11/10 03:20:00.000  -2112007.4366  -3705351.5200   4726826.9950   2   8   0.0005   0.0005   0.0003  -0.0003  -0.0002  -0.0002   0.00    1.2
2022/11/10 03:20:30.000  -2112007.4365  -3705351.5200   4726826.9950   2   8   0.0005   0.0005   0.0003  -0.0003  -0.0002  -0.0002   0.00    1.2
2022/11/10 03:21:00.000  -2112007.4364  -3705351.5200   4726826.9950   2   8   0.0005   0.0005   0.0003  -0.0003  -0.0002  -0.0002   0.00    1.2
2022/11/10 03:21:30.000  -2112007.4363  -3705351.5200   4726826.9950   2   8   0.0005   0.0005   0.0003  -0.0003  -0.0002  -0.0002   0.00    1.2
2022/11/10 03:22:00.000  -2112007.4361  -3705351.5200   4726826.9950   2   8   0.0005   0.0005   0.0003  -0.0003  -0.0002  -0.0002   0.00    1.2
