% program   : RTKPOST ver.2.4.3 b34
% inp file  : C:\Users\Danisimo\Desktop\????_????\???????\BREW\brew3140.22o
% inp file  : C:\Users\Danisimo\Desktop\????_????\???????\BRDC00IGS_R_20223140000_01D_MN.rnx
% inp file  : C:\Users\Danisimo\Desktop\????_????\???????\igs22354.sp3
% inp file  : C:\Users\Danisimo\Desktop\????_????\???????\igs22354.clk_30s
% obs start : 2022/11/10 00:00:00.0 GPST (week2235 345600.0s)
% obs end   : 2022/11/10 23:59:30.0 GPST (week2235 431970.0s)
% pos mode  : PPP Static
% solution  : Combined
% elev mask : 15.0 deg
% dynamics  : off
% tidecorr  : on
% tropo opt : Estimate ZTD+Grad
% ephemeris : Precise
% navi sys  : GPS
% antenna1  :                       ( 0.0000  0.0000  0.0083)
%
% (x/y/z-ecef=WGS84,Q=1:fix,2:float,3:sbas,4:dgps,5:single,6:ppp,ns=# of satellites)
%  GPST                      x-ecef(m)      y-ecef(m)      z-ecef(m)   Q  ns   sdx(m)   sdy(m)   sdz(m)  sdxy(m)  sdyz(m)  sdzx(m) age(s)  ratio
2022/11/10 00:00:00.000  -2112007.4230  -3705351.8419   4726827.0401   6   8   0.0032   0.0037   0.0036   0.0013  -0.0030  -0.0022   0.00    0.0
2022/11/10 00:00:30.000  -2112007.4230  -3705351.8419   4726827.0401   6   8   0.0032   0.0037   0.0036   0.0013  -0.0030  -0.0022   0.00    0.0
2022/11/10 00:01:00.000  -2112007.4229  -3705351.8419   4726827.0401   6   8   0.0032   0.0037   0.0036   0.0013  -0.0030  -0.0022   0.00    0.0
2022/11/10 00:01:30.000  -2112007.4229  -3705351.8419   4726827.0401   6   8   0.0032   0.0037   0.0036   0.0013  -0.0030  -0.0022   0.00    0.0
2022/11/10 00:02:00.000  -2112007.4229  -3705351.8419   4726827.0401   6   8   0.0032   0.0037   0.0036   0.0013  -0.0030  -0.0022   0.00    0.0
2022/11/10 00:02:30.000  -2112007.4229  -3705351.8419   4726827.0401   6   8   0.0032   0.0037   0.0036   0.0013  -0.0030  -0.0022   0.00    0.0
2022/11/10 00:03:00.000  -2112007.4229  -3705351.8419   4726827.0401   6   8   0.0032   0.0038   0.0036   0.0013  -0.0030  -0.0022   0.00    0.0
2022/11/10 00:03:30.000  -2112007.4229  -3705351.8419   4726827.0401   6   9   0.0032   0.0038   0.0036   0.0013  -0.0030  -0.0022   0.00    0.0
2022/11/10 00:04:00.000  -2112007.4229  -3705351.8419   4726827.0401   6   9   0.0032   0.0038   0.0036   0.0013  -0.0030  -0.0022   0.00    0.0
2022/11/10 00:04:30.000  -2112007.4228  -3705351.8419   4726827.0401   6   9   0.0033   0.0038   0.0036   0.0013  -0.0030  -0.0022   0.00    0.0
2022/11/10 00:05:00.000  -2112007.4228  -3705351.8420   4726827.0402   6   9   0.0033   0.0038   0.0036   0.0013  -0.0030  -0.0022   0.00    0.0
2022/11/10 00:05:30.000  -2112007.4228  -3705351.8420   4726827.0402   6   9   0.0033   0.0038   0.0036   0.0013  -0.0030  -0.0022   0.00    0.0
2022/11/10 00:06:00.000  -2112007.4227  -3705351.8420   4726827.0402   6   9   0.0033   0.0038   0.0036   0.0013  -0.0030  -0.0022   0.00    0.0
2022/11/10 00:06:30.000  -2112007.4227  -3705351.8420   4726827.0402   6   9   0.0033   0.0038   0.0036   0.0013  -0.0030  -0.0022   0.00    0.0
2022/11/10 00:07:00.000  -2112007.4227  -3705351.8420   4726827.0402   6   9   0.0033   0.0038   0.0036   0.0013  -0.0030  -0.0022   0.00    0.0
2022/11/10 00:07:30.000  -2112007.4227  -3705351.8421   4726827.0402   6  10   0.0033   0.0038   0.0036   0.0013  -0.0030  -0.0022   0.00    0.0
2022/11/10 00:08:00.000  -2112007.4227  -3705351.8421   4726827.0402   6  10   0.0033   0.0038   0.0036   0.0013  -0.0030  -0.0022   0.00    0.0
2022/11/10 00:08:30.000  -2112007.4227  -3705351.8421   4726827.0402   6  10   0.0033   0.0038   0.0036   0.0013  -0.0030  -0.0022   0.00    0.0
2022/11/10 00:09:00.000  -2112007.4227  -3705351.8421   4726827.0402   6  10   0.0033   0.0038   0.0036   0.0013  -0.0030  -0.0022   0.00    0.0
2022/11/10 00:09:30.000  -2112007.4227  -3705351.8421   4726827.0402   6  10   0.0033   0.0038   0.0036   0.0013  -0.0030  -0.0022   0.00    0.0
2022/11/10 00:10:00.000  -2112007.4227  -3705351.8421   4726827.0402   6  10   0.0033   0.0038   0.0036   0.0013  -0.0030  -0.0022   0.00    0.0
2022/11/10 00:10:30.000  -2112007.4226  -3705351.8421   4726827.0402   6  10   0.0033   0.0038   0.0036   0.0013  -0.0030  -0.0022   0.00    0.0
2022/11/10 00:11:00.000  -2112007.4227  -3705351.8421   4726827.0402   6  10   0.0033   0.0038   0.0036   0.0013  -0.0030  -0.0022   0.00    0.0
2022/11/10 00:11:30.000  -2112007.4227  -3705351.8421   4726827.0402   6  10   0.0033   0.0038   0.0036   0.0013  -0.0030  -0.0022   0.00    0.0
2022/11/10 00:12:00.000  -2112007.4227  -3705351.8421   4726827.0402   6  10   0.0033   0.0038   0.0036   0.0013  -0.0030  -0.0022   0.00    0.0
2022/11/10 00:12:30.000  -2112007.4226  -3705351.8421   4726827.0402   6  10   0.0033   0.0038   0.0036   0.0013  -0.0030  -0.0022   0.00    0.0
2022/11/10 00:13:00.000  -2112007.4226  -3705351.8421   4726827.0402   6  10   0.0033   0.0038   0.0036   0.0013  -0.0031  -0.0022   0.00    0.0
2022/11/10 00:13:30.000  -2112007.4226  -3705351.8421   4726827.0402   6   9   0.0033   0.0038   0.0036   0.0013  -0.0031  -0.0022   0.00    0.0
2022/11/10 00:14:00.000  -2112007.4227  -3705351.8421   4726827.0402   6   9   0.0033   0.0038   0.0036   0.0013  -0.0031  -0.0022   0.00    0.0
2022/11/10 00:14:30.000  -2112007.4226  -3705351.8421   4726827.0402   6   9   0.0033   0.0038   0.0036   0.0013  -0.0031  -0.0022   0.00    0.0
2022/11/10 00:15:00.000  -2112007.4226  -3705351.8422   4726827.0402   6   9   0.0033   0.0038   0.0036   0.0013  -0.0031  -0.0022   0.00    0.0
2022/11/10 00:15:30.000  -2112007.4226  -3705351.8421   4726827.0402   6   9   0.0033   0.0038   0.0036   0.0013  -0.0031  -0.0022   0.00    0.0
2022/11/10 00:16:00.000  -2112007.4226  -3705351.8421   4726827.0402   6   9   0.0033   0.0038   0.0036   0.0013  -0.0031  -0.0022   0.00    0.0
2022/11/10 00:16:30.000  -2112007.4226  -3705351.8421   4726827.0402   6   9   0.0033   0.0038   0.0036   0.0013  -0.0031  -0.0022   0.00    0.0
2022/11/10 00:17:00.000  -2112007.4226  -3705351.8421   4726827.0402   6   9   0.0033   0.0038   0.0036   0.0013  -0.0031  -0.0022   0.00    0.0
2022/11/10 00:17:30.000  -2112007.4226  -3705351.8421   4726827.0402   6   9   0.0033   0.0038   0.0036   0.0013  -0.0031  -0.0022   0.00    0.0
2022/11/10 00:18:00.000  -2112007.4226  -3705351.8421   4726827.0401   6   9   0.0033   0.0038   0.0036   0.0013  -0.0031  -0.0022   0.00    0.0
2022/11/10 00:18:30.000  -2112007.4226  -3705351.8421   4726827.0401   6   9   0.0033   0.0038   0.0036   0.0013  -0.0031  -0.0022   0.00    0.0
2022/11/10 00:19:00.000  -2112007.4226  -3705351.8422   4726827.0401   6   9   0.0033   0.0038   0.0036   0.0013  -0.0031  -0.0022   0.00    0.0
2022/11/10 00:19:30.000  -2112007.4226  -3705351.8421   4726827.0401   6   9   0.0033   0.0038   0.0036   0.0013  -0.0031  -0.0022   0.00    0.0
2022/11/10 00:20:00.000  -2112007.4226  -3705351.8421   4726827.0401   6   9   0.0033   0.0038   0.0036   0.0013  -0.0031  -0.0022   0.00    0.0
2022/11/10 00:20:30.000  -2112007.4226  -3705351.8421   4726827.0401   6   9   0.0033   0.0038   0.0036   0.0013  -0.0031  -0.0022   0.00    0.0
2022/11/10 00:21:00.000  -2112007.4226  -3705351.8421   4726827.0401   6   9   0.0033   0.0038   0.0036   0.0013  -0.0031  -0.0022   0.00    0.0
2022/11/10 00:21:30.000  -2112007.4226  -3705351.8422   4726827.0401   6   9   0.0033   0.0038   0.0036   0.0013  -0.0031  -0.0022   0.00    0.0
2022/11/10 00:22:00.000  -2112007.4226  -3705351.8422   4726827.0401   6   9   0.0033   0.0038   0.0036   0.0013  -0.0031  -0.0022   0.00    0.0
2022/11/10 00:22:30.000  -2112007.4226  -3705351.8422   4726827.0401   6   9   0.0033   0.0038   0.0036   0.0013  -0.0031  -0.0022   0.00    0.0
2022/11/10 00:23:00.000  -2112007.4226  -3705351.8422   4726827.0401   6   9   0.0033   0.0038   0.0036   0.0013  -0.0031  -0.0022   0.00    0.0
2022/11/10 00:23:30.000  -2112007.4226  -3705351.8422   4726827.0401   6   9   0.0033   0.0038   0.0036   0.0013  -0.0031  -0.0022   0.00    0.0
2022/11/10 00:24:00.000  -2112007.4226  -3705351.8422   4726827.0401   6   9   0.0033   0.0038   0.0036   0.0013  -0.0031  -0.0022   0.00    0.0
2022/11/10 00:24:30.000  -2112007.4226  -3705351.8422   4726827.0401   6   9   0.0033   0.0038   0.0036   0.0013  -0.0031  -0.0022   0.00    0.0
2022/11/10 00:25:00.000  -2112007.4226  -3705351.8422   4726827.0401   6   9   0.0033   0.0038   0.0036   0.0013  -0.0031  -0.0022   0.00    0.0
2022/11/10 00:25:30.000  -2112007.4226  -3705351.8422   4726827.0401   6   9   0.0033   0.0038   0.0036   0.0013  -0.0031  -0.0022   0.00    0.0
2022/11/10 00:26:00.000  -2112007.4226  -3705351.8422   4726827.0401   6   9   0.0033   0.0038   0.0036   0.0013  -0.0031  -0.0022   0.00    0.0
2022/11/10 00:26:30.000  -2112007.4226  -3705351.8422   4726827.0401   6   9   0.0033   0.0038   0.0036   0.0013  -0.0031  -0.0022   0.00    0.0
2022/11/10 00:27:00.000  -2112007.4226  -3705351.8422   4726827.0401   6   9   0.0033   0.0038   0.0036   0.0013  -0.0031  -0.0022   0.00    0.0
2022/11/10 00:27:30.000  -2112007.4226  -3705351.8422   4726827.0401   6   9   0.0033   0.0038   0.0036   0.0013  -0.0031  -0.0022   0.00    0.0
2022/11/10 00:28:00.000  -2112007.4226  -3705351.8422   4726827.0401   6   9   0.0033   0.0038   0.0036   0.0013  -0.0031  -0.0022   0.00    0.0
2022/11/10 00:28:30.000  -2112007.4226  -3705351.8422   4726827.0401   6   9   0.0033   0.0038   0.0036   0.0013  -0.0031  -0.0022   0.00    0.0
2022/11/10 00:29:00.000  -2112007.4226  -3705351.8422   4726827.0401   6   9   0.0033   0.0038   0.0036   0.0013  -0.0031  -0.0022   0.00    0.0
2022/11/10 00:29:30.000  -2112007.4226  -3705351.8422   4726827.0401   6   8   0.0033   0.0038   0.0036   0.0013  -0.0031  -0.0022   0.00    0.0
2022/11/10 00:30:00.000  -2112007.4226  -3705351.8422   4726827.0401   6   8   0.0033   0.0038   0.0036   0.0013  -0.0031  -0.0022   0.00    0.0
2022/11/10 00:30:30.000  -2112007.4226  -3705351.8422   4726827.0401   6   8   0.0033   0.0038   0.0036   0.0013  -0.0031  -0.0022   0.00    0.0
2022/11/10 00:31:00.000  -2112007.4226  -3705351.8422   4726827.0400   6   8   0.0033   0.0038   0.0036   0.0013  -0.0031  -0.0022   0.00    0.0
2022/11/10 00:31:30.000  -2112007.4226  -3705351.8422   4726827.0400   6   8   0.0033   0.0038   0.0036   0.0013  -0.0031  -0.0022   0.00    0.0
2022/11/10 00:32:00.000  -2112007.4227  -3705351.8422   4726827.0400   6   8   0.0033   0.0038   0.0036   0.0013  -0.0031  -0.0022   0.00    0.0
2022/11/10 00:32:30.000  -2112007.4227  -3705351.8421   4726827.0400   6   8   0.0033   0.0038   0.0036   0.0013  -0.0031  -0.0022   0.00    0.0
2022/11/10 00:33:00.000  -2112007.4227  -3705351.8421   4726827.0400   6   8   0.0033   0.0038   0.0036   0.0013  -0.0031  -0.0022   0.00    0.0
2022/11/10 00:33:30.000  -2112007.4227  -3705351.8421   4726827.0400   6   8   0.0033   0.0038   0.0036   0.0013  -0.0031  -0.0022   0.00    0.0
2022/11/10 00:34:00.000  -2112007.4226  -3705351.8421   4726827.0400   6   8   0.0033   0.0038   0.0036   0.0013  -0.0031  -0.0022   0.00    0.0
2022/11/10 00:34:30.000  -2112007.4226  -3705351.8421   4726827.0399   6   8   0.0033   0.0038   0.0036   0.0013  -0.0031  -0.0022   0.00    0.0
2022/11/10 00:35:00.000  -2112007.4226  -3705351.8421   4726827.0399   6   8   0.0033   0.0038   0.0036   0.0013  -0.0031  -0.0022   0.00    0.0
2022/11/10 00:35:30.000  -2112007.4226  -3705351.8421   4726827.0399   6   8   0.0033   0.0038   0.0036   0.0013  -0.0031  -0.0022   0.00    0.0
2022/11/10 00:36:00.000  -2112007.4227  -3705351.8421   4726827.0399   6   8   0.0033   0.0038   0.0036   0.0013  -0.0031  -0.0022   0.00    0.0
2022/11/10 00:36:30.000  -2112007.4227  -3705351.8421   4726827.0400   6   8   0.0033   0.0038   0.0036   0.0013  -0.0031  -0.0022   0.00    0.0
2022/11/10 00:37:00.000  -2112007.4226  -3705351.8421   4726827.0400   6   8   0.0033   0.0038   0.0036   0.0013  -0.0031  -0.0022   0.00    0.0
2022/11/10 00:37:30.000  -2112007.4226  -3705351.8422   4726827.0400   6   8   0.0033   0.0038   0.0036   0.0013  -0.0031  -0.0022   0.00    0.0
2022/11/10 00:38:00.000  -2112007.4226  -3705351.8421   4726827.0400   6   8   0.0033   0.0038   0.0036   0.0013  -0.0031  -0.0022   0.00    0.0
2022/11/10 00:38:30.000  -2112007.4226  -3705351.8421   4726827.0400   6   8   0.0033   0.0038   0.0036   0.0013  -0.0031  -0.0022   0.00    0.0
2022/11/10 00:39:00.000  -2112007.4226  -3705351.8421   4726827.0400   6   8   0.0033   0.0038   0.0036   0.0013  -0.0031  -0.0022   0.00    0.0
2022/11/10 00:39:30.000  -2112007.4226  -3705351.8421   4726827.0399   6   8   0.0033   0.0038   0.0036   0.0013  -0.0031  -0.0022   0.00    0.0
2022/11/10 00:40:00.000  -2112007.4226  -3705351.8421   4726827.0399   6   8   0.0033   0.0038   0.0036   0.0013  -0.0031  -0.0022   0.00    0.0
2022/11/10 00:40:30.000  -2112007.4226  -3705351.8421   4726827.0399   6   8   0.0033   0.0038   0.0036   0.0013  -0.0031  -0.0022   0.00    0.0
2022/11/10 00:41:00.000  -2112007.4226  -3705351.8420   4726827.0399   6   8   0.0033   0.0038   0.0036   0.0013  -0.0031  -0.0022   0.00    0.0
2022/11/10 00:41:30.000  -2112007.4226  -3705351.8420   4726827.0399   6   8   0.0033   0.0038   0.0036   0.0013  -0.0031  -0.0022   0.00    0.0
2022/11/10 00:42:00.000  -2112007.4226  -3705351.8420   4726827.0399   6   8   0.0033   0.0038   0.0036   0.0013  -0.0031  -0.0022   0.00    0.0
2022/11/10 00:42:30.000  -2112007.4226  -3705351.8420   4726827.0399   6   8   0.0033   0.0038   0.0036   0.0013  -0.0031  -0.0022   0.00    0.0
2022/11/10 00:43:00.000  -2112007.4227  -3705351.8420   4726827.0399   6   8   0.0033   0.0038   0.0036   0.0013  -0.0031  -0.0022   0.00    0.0
2022/11/10 00:43:30.000  -2112007.4227  -3705351.8420   4726827.0400   6   8   0.0033   0.0038   0.0036   0.0013  -0.0031  -0.0022   0.00    0.0
2022/11/10 00:44:00.000  -2112007.4227  -3705351.8420   4726827.0400   6   8   0.0033   0.0038   0.0036   0.0013  -0.0031  -0.0022   0.00    0.0
2022/11/10 00:44:30.000  -2112007.4227  -3705351.8419   4726827.0399   6   8   0.0033   0.0038   0.0036   0.0013  -0.0031  -0.0022   0.00    0.0
2022/11/10 00:45:00.000  -2112007.4228  -3705351.8419   4726827.0400   6   8   0.0033   0.0038   0.0036   0.0013  -0.0031  -0.0022   0.00    0.0
2022/11/10 00:45:30.000  -2112007.4227  -3705351.8420   4726827.0400   6   8   0.0033   0.0038   0.0036   0.0013  -0.0031  -0.0022   0.00    0.0
2022/11/10 00:46:00.000  -2112007.4227  -3705351.8420   4726827.0400   6   8   0.0033   0.0038   0.0036   0.0013  -0.0031  -0.0022   0.00    0.0
2022/11/10 00:46:30.000  -2112007.4227  -3705351.8419   4726827.0400   6   8   0.0033   0.0038   0.0036   0.0013  -0.0031  -0.0022   0.00    0.0
2022/11/10 00:47:00.000  -2112007.4227  -3705351.8419   4726827.0400   6   8   0.0033   0.0038   0.0036   0.0013  -0.0031  -0.0022   0.00    0.0
2022/11/10 00:47:30.000  -2112007.4228  -3705351.8419   4726827.0400   6   8   0.0033   0.0038   0.0036   0.0013  -0.0031  -0.0022   0.00    0.0
2022/11/10 00:48:00.000  -2112007.4228  -3705351.8419   4726827.0400   6   8   0.0033   0.0038   0.0036   0.0013  -0.0031  -0.0022   0.00    0.0
2022/11/10 00:48:30.000  -2112007.4227  -3705351.8418   4726827.0400   6   8   0.0033   0.0038   0.0036   0.0013  -0.0031  -0.0022   0.00    0.0
2022/11/10 00:49:00.000  -2112007.4228  -3705351.8418   4726827.0399   6   8   0.0033   0.0038   0.0036   0.0013  -0.0031  -0.0022   0.00    0.0
2022/11/10 00:49:30.000  -2112007.4228  -3705351.8417   4726827.0399   6   8   0.0033   0.0038   0.0036   0.0013  -0.0031  -0.0022   0.00    0.0
2022/11/10 00:50:00.000  -2112007.4228  -3705351.8417   4726827.0399   6   8   0.0033   0.0038   0.0036   0.0013  -0.0031  -0.0022   0.00    0.0
2022/11/10 00:50:30.000  -2112007.4228  -3705351.8416   4726827.0398   6   8   0.0033   0.0038   0.0036   0.0013  -0.0031  -0.0022   0.00    0.0
2022/11/10 00:51:00.000  -2112007.4229  -3705351.8416   4726827.0398   6   8   0.0033   0.0038   0.0036   0.0013  -0.0031  -0.0022   0.00    0.0
2022/11/10 00:51:30.000  -2112007.4229  -3705351.8415   4726827.0397   6   8   0.0033   0.0038   0.0036   0.0013  -0.0031  -0.0022   0.00    0.0
2022/11/10 00:52:00.000  -2112007.4229  -3705351.8415   4726827.0397   6   8   0.0033   0.0038   0.0036   0.0013  -0.0031  -0.0022   0.00    0.0
2022/11/10 00:52:30.000  -2112007.4229  -3705351.8414   4726827.0397   6   8   0.0033   0.0038   0.0036   0.0013  -0.0031  -0.0022   0.00    0.0
2022/11/10 00:53:00.000  -2112007.4229  -3705351.8414   4726827.0396   6   8   0.0033   0.0038   0.0036   0.0013  -0.0031  -0.0022   0.00    0.0
2022/11/10 00:53:30.000  -2112007.4229  -3705351.8414   4726827.0396   6   8   0.0033   0.0038   0.0036   0.0013  -0.0031  -0.0022   0.00    0.0
2022/11/10 00:54:00.000  -2112007.4229  -3705351.8413   4726827.0396   6   8   0.0033   0.0038   0.0036   0.0013  -0.0031  -0.0022   0.00    0.0
2022/11/10 00:54:30.000  -2112007.4229  -3705351.8413   4726827.0396   6   8   0.0033   0.0038   0.0036   0.0013  -0.0031  -0.0022   0.00    0.0
2022/11/10 00:55:00.000  -2112007.4229  -3705351.8413   4726827.0396   6   8   0.0033   0.0038   0.0036   0.0013  -0.0031  -0.0022   0.00    0.0
2022/11/10 00:55:30.000  -2112007.4229  -3705351.8413   4726827.0396   6   8   0.0033   0.0038   0.0036   0.0013  -0.0031  -0.0022   0.00    0.0
2022/11/10 00:56:00.000  -2112007.4229  -3705351.8412   4726827.0396   6   8   0.0033   0.0038   0.0036   0.0013  -0.0031  -0.0022   0.00    0.0
2022/11/10 00:56:30.000  -2112007.4229  -3705351.8413   4726827.0396   6   9   0.0033   0.0038   0.0036   0.0013  -0.0031  -0.0022   0.00    0.0
2022/11/10 00:57:00.000  -2112007.4229  -3705351.8413   4726827.0395   6   9   0.0033   0.0038   0.0036   0.0013  -0.0031  -0.0022   0.00    0.0
2022/11/10 00:57:30.000  -2112007.4229  -3705351.8413   4726827.0395   6   9   0.0033   0.0038   0.0036   0.0013  -0.0031  -0.0022   0.00    0.0
2022/11/10 00:58:00.000  -2112007.4228  -3705351.8413   4726827.0395   6   9   0.0033   0.0038   0.0036   0.0013  -0.0031  -0.0022   0.00    0.0
2022/11/10 00:58:30.000  -2112007.4228  -3705351.8413   4726827.0395   6   9   0.0033   0.0038   0.0036   0.0013  -0.0031  -0.0022   0.00    0.0
2022/11/10 00:59:00.000  -2112007.4228  -3705351.8414   4726827.0395   6   9   0.0033   0.0038   0.0036   0.0013  -0.0031  -0.0022   0.00    0.0
2022/11/10 00:59:30.000  -2112007.4228  -3705351.8414   4726827.0395   6   9   0.0033   0.0038   0.0036   0.0013  -0.0031  -0.0022   0.00    0.0
2022/11/10 01:00:00.000  -2112007.4227  -3705351.8414   4726827.0395   6   9   0.0033   0.0038   0.0036   0.0013  -0.0031  -0.0022   0.00    0.0
2022/11/10 01:00:30.000  -2112007.4227  -3705351.8414   4726827.0394   6   9   0.0033   0.0038   0.0036   0.0013  -0.0031  -0.0022   0.00    0.0
2022/11/10 01:01:00.000  -2112007.4228  -3705351.8414   4726827.0395   6   9   0.0033   0.0038   0.0036   0.0013  -0.0031  -0.0022   0.00    0.0
2022/11/10 01:01:30.000  -2112007.4228  -3705351.8415   4726827.0395   6   9   0.0033   0.0038   0.0036   0.0013  -0.0031  -0.0022   0.00    0.0
2022/11/10 01:02:00.000  -2112007.4228  -3705351.8415   4726827.0395   6   9   0.0033   0.0038   0.0036   0.0013  -0.0031  -0.0022   0.00    0.0
2022/11/10 01:02:30.000  -2112007.4228  -3705351.8416   4726827.0396   6   9   0.0033   0.0038   0.0036   0.0013  -0.0031  -0.0022   0.00    0.0
2022/11/10 01:03:00.000  -2112007.4229  -3705351.8416   4726827.0396   6   9   0.0033   0.0038   0.0036   0.0013  -0.0031  -0.0022   0.00    0.0
2022/11/10 01:03:30.000  -2112007.4229  -3705351.8417   4726827.0396   6   9   0.0033   0.0038   0.0036   0.0013  -0.0031  -0.0022   0.00    0.0
2022/11/10 01:04:00.000  -2112007.4229  -3705351.8417   4726827.0396   6   9   0.0033   0.0038   0.0036   0.0013  -0.0031  -0.0022   0.00    0.0
2022/11/10 01:04:30.000  -2112007.4228  -3705351.8417   4726827.0396   6   9   0.0033   0.0038   0.0036   0.0013  -0.0031  -0.0022   0.00    0.0
2022/11/10 01:05:00.000  -2112007.4229  -3705351.8417   4726827.0396   6   8   0.0033   0.0038   0.0036   0.0013  -0.0031  -0.0022   0.00    0.0
2022/11/10 01:05:30.000  -2112007.4229  -3705351.8417   4726827.0396   6   8   0.0033   0.0038   0.0036   0.0013  -0.0031  -0.0022   0.00    0.0
2022/11/10 01:06:00.000  -2112007.4229  -3705351.8417   4726827.0396   6   8   0.0033   0.0038   0.0036   0.0013  -0.0031  -0.0022   0.00    0.0
2022/11/10 01:06:30.000  -2112007.4229  -3705351.8417   4726827.0396   6   8   0.0033   0.0038   0.0036   0.0013  -0.0031  -0.0022   0.00    0.0
2022/11/10 01:07:00.000  -2112007.4229  -3705351.8417   4726827.0396   6   8   0.0033   0.0038   0.0036   0.0013  -0.0031  -0.0022   0.00    0.0
2022/11/10 01:07:30.000  -2112007.4229  -3705351.8417   4726827.0396   6   8   0.0033   0.0038   0.0036   0.0013  -0.0031  -0.0022   0.00    0.0
2022/11/10 01:08:00.000  -2112007.4229  -3705351.8417   4726827.0396   6   8   0.0033   0.0038   0.0036   0.0013  -0.0031  -0.0022   0.00    0.0
2022/11/10 01:08:30.000  -2112007.4229  -3705351.8418   4726827.0396   6   8   0.0033   0.0038   0.0036   0.0013  -0.0031  -0.0022   0.00    0.0
2022/11/10 01:09:00.000  -2112007.4230  -3705351.8418   4726827.0397   6   8   0.0033   0.0038   0.0036   0.0013  -0.0031  -0.0022   0.00    0.0
2022/11/10 01:09:30.000  -2112007.4230  -3705351.8418   4726827.0397   6   8   0.0033   0.0038   0.0036   0.0013  -0.0031  -0.0022   0.00    0.0
2022/11/10 01:10:00.000  -2112007.4229  -3705351.8418   4726827.0397   6   8   0.0033   0.0038   0.0036   0.0013  -0.0031  -0.0022   0.00    0.0
2022/11/10 01:10:30.000  -2112007.4230  -3705351.8418   4726827.0397   6   8   0.0033   0.0038   0.0036   0.0013  -0.0031  -0.0022   0.00    0.0
2022/11/10 01:11:00.000  -2112007.4230  -3705351.8418   4726827.0397   6   8   0.0033   0.0038   0.0036   0.0013  -0.0031  -0.0022   0.00    0.0
2022/11/10 01:11:30.000  -2112007.4230  -3705351.8419   4726827.0398   6   8   0.0033   0.0038   0.0036   0.0013  -0.0031  -0.0022   0.00    0.0
2022/11/10 01:12:00.000  -2112007.4230  -3705351.8419   4726827.0398   6   8   0.0033   0.0038   0.0036   0.0013  -0.0031  -0.0022   0.00    0.0
2022/11/10 01:12:30.000  -2112007.4230  -3705351.8418   4726827.0398   6   8   0.0033   0.0038   0.0036   0.0013  -0.0031  -0.0022   0.00    0.0
2022/11/10 01:13:00.000  -2112007.4230  -3705351.8419   4726827.0398   6   8   0.0033   0.0038   0.0036   0.0013  -0.0031  -0.0022   0.00    0.0
2022/11/10 01:13:30.000  -2112007.4231  -3705351.8418   4726827.0398   6   8   0.0033   0.0038   0.0036   0.0013  -0.0031  -0.0022   0.00    0.0
2022/11/10 01:14:00.000  -2112007.4231  -3705351.8418   4726827.0398   6   8   0.0033   0.0038   0.0036   0.0013  -0.0031  -0.0022   0.00    0.0
2022/11/10 01:14:30.000  -2112007.4231  -3705351.8418   4726827.0398   6   8   0.0033   0.0038   0.0036   0.0013  -0.0031  -0.0022   0.00    0.0
2022/11/10 01:15:00.000  -2112007.4231  -3705351.8418   4726827.0398   6   8   0.0033   0.0038   0.0036   0.0013  -0.0031  -0.0022   0.00    0.0
2022/11/10 01:15:30.000  -2112007.4231  -3705351.8418   4726827.0398   6   8   0.0033   0.0038   0.0036   0.0013  -0.0031  -0.0022   0.00    0.0
2022/11/10 01:16:00.000  -2112007.4231  -3705351.8418   4726827.0398   6   8   0.0033   0.0038   0.0036   0.0013  -0.0031  -0.0022   0.00    0.0
2022/11/10 01:16:30.000  -2112007.4231  -3705351.8418   4726827.0398   6   8   0.0033   0.0038   0.0036   0.0013  -0.0031  -0.0022   0.00    0.0
2022/11/10 01:17:00.000  -2112007.4231  -3705351.8418   4726827.0397   6   8   0.0033   0.0038   0.0036   0.0013  -0.0031  -0.0022   0.00    0.0
2022/11/10 01:17:30.000  -2112007.4231  -3705351.8417   4726827.0397   6   8   0.0033   0.0038   0.0036   0.0012  -0.0031  -0.0022   0.00    0.0
2022/11/10 01:18:00.000  -2112007.4231  -3705351.8417   4726827.0397   6   8   0.0033   0.0038   0.0036   0.0012  -0.0031  -0.0022   0.00    0.0
2022/11/10 01:18:30.000  -2112007.4231  -3705351.8417   4726827.0397   6   8   0.0033   0.0038   0.0036   0.0012  -0.0031  -0.0022   0.00    0.0
2022/11/10 01:19:00.000  -2112007.4231  -3705351.8417   4726827.0397   6   8   0.0033   0.0038   0.0036   0.0012  -0.0031  -0.0022   0.00    0.0
2022/11/10 01:19:30.000  -2112007.4231  -3705351.8417   4726827.0397   6   8   0.0033   0.0038   0.0036   0.0012  -0.0031  -0.0022   0.00    0.0
2022/11/10 01:20:00.000  -2112007.4231  -3705351.8417   4726827.0397   6   8   0.0033   0.0038   0.0036   0.0012  -0.0031  -0.0022   0.00    0.0
2022/11/10 01:20:30.000  -2112007.4231  -3705351.8417   4726827.0397   6   8   0.0033   0.0038   0.0036   0.0012  -0.0031  -0.0022   0.00    0.0
2022/11/10 01:21:00.000  -2112007.4231  -3705351.8417   4726827.0397   6   8   0.0033   0.0038   0.0036   0.0012  -0.0031  -0.0022   0.00    0.0
2022/11/10 01:21:30.000  -2112007.4231  -3705351.8417   4726827.0397   6   8   0.0033   0.0038   0.0036   0.0012  -0.0031  -0.0022   0.00    0.0
2022/11/10 01:22:00.000  -2112007.4231  -3705351.8417   4726827.0397   6   8   0.0033   0.0038   0.0036   0.0012  -0.0031  -0.0022   0.00    0.0
2022/11/10 01:22:30.000  -2112007.4231  -3705351.8417   4726827.0397   6   8   0.0033   0.0038   0.0036   0.0012  -0.0031  -0.0022   0.00    0.0
2022/11/10 01:23:00.000  -2112007.4231  -3705351.8417   4726827.0398   6   8   0.0033   0.0038   0.0036   0.0012  -0.0031  -0.0022   0.00    0.0
2022/11/10 01:23:30.000  -2112007.4231  -3705351.8417   4726827.0398   6   8   0.0033   0.0038   0.0036   0.0012  -0.0031  -0.0022   0.00    0.0
2022/11/10 01:24:00.000  -2112007.4231  -3705351.8416   4726827.0398   6   8   0.0033   0.0038   0.0036   0.0012  -0.0031  -0.0022   0.00    0.0
2022/11/10 01:24:30.000  -2112007.4231  -3705351.8416   4726827.0398   6   8   0.0033   0.0038   0.0036   0.0012  -0.0031  -0.0022   0.00    0.0
2022/11/10 01:25:00.000  -2112007.4231  -3705351.8416   4726827.0398   6   8   0.0033   0.0038   0.0036   0.0012  -0.0031  -0.0022   0.00    0.0
2022/11/10 01:25:30.000  -2112007.4231  -3705351.8416   4726827.0398   6   7   0.0033   0.0038   0.0036   0.0012  -0.0031  -0.0022   0.00    0.0
2022/11/10 01:26:00.000  -2112007.4231  -3705351.8416   4726827.0398   6   7   0.0033   0.0038   0.0036   0.0012  -0.0031  -0.0022   0.00    0.0
2022/11/10 01:26:30.000  -2112007.4231  -3705351.8416   4726827.0398   6   7   0.0033   0.0038   0.0036   0.0012  -0.0031  -0.0022   0.00    0.0
2022/11/10 01:27:00.000  -2112007.4231  -3705351.8415   4726827.0398   6   7   0.0033   0.0038   0.0036   0.0012  -0.0031  -0.0022   0.00    0.0
2022/11/10 01:27:30.000  -2112007.4231  -3705351.8415   4726827.0398   6   7   0.0033   0.0038   0.0036   0.0012  -0.0031  -0.0022   0.00    0.0
2022/11/10 01:28:00.000  -2112007.4231  -3705351.8415   4726827.0398   6   7   0.0033   0.0038   0.0036   0.0012  -0.0031  -0.0022   0.00    0.0
2022/11/10 01:28:30.000  -2112007.4232  -3705351.8415   4726827.0398   6   7   0.0033   0.0038   0.0036   0.0012  -0.0031  -0.0022   0.00    0.0
2022/11/10 01:29:00.000  -2112007.4232  -3705351.8415   4726827.0398   6   7   0.0033   0.0038   0.0036   0.0012  -0.0031  -0.0022   0.00    0.0
2022/11/10 01:29:30.000  -2112007.4232  -3705351.8414   4726827.0398   6   7   0.0033   0.0038   0.0036   0.0012  -0.0031  -0.0022   0.00    0.0
2022/11/10 01:30:00.000  -2112007.4232  -3705351.8414   4726827.0398   6   7   0.0033   0.0038   0.0036   0.0012  -0.0031  -0.0022   0.00    0.0
2022/11/10 01:30:30.000  -2112007.4232  -3705351.8414   4726827.0398   6   7   0.0033   0.0038   0.0036   0.0012  -0.0031  -0.0022   0.00    0.0
2022/11/10 01:31:00.000  -2112007.4232  -3705351.8413   4726827.0398   6   7   0.0033   0.0038   0.0036   0.0012  -0.0031  -0.0022   0.00    0.0
2022/11/10 01:31:30.000  -2112007.4232  -3705351.8413   4726827.0398   6   7   0.0033   0.0038   0.0036   0.0012  -0.0031  -0.0022   0.00    0.0
2022/11/10 01:32:00.000  -2112007.4233  -3705351.8413   4726827.0398   6   7   0.0033   0.0038   0.0036   0.0012  -0.0031  -0.0022   0.00    0.0
2022/11/10 01:32:30.000  -2112007.4233  -3705351.8412   4726827.0398   6   7   0.0033   0.0038   0.0036   0.0012  -0.0031  -0.0022   0.00    0.0
2022/11/10 01:33:00.000  -2112007.4233  -3705351.8412   4726827.0398   6   7   0.0033   0.0038   0.0036   0.0012  -0.0031  -0.0022   0.00    0.0
2022/11/10 01:33:30.000  -2112007.4233  -3705351.8412   4726827.0398   6   7   0.0033   0.0038   0.0036   0.0012  -0.0031  -0.0022   0.00    0.0
2022/11/10 01:34:00.000  -2112007.4233  -3705351.8412   4726827.0398   6   7   0.0033   0.0038   0.0036   0.0012  -0.0031  -0.0022   0.00    0.0
2022/11/10 01:34:30.000  -2112007.4233  -3705351.8412   4726827.0399   6   7   0.0033   0.0038   0.0036   0.0012  -0.0031  -0.0022   0.00    0.0
2022/11/10 01:35:00.000  -2112007.4233  -3705351.8413   4726827.0400   6   7   0.0033   0.0038   0.0036   0.0012  -0.0031  -0.0022   0.00    0.0
2022/11/10 01:35:30.000  -2112007.4233  -3705351.8413   4726827.0400   6   7   0.0033   0.0038   0.0036   0.0012  -0.0031  -0.0022   0.00    0.0
2022/11/10 01:36:00.000  -2112007.4233  -3705351.8414   4726827.0401   6   7   0.0033   0.0038   0.0036   0.0012  -0.0031  -0.0022   0.00    0.0
2022/11/10 01:36:30.000  -2112007.4233  -3705351.8414   4726827.0401   6   7   0.0033   0.0038   0.0036   0.0012  -0.0031  -0.0022   0.00    0.0
2022/11/10 01:37:00.000  -2112007.4233  -3705351.8415   4726827.0402   6   7   0.0033   0.0038   0.0036   0.0012  -0.0031  -0.0022   0.00    0.0
2022/11/10 01:37:30.000  -2112007.4233  -3705351.8415   4726827.0403   6   7   0.0033   0.0038   0.0036   0.0012  -0.0031  -0.0022   0.00    0.0
2022/11/10 01:38:00.000  -2112007.4234  -3705351.8416   4726827.0403   6   7   0.0033   0.0038   0.0036   0.0012  -0.0031  -0.0022   0.00    0.0
2022/11/10 01:38:30.000  -2112007.4234  -3705351.8416   4726827.0404   6   7   0.0033   0.0038   0.0036   0.0012  -0.0031  -0.0022   0.00    0.0
2022/11/10 01:39:00.000  -2112007.4234  -3705351.8417   4726827.0404   6   7   0.0033   0.0038   0.0036   0.0012  -0.0031  -0.0022   0.00    0.0
2022/11/10 01:39:30.000  -2112007.4234  -3705351.8417   4726827.0405   6   7   0.0033   0.0038   0.0036   0.0012  -0.0031  -0.0022   0.00    0.0
2022/11/10 01:40:00.000  -2112007.4233  -3705351.8417   4726827.0405   6   7   0.0033   0.0038   0.0036   0.0012  -0.0031  -0.0022   0.00    0.0
2022/11/10 01:40:30.000  -2112007.4234  -3705351.8417   4726827.0405   6   7   0.0033   0.0038   0.0036   0.0012  -0.0031  -0.0022   0.00    0.0
2022/11/10 01:41:00.000  -2112007.4233  -3705351.8417   4726827.0406   6   6   0.0033   0.0038   0.0036   0.0012  -0.0031  -0.0022   0.00    0.0
2022/11/10 01:41:30.000  -2112007.4233  -3705351.8417   4726827.0406   6   6   0.0033   0.0038   0.0036   0.0012  -0.0031  -0.0022   0.00    0.0
2022/11/10 01:42:00.000  -2112007.4234  -3705351.8417   4726827.0406   6   6   0.0033   0.0038   0.0036   0.0012  -0.0031  -0.0022   0.00    0.0
2022/11/10 01:42:30.000  -2112007.4234  -3705351.8417   4726827.0406   6   6   0.0033   0.0038   0.0036   0.0012  -0.0031  -0.0022   0.00    0.0
2022/11/10 01:43:00.000  -2112007.4234  -3705351.8416   4726827.0406   6   6   0.0033   0.0038   0.0036   0.0012  -0.0031  -0.0022   0.00    0.0
2022/11/10 01:43:30.000  -2112007.4233  -3705351.8416   4726827.0406   6   6   0.0033   0.0038   0.0036   0.0012  -0.0031  -0.0022   0.00    0.0
2022/11/10 01:44:00.000  -2112007.4233  -3705351.8416   4726827.0406   6   6   0.0033   0.0038   0.0036   0.0012  -0.0031  -0.0022   0.00    0.0
2022/11/10 01:44:30.000  -2112007.4233  -3705351.8416   4726827.0406   6   5   0.0033   0.0038   0.0036   0.0012  -0.0031  -0.0022   0.00    0.0
2022/11/10 01:45:00.000  -2112007.4233  -3705351.8416   4726827.0407   6   5   0.0033   0.0038   0.0036   0.0012  -0.0031  -0.0022   0.00    0.0
2022/11/10 01:45:30.000  -2112007.4233  -3705351.8416   4726827.0407   6   5   0.0033   0.0038   0.0036   0.0012  -0.0031  -0.0022   0.00    0.0
2022/11/10 01:46:00.000  -2112007.4233  -3705351.8416   4726827.0407   6   5   0.0033   0.0038   0.0036   0.0012  -0.0031  -0.0022   0.00    0.0
2022/11/10 01:46:30.000  -2112007.4233  -3705351.8416   4726827.0407   6   5   0.0033   0.0038   0.0036   0.0012  -0.0031  -0.0022   0.00    0.0
2022/11/10 01:47:00.000  -2112007.4234  -3705351.8416   4726827.0407   6   5   0.0033   0.0038   0.0036   0.0012  -0.0031  -0.0022   0.00    0.0
2022/11/10 01:47:30.000  -2112007.4234  -3705351.8416   4726827.0408   6   5   0.0033   0.0038   0.0036   0.0012  -0.0031  -0.0022   0.00    0.0
2022/11/10 01:48:00.000  -2112007.4234  -3705351.8416   4726827.0408   6   6   0.0033   0.0038   0.0036   0.0012  -0.0031  -0.0022   0.00    0.0
2022/11/10 01:48:30.000  -2112007.4234  -3705351.8416   4726827.0408   6   6   0.0033   0.0038   0.0036   0.0012  -0.0031  -0.0022   0.00    0.0
2022/11/10 01:49:00.000  -2112007.4234  -3705351.8416   4726827.0408   6   6   0.0033   0.0038   0.0036   0.0012  -0.0031  -0.0022   0.00    0.0
2022/11/10 01:49:30.000  -2112007.4234  -3705351.8416   4726827.0408   6   6   0.0033   0.0038   0.0036   0.0012  -0.0031  -0.0022   0.00    0.0
2022/11/10 01:50:00.000  -2112007.4234  -3705351.8416   4726827.0409   6   6   0.0033   0.0038   0.0036   0.0012  -0.0031  -0.0022   0.00    0.0
2022/11/10 01:50:30.000  -2112007.4234  -3705351.8416   4726827.0409   6   6   0.0033   0.0038   0.0036   0.0012  -0.0031  -0.0022   0.00    0.0
2022/11/10 01:51:00.000  -2112007.4233  -3705351.8416   4726827.0409   6   6   0.0033   0.0038   0.0036   0.0012  -0.0031  -0.0022   0.00    0.0
2022/11/10 01:51:30.000  -2112007.4233  -3705351.8416   4726827.0409   6   6   0.0033   0.0038   0.0036   0.0012  -0.0031  -0.0022   0.00    0.0
2022/11/10 01:52:00.000  -2112007.4233  -3705351.8416   4726827.0409   6   6   0.0033   0.0038   0.0036   0.0012  -0.0031  -0.0022   0.00    0.0
2022/11/10 01:52:30.000  -2112007.4233  -3705351.8415   4726827.0409   6   6   0.0033   0.0038   0.0036   0.0012  -0.0031  -0.0022   0.00    0.0
2022/11/10 01:53:00.000  -2112007.4233  -3705351.8415   4726827.0409   6   6   0.0033   0.0038   0.0036   0.0012  -0.0031  -0.0022   0.00    0.0
2022/11/10 01:53:30.000  -2112007.4233  -3705351.8415   4726827.0410   6   6   0.0033   0.0038   0.0036   0.0012  -0.0031  -0.0022   0.00    0.0
2022/11/10 01:54:00.000  -2112007.4233  -3705351.8415   4726827.0410   6   6   0.0033   0.0038   0.0036   0.0012  -0.0031  -0.0022   0.00    0.0
2022/11/10 01:54:30.000  -2112007.4233  -3705351.8415   4726827.0410   6   6   0.0033   0.0038   0.0036   0.0012  -0.0031  -0.0022   0.00    0.0
2022/11/10 01:55:00.000  -2112007.4232  -3705351.8415   4726827.0410   6   6   0.0033   0.0038   0.0036   0.0012  -0.0031  -0.0022   0.00    0.0
2022/11/10 01:55:30.000  -2112007.4233  -3705351.8415   4726827.0410   6   6   0.0033   0.0038   0.0036   0.0012  -0.0031  -0.0022   0.00    0.0
2022/11/10 01:56:00.000  -2112007.4233  -3705351.8414   4726827.0411   6   6   0.0033   0.0038   0.0036   0.0012  -0.0031  -0.0022   0.00    0.0
2022/11/10 01:56:30.000  -2112007.4233  -3705351.8414   4726827.0411   6   6   0.0033   0.0038   0.0036   0.0012  -0.0031  -0.0022   0.00    0.0
2022/11/10 01:57:00.000  -2112007.4233  -3705351.8414   4726827.0411   6   6   0.0033   0.0038   0.0036   0.0012  -0.0031  -0.0022   0.00    0.0
2022/11/10 01:57:30.000  -2112007.4232  -3705351.8414   4726827.0411   6   6   0.0033   0.0038   0.0036   0.0012  -0.0031  -0.0022   0.00    0.0
2022/11/10 01:58:00.000  -2112007.4232  -3705351.8414   4726827.0411   6   6   0.0033   0.0038   0.0036   0.0012  -0.0031  -0.0022   0.00    0.0
2022/11/10 01:58:30.000  -2112007.4232  -3705351.8415   4726827.0411   6   6   0.0033   0.0038   0.0036   0.0012  -0.0031  -0.0022   0.00    0.0
2022/11/10 01:59:00.000  -2112007.4232  -3705351.8414   4726827.0411   6   6   0.0033   0.0038   0.0036   0.0012  -0.0031  -0.0022   0.00    0.0
2022/11/10 01:59:30.000  -2112007.4232  -3705351.8414   4726827.0412   6   6   0.0033   0.0038   0.0036   0.0012  -0.0031  -0.0022   0.00    0.0
2022/11/10 02:00:00.000  -2112007.4232  -3705351.8414   4726827.0412   6   6   0.0033   0.0038   0.0036   0.0012  -0.0031  -0.0022   0.00    0.0
2022/11/10 02:00:30.000  -2112007.4232  -3705351.8414   4726827.0412   6   6   0.0033   0.0038   0.0036   0.0012  -0.0031  -0.0022   0.00    0.0
2022/11/10 02:01:00.000  -2112007.4231  -3705351.8414   4726827.0411   6   6   0.0033   0.0038   0.0036   0.0012  -0.0031  -0.0022   0.00    0.0
2022/11/10 02:01:30.000  -2112007.4231  -3705351.8414   4726827.0411   6   6   0.0033   0.0038   0.0036   0.0012  -0.0031  -0.0022   0.00    0.0
2022/11/10 02:02:00.000  -2112007.4231  -3705351.8414   4726827.0412   6   7   0.0033   0.0038   0.0036   0.0012  -0.0031  -0.0022   0.00    0.0
2022/11/10 02:02:30.000  -2112007.4231  -3705351.8413   4726827.0412   6   7   0.0033   0.0038   0.0036   0.0012  -0.0031  -0.0022   0.00    0.0
2022/11/10 02:03:00.000  -2112007.4231  -3705351.8413   4726827.0412   6   7   0.0033   0.0038   0.0036   0.0012  -0.0031  -0.0022   0.00    0.0
2022/11/10 02:03:30.000  -2112007.4231  -3705351.8413   4726827.0411   6   7   0.0033   0.0038   0.0036   0.0012  -0.0031  -0.0022   0.00    0.0
2022/11/10 02:04:00.000  -2112007.4230  -3705351.8413   4726827.0411   6   7   0.0033   0.0038   0.0036   0.0012  -0.0031  -0.0022   0.00    0.0
2022/11/10 02:04:30.000  -2112007.4230  -3705351.8413   4726827.0411   6   7   0.0033   0.0038   0.0036   0.0012  -0.0031  -0.0022   0.00    0.0
2022/11/10 02:05:00.000  -2112007.4230  -3705351.8413   4726827.0411   6   7   0.0033   0.0038   0.0036   0.0012  -0.0031  -0.0022   0.00    0.0
2022/11/10 02:05:30.000  -2112007.4230  -3705351.8413   4726827.0411   6   7   0.0033   0.0038   0.0036   0.0012  -0.0031  -0.0022   0.00    0.0
2022/11/10 02:06:00.000  -2112007.4229  -3705351.8413   4726827.0411   6   7   0.0033   0.0038   0.0036   0.0012  -0.0031  -0.0022   0.00    0.0
2022/11/10 02:06:30.000  -2112007.4229  -3705351.8413   4726827.0411   6   7   0.0033   0.0038   0.0036   0.0012  -0.0031  -0.0022   0.00    0.0
2022/11/10 02:07:00.000  -2112007.4229  -3705351.8413   4726827.0411   6   7   0.0033   0.0038   0.0036   0.0012  -0.0031  -0.0022   0.00    0.0
2022/11/10 02:07:30.000  -2112007.4229  -3705351.8413   4726827.0411   6   7   0.0033   0.0038   0.0036   0.0012  -0.0031  -0.0022   0.00    0.0
2022/11/10 02:08:00.000  -2112007.4229  -3705351.8413   4726827.0411   6   7   0.0033   0.0038   0.0036   0.0012  -0.0031  -0.0022   0.00    0.0
2022/11/10 02:08:30.000  -2112007.4229  -3705351.8413   4726827.0411   6   7   0.0033   0.0038   0.0036   0.0012  -0.0031  -0.0022   0.00    0.0
2022/11/10 02:09:00.000  -2112007.4229  -3705351.8413   4726827.0411   6   7   0.0033   0.0038   0.0036   0.0012  -0.0031  -0.0022   0.00    0.0
2022/11/10 02:09:30.000  -2112007.4229  -3705351.8413   4726827.0411   6   7   0.0033   0.0038   0.0036   0.0012  -0.0031  -0.0022   0.00    0.0
2022/11/10 02:10:00.000  -2112007.4229  -3705351.8413   4726827.0411   6   7   0.0033   0.0038   0.0036   0.0012  -0.0031  -0.0022   0.00    0.0
2022/11/10 02:10:30.000  -2112007.4229  -3705351.8413   4726827.0411   6   7   0.0033   0.0038   0.0036   0.0012  -0.0031  -0.0022   0.00    0.0
2022/11/10 02:11:00.000  -2112007.4229  -3705351.8413   4726827.0411   6   8   0.0033   0.0038   0.0036   0.0012  -0.0031  -0.0022   0.00    0.0
2022/11/10 02:11:30.000  -2112007.4229  -3705351.8413   4726827.0411   6   8   0.0033   0.0038   0.0036   0.0012  -0.0031  -0.0022   0.00    0.0
2022/11/10 02:12:00.000  -2112007.4229  -3705351.8413   4726827.0411   6   8   0.0033   0.0038   0.0036   0.0012  -0.0031  -0.0022   0.00    0.0
2022/11/10 02:12:30.000  -2112007.4229  -3705351.8412   4726827.0411   6   8   0.0033   0.0038   0.0036   0.0012  -0.0031  -0.0022   0.00    0.0
2022/11/10 02:13:00.000  -2112007.4229  -3705351.8412   4726827.0411   6   8   0.0033   0.0038   0.0036   0.0012  -0.0031  -0.0022   0.00    0.0
2022/11/10 02:13:30.000  -2112007.4229  -3705351.8412   4726827.0411   6   8   0.0033   0.0038   0.0036   0.0012  -0.0031  -0.0022   0.00    0.0
2022/11/10 02:14:00.000  -2112007.4229  -3705351.8412   4726827.0411   6   8   0.0033   0.0038   0.0036   0.0012  -0.0031  -0.0022   0.00    0.0
2022/11/10 02:14:30.000  -2112007.4229  -3705351.8411   4726827.0411   6   8   0.0033   0.0038   0.0036   0.0012  -0.0031  -0.0022   0.00    0.0
2022/11/10 02:15:00.000  -2112007.4229  -3705351.8411   4726827.0411   6   8   0.0033   0.0038   0.0036   0.0012  -0.0031  -0.0022   0.00    0.0
2022/11/10 02:15:30.000  -2112007.4229  -3705351.8411   4726827.0411   6   8   0.0033   0.0038   0.0036   0.0012  -0.0031  -0.0022   0.00    0.0
2022/11/10 02:16:00.000  -2112007.4229  -3705351.8412   4726827.0411   6   8   0.0033   0.0038   0.0036   0.0012  -0.0031  -0.0022   0.00    0.0
2022/11/10 02:16:30.000  -2112007.4229  -3705351.8412   4726827.0411   6   8   0.0033   0.0038   0.0036   0.0012  -0.0031  -0.0022   0.00    0.0
2022/11/10 02:17:00.000  -2112007.4229  -3705351.8412   4726827.0411   6   8   0.0033   0.0038   0.0036   0.0012  -0.0031  -0.0022   0.00    0.0
2022/11/10 02:17:30.000  -2112007.4229  -3705351.8412   4726827.0411   6   8   0.0033   0.0038   0.0036   0.0012  -0.0031  -0.0022   0.00    0.0
2022/11/10 02:18:00.000  -2112007.4228  -3705351.8412   4726827.0410   6   8   0.0033   0.0038   0.0036   0.0012  -0.0031  -0.0022   0.00    0.0
2022/11/10 02:18:30.000  -2112007.4228  -3705351.8412   4726827.0410   6   8   0.0033   0.0038   0.0036   0.0012  -0.0031  -0.0022   0.00    0.0
2022/11/10 02:19:00.000  -2112007.4228  -3705351.8412   4726827.0410   6   8   0.0033   0.0038   0.0036   0.0012  -0.0031  -0.0022   0.00    0.0
2022/11/10 02:19:30.000  -2112007.4227  -3705351.8412   4726827.0409   6   8   0.0033   0.0038   0.0036   0.0012  -0.0031  -0.0022   0.00    0.0
2022/11/10 02:20:00.000  -2112007.4227  -3705351.8412   4726827.0409   6   8   0.0033   0.0038   0.0036   0.0012  -0.0031  -0.0022   0.00    0.0
2022/11/10 02:20:30.000  -2112007.4227  -3705351.8412   4726827.0409   6   8   0.0033   0.0038   0.0036   0.0012  -0.0031  -0.0022   0.00    0.0
2022/11/10 02:21:00.000  -2112007.4227  -3705351.8412   4726827.0409   6   8   0.0033   0.0038   0.0036   0.0012  -0.0031  -0.0022   0.00    0.0
2022/11/10 02:21:30.000  -2112007.4227  -3705351.8412   4726827.0408   6   8   0.0033   0.0038   0.0036   0.0012  -0.0031  -0.0022   0.00    0.0
2022/11/10 02:22:00.000  -2112007.4227  -3705351.8412   4726827.0408   6   8   0.0033   0.0038   0.0036   0.0012  -0.0031  -0.0022   0.00    0.0
2022/11/10 02:22:30.000  -2112007.4226  -3705351.8412   4726827.0408   6   8   0.0033   0.0038   0.0036   0.0012  -0.0031  -0.0022   0.00    0.0
2022/11/10 02:23:00.000  -2112007.4226  -3705351.8412   4726827.0408   6   8   0.0033   0.0038   0.0036   0.0012  -0.0031  -0.0022   0.00    0.0
2022/11/10 02:23:30.000  -2112007.4226  -3705351.8412   4726827.0408   6   8   0.0033   0.0038   0.0036   0.0012  -0.0031  -0.0022   0.00    0.0
2022/11/10 02:24:00.000  -2112007.4226  -3705351.8412   4726827.0408   6   8   0.0033   0.0038   0.0036   0.0012  -0.0031  -0.0022   0.00    0.0
2022/11/10 02:24:30.000  -2112007.4226  -3705351.8412   4726827.0408   6   8   0.0033   0.0038   0.0036   0.0012  -0.0031  -0.0022   0.00    0.0
2022/11/10 02:25:00.000  -2112007.4226  -3705351.8411   4726827.0407   6   8   0.0033   0.0038   0.0036   0.0012  -0.0031  -0.0022   0.00    0.0
2022/11/10 02:25:30.000  -2112007.4226  -3705351.8411   4726827.0407   6   8   0.0033   0.0038   0.0036   0.0012  -0.0031  -0.0022   0.00    0.0
2022/11/10 02:26:00.000  -2112007.4226  -3705351.8411   4726827.0407   6   8   0.0033   0.0038   0.0036   0.0012  -0.0031  -0.0022   0.00    0.0
2022/11/10 02:26:30.000  -2112007.4227  -3705351.8411   4726827.0406   6   8   0.0033   0.0038   0.0036   0.0012  -0.0031  -0.0022   0.00    0.0
2022/11/10 02:27:00.000  -2112007.4227  -3705351.8410   4726827.0406   6   8   0.0033   0.0038   0.0036   0.0012  -0.0031  -0.0022   0.00    0.0
2022/11/10 02:27:30.000  -2112007.4227  -3705351.8410   4726827.0406   6   8   0.0033   0.0038   0.0036   0.0012  -0.0031  -0.0022   0.00    0.0
2022/11/10 02:28:00.000  -2112007.4227  -3705351.8409   4726827.0406   6   8   0.0033   0.0038   0.0036   0.0012  -0.0031  -0.0022   0.00    0.0
2022/11/10 02:28:30.000  -2112007.4227  -3705351.8410   4726827.0405   6   8   0.0033   0.0038   0.0036   0.0012  -0.0031  -0.0022   0.00    0.0
2022/11/10 02:29:00.000  -2112007.4227  -3705351.8409   4726827.0405   6   8   0.0033   0.0038   0.0036   0.0012  -0.0031  -0.0022   0.00    0.0
2022/11/10 02:29:30.000  -2112007.4227  -3705351.8409   4726827.0405   6   8   0.0033   0.0038   0.0036   0.0012  -0.0031  -0.0022   0.00    0.0
2022/11/10 02:30:00.000  -2112007.4228  -3705351.8409   4726827.0405   6   8   0.0033   0.0038   0.0036   0.0012  -0.0031  -0.0022   0.00    0.0
2022/11/10 02:30:30.000  -2112007.4228  -3705351.8409   4726827.0405   6   8   0.0033   0.0038   0.0036   0.0012  -0.0031  -0.0022   0.00    0.0
2022/11/10 02:31:00.000  -2112007.4228  -3705351.8410   4726827.0405   6   8   0.0033   0.0038   0.0036   0.0012  -0.0031  -0.0022   0.00    0.0
2022/11/10 02:31:30.000  -2112007.4228  -3705351.8410   4726827.0405   6   8   0.0033   0.0038   0.0036   0.0012  -0.0031  -0.0022   0.00    0.0
2022/11/10 02:32:00.000  -2112007.4228  -3705351.8411   4726827.0405   6   8   0.0033   0.0038   0.0036   0.0012  -0.0031  -0.0022   0.00    0.0
2022/11/10 02:32:30.000  -2112007.4228  -3705351.8411   4726827.0405   6   8   0.0033   0.0038   0.0036   0.0012  -0.0031  -0.0022   0.00    0.0
2022/11/10 02:33:00.000  -2112007.4228  -3705351.8411   4726827.0405   6   8   0.0033   0.0038   0.0036   0.0012  -0.0031  -0.0022   0.00    0.0
2022/11/10 02:33:30.000  -2112007.4228  -3705351.8411   4726827.0405   6   8   0.0033   0.0038   0.0036   0.0012  -0.0031  -0.0022   0.00    0.0
2022/11/10 02:34:00.000  -2112007.4228  -3705351.8411   4726827.0405   6   8   0.0033   0.0038   0.0036   0.0012  -0.0031  -0.0022   0.00    0.0
2022/11/10 02:34:30.000  -2112007.4228  -3705351.8411   4726827.0404   6   8   0.0033   0.0038   0.0036   0.0012  -0.0031  -0.0022   0.00    0.0
2022/11/10 02:35:00.000  -2112007.4228  -3705351.8412   4726827.0404   6   8   0.0033   0.0038   0.0036   0.0012  -0.0031  -0.0022   0.00    0.0
2022/11/10 02:35:30.000  -2112007.4229  -3705351.8412   4726827.0404   6   8   0.0033   0.0038   0.0036   0.0012  -0.0031  -0.0022   0.00    0.0
2022/11/10 02:36:00.000  -2112007.4228  -3705351.8412   4726827.0404   6   8   0.0033   0.0038   0.0036   0.0012  -0.0031  -0.0022   0.00    0.0
2022/11/10 02:36:30.000  -2112007.4228  -3705351.8412   4726827.0404   6   8   0.0033   0.0038   0.0036   0.0012  -0.0031  -0.0022   0.00    0.0
2022/11/10 02:37:00.000  -2112007.4228  -3705351.8412   4726827.0404   6   8   0.0033   0.0038   0.0036   0.0012  -0.0031  -0.0022   0.00    0.0
2022/11/10 02:37:30.000  -2112007.4228  -3705351.8412   4726827.0404   6   8   0.0033   0.0038   0.0036   0.0012  -0.0031  -0.0022   0.00    0.0
2022/11/10 02:38:00.000  -2112007.4229  -3705351.8413   4726827.0404   6   8   0.0033   0.0038   0.0036   0.0012  -0.0031  -0.0022   0.00    0.0
2022/11/10 02:38:30.000  -2112007.4229  -3705351.8414   4726827.0404   6   8   0.0033   0.0038   0.0036   0.0012  -0.0031  -0.0022   0.00    0.0
2022/11/10 02:39:00.000  -2112007.4229  -3705351.8414   4726827.0404   6   8   0.0033   0.0038   0.0036   0.0012  -0.0031  -0.0022   0.00    0.0
2022/11/10 02:39:30.000  -2112007.4229  -3705351.8414   4726827.0404   6   8   0.0033   0.0038   0.0036   0.0012  -0.0031  -0.0022   0.00    0.0
2022/11/10 02:40:00.000  -2112007.4230  -3705351.8414   4726827.0404   6   8   0.0033   0.0038   0.0036   0.0012  -0.0031  -0.0022   0.00    0.0
2022/11/10 02:40:30.000  -2112007.4230  -3705351.8414   4726827.0404   6   8   0.0033   0.0038   0.0036   0.0012  -0.0031  -0.0022   0.00    0.0
2022/11/10 02:41:00.000  -2112007.4230  -3705351.8414   4726827.0404   6   8   0.0033   0.0038   0.0036   0.0012  -0.0031  -0.0022   0.00    0.0
2022/11/10 02:41:30.000  -2112007.4230  -3705351.8413   4726827.0403   6   9   0.0033   0.0038   0.0036   0.0012  -0.0031  -0.0022   0.00    0.0
2022/11/10 02:42:00.000  -2112007.4231  -3705351.8413   4726827.0403   6   9   0.0033   0.0038   0.0036   0.0012  -0.0031  -0.0022   0.00    0.0
2022/11/10 02:42:30.000  -2112007.4232  -3705351.8413   4726827.0403   6   9   0.0033   0.0038   0.0036   0.0012  -0.0031  -0.0022   0.00    0.0
2022/11/10 02:43:00.000  -2112007.4232  -3705351.8413   4726827.0403   6   9   0.0033   0.0038   0.0036   0.0012  -0.0031  -0.0022   0.00    0.0
2022/11/10 02:43:30.000  -2112007.4233  -3705351.8413   4726827.0403   6   9   0.0033   0.0038   0.0036   0.0012  -0.0031  -0.0022   0.00    0.0
2022/11/10 02:44:00.000  -2112007.4233  -3705351.8414   4726827.0403   6   8   0.0033   0.0038   0.0036   0.0012  -0.0031  -0.0022   0.00    0.0
2022/11/10 02:44:30.000  -2112007.4233  -3705351.8414   4726827.0403   6   8   0.0033   0.0038   0.0036   0.0012  -0.0031  -0.0022   0.00    0.0
2022/11/10 02:45:00.000  -2112007.4234  -3705351.8414   4726827.0403   6   8   0.0033   0.0038   0.0036   0.0012  -0.0031  -0.0022   0.00    0.0
2022/11/10 02:45:30.000  -2112007.4234  -3705351.8414   4726827.0403   6   8   0.0033   0.0038   0.0036   0.0012  -0.0031  -0.0022   0.00    0.0
2022/11/10 02:46:00.000  -2112007.4234  -3705351.8414   4726827.0403   6   8   0.0033   0.0038   0.0036   0.0012  -0.0031  -0.0022   0.00    0.0
2022/11/10 02:46:30.000  -2112007.4234  -3705351.8414   4726827.0403   6   8   0.0033   0.0038   0.0036   0.0012  -0.0031  -0.0022   0.00    0.0
2022/11/10 02:47:00.000  -2112007.4234  -3705351.8414   4726827.0403   6   8   0.0033   0.0038   0.0036   0.0012  -0.0031  -0.0022   0.00    0.0
2022/11/10 02:47:30.000  -2112007.4234  -3705351.8414   4726827.0402   6   8   0.0033   0.0038   0.0036   0.0012  -0.0031  -0.0022   0.00    0.0
2022/11/10 02:48:00.000  -2112007.4234  -3705351.8414   4726827.0402   6   8   0.0033   0.0038   0.0036   0.0012  -0.0031  -0.0022   0.00    0.0
2022/11/10 02:48:30.000  -2112007.4234  -3705351.8414   4726827.0402   6   8   0.0033   0.0038   0.0036   0.0012  -0.0031  -0.0022   0.00    0.0
2022/11/10 02:49:00.000  -2112007.4234  -3705351.8414   4726827.0402   6   8   0.0034   0.0038   0.0036   0.0012  -0.0031  -0.0022   0.00    0.0
2022/11/10 02:49:30.000  -2112007.4234  -3705351.8414   4726827.0402   6   8   0.0034   0.0038   0.0036   0.0012  -0.0031  -0.0022   0.00    0.0
2022/11/10 02:50:00.000  -2112007.4234  -3705351.8414   4726827.0402   6   8   0.0034   0.0038   0.0036   0.0012  -0.0031  -0.0022   0.00    0.0
2022/11/10 02:50:30.000  -2112007.4234  -3705351.8414   4726827.0402   6   8   0.0034   0.0038   0.0036   0.0012  -0.0031  -0.0022   0.00    0.0
2022/11/10 02:51:00.000  -2112007.4234  -3705351.8414   4726827.0401   6   8   0.0034   0.0038   0.0036   0.0012  -0.0031  -0.0022   0.00    0.0
2022/11/10 02:51:30.000  -2112007.4234  -3705351.8415   4726827.0401   6   9   0.0034   0.0038   0.0036   0.0012  -0.0031  -0.0022   0.00    0.0
2022/11/10 02:52:00.000  -2112007.4234  -3705351.8415   4726827.0401   6   9   0.0034   0.0038   0.0036   0.0012  -0.0031  -0.0022   0.00    0.0
2022/11/10 02:52:30.000  -2112007.4234  -3705351.8415   4726827.0401   6   9   0.0034   0.0038   0.0036   0.0012  -0.0031  -0.0022   0.00    0.0
2022/11/10 02:53:00.000  -2112007.4234  -3705351.8415   4726827.0401   6   9   0.0034   0.0038   0.0036   0.0012  -0.0031  -0.0022   0.00    0.0
2022/11/10 02:53:30.000  -2112007.4235  -3705351.8415   4726827.0401   6   9   0.0034   0.0038   0.0036   0.0012  -0.0031  -0.0022   0.00    0.0
2022/11/10 02:54:00.000  -2112007.4235  -3705351.8415   4726827.0401   6   9   0.0034   0.0038   0.0036   0.0012  -0.0031  -0.0022   0.00    0.0
2022/11/10 02:54:30.000  -2112007.4235  -3705351.8415   4726827.0401   6   9   0.0034   0.0038   0.0036   0.0012  -0.0031  -0.0022   0.00    0.0
2022/11/10 02:55:00.000  -2112007.4235  -3705351.8415   4726827.0401   6   9   0.0034   0.0038   0.0036   0.0012  -0.0031  -0.0022   0.00    0.0
2022/11/10 02:55:30.000  -2112007.4235  -3705351.8415   4726827.0401   6   9   0.0034   0.0038   0.0036   0.0012  -0.0031  -0.0022   0.00    0.0
2022/11/10 02:56:00.000  -2112007.4235  -3705351.8415   4726827.0400   6   9   0.0034   0.0038   0.0036   0.0012  -0.0031  -0.0022   0.00    0.0
2022/11/10 02:56:30.000  -2112007.4236  -3705351.8414   4726827.0400   6   9   0.0034   0.0038   0.0036   0.0012  -0.0031  -0.0022   0.00    0.0
2022/11/10 02:57:00.000  -2112007.4235  -3705351.8414   4726827.0400   6   9   0.0034   0.0038   0.0036   0.0012  -0.0031  -0.0022   0.00    0.0
2022/11/10 02:57:30.000  -2112007.4235  -3705351.8414   4726827.0400   6   9   0.0034   0.0038   0.0036   0.0013  -0.0031  -0.0022   0.00    0.0
2022/11/10 02:58:00.000  -2112007.4235  -3705351.8415   4726827.0400   6   9   0.0034   0.0038   0.0036   0.0013  -0.0031  -0.0022   0.00    0.0
2022/11/10 02:58:30.000  -2112007.4236  -3705351.8415   4726827.0400   6   9   0.0034   0.0038   0.0036   0.0013  -0.0031  -0.0022   0.00    0.0
2022/11/10 02:59:00.000  -2112007.4236  -3705351.8415   4726827.0400   6   9   0.0034   0.0038   0.0036   0.0013  -0.0031  -0.0022   0.00    0.0
2022/11/10 02:59:30.000  -2112007.4236  -3705351.8415   4726827.0400   6   9   0.0034   0.0038   0.0036   0.0013  -0.0031  -0.0022   0.00    0.0
2022/11/10 03:00:00.000  -2112007.4236  -3705351.8415   4726827.0400   6   9   0.0034   0.0038   0.0036   0.0013  -0.0031  -0.0022   0.00    0.0
2022/11/10 03:00:30.000  -2112007.4236  -3705351.8415   4726827.0399   6   9   0.0034   0.0038   0.0036   0.0013  -0.0031  -0.0022   0.00    0.0
2022/11/10 03:01:00.000  -2112007.4236  -3705351.8415   4726827.0399   6   9   0.0034   0.0038   0.0036   0.0013  -0.0031  -0.0022   0.00    0.0
2022/11/10 03:01:30.000  -2112007.4236  -3705351.8414   4726827.0399   6   9   0.0034   0.0038   0.0036   0.0013  -0.0031  -0.0022   0.00    0.0
2022/11/10 03:02:00.000  -2112007.4236  -3705351.8414   4726827.0400   6   9   0.0034   0.0038   0.0036   0.0013  -0.0031  -0.0022   0.00    0.0
2022/11/10 03:02:30.000  -2112007.4237  -3705351.8414   4726827.0400   6   9   0.0034   0.0038   0.0036   0.0013  -0.0031  -0.0022   0.00    0.0
2022/11/10 03:03:00.000  -2112007.4237  -3705351.8414   4726827.0400   6   9   0.0034   0.0038   0.0036   0.0013  -0.0031  -0.0022   0.00    0.0
2022/11/10 03:03:30.000  -2112007.4237  -3705351.8414   4726827.0400   6   9   0.0034   0.0038   0.0036   0.0013  -0.0031  -0.0022   0.00    0.0
2022/11/10 03:04:00.000  -2112007.4237  -3705351.8414   4726827.0400   6   9   0.0034   0.0038   0.0036   0.0013  -0.0031  -0.0022   0.00    0.0
2022/11/10 03:04:30.000  -2112007.4237  -3705351.8415   4726827.0400   6   9   0.0034   0.0038   0.0037   0.0013  -0.0031  -0.0022   0.00    0.0
2022/11/10 03:05:00.000  -2112007.4237  -3705351.8415   4726827.0401   6   9   0.0034   0.0038   0.0037   0.0013  -0.0031  -0.0022   0.00    0.0
2022/11/10 03:05:30.000  -2112007.4237  -3705351.8415   4726827.0401   6   9   0.0034   0.0038   0.0037   0.0013  -0.0031  -0.0022   0.00    0.0
2022/11/10 03:06:00.000  -2112007.4237  -3705351.8415   4726827.0401   6   9   0.0034   0.0038   0.0037   0.0013  -0.0031  -0.0022   0.00    0.0
2022/11/10 03:06:30.000  -2112007.4237  -3705351.8415   4726827.0401   6   9   0.0034   0.0038   0.0037   0.0013  -0.0031  -0.0022   0.00    0.0
2022/11/10 03:07:00.000  -2112007.4238  -3705351.8415   4726827.0401   6   9   0.0034   0.0038   0.0037   0.0013  -0.0031  -0.0022   0.00    0.0
2022/11/10 03:07:30.000  -2112007.4238  -3705351.8415   4726827.0401   6   9   0.0034   0.0038   0.0037   0.0013  -0.0031  -0.0022   0.00    0.0
2022/11/10 03:08:00.000  -2112007.4238  -3705351.8415   4726827.0401   6   9   0.0034   0.0038   0.0037   0.0013  -0.0031  -0.0022   0.00    0.0
2022/11/10 03:08:30.000  -2112007.4238  -3705351.8414   4726827.0401   6   9   0.0034   0.0038   0.0037   0.0013  -0.0031  -0.0022   0.00    0.0
2022/11/10 03:09:00.000  -2112007.4238  -3705351.8413   4726827.0401   6   9   0.0034   0.0038   0.0037   0.0013  -0.0031  -0.0022   0.00    0.0
2022/11/10 03:09:30.000  -2112007.4238  -3705351.8413   4726827.0400   6   9   0.0034   0.0038   0.0037   0.0013  -0.0031  -0.0022   0.00    0.0
2022/11/10 03:10:00.000  -2112007.4237  -3705351.8413   4726827.0400   6   9   0.0034   0.0038   0.0037   0.0013  -0.0031  -0.0022   0.00    0.0
2022/11/10 03:10:30.000  -2112007.4237  -3705351.8413   4726827.0400   6   9   0.0034   0.0038   0.0037   0.0013  -0.0031  -0.0022   0.00    0.0
2022/11/10 03:11:00.000  -2112007.4237  -3705351.8413   4726827.0400   6   9   0.0034   0.0038   0.0037   0.0013  -0.0031  -0.0022   0.00    0.0
2022/11/10 03:11:30.000  -2112007.4237  -3705351.8413   4726827.0401   6   9   0.0034   0.0038   0.0037   0.0013  -0.0031  -0.0022   0.00    0.0
2022/11/10 03:12:00.000  -2112007.4237  -3705351.8413   4726827.0401   6   9   0.0034   0.0038   0.0037   0.0013  -0.0031  -0.0022   0.00    0.0
2022/11/10 03:12:30.000  -2112007.4237  -3705351.8413   4726827.0401   6   9   0.0034   0.0038   0.0037   0.0013  -0.0031  -0.0022   0.00    0.0
2022/11/10 03:13:00.000  -2112007.4237  -3705351.8413   4726827.0401   6   9   0.0034   0.0038   0.0037   0.0013  -0.0031  -0.0022   0.00    0.0
2022/11/10 03:13:30.000  -2112007.4237  -3705351.8413   4726827.0401   6   9   0.0034   0.0038   0.0037   0.0013  -0.0031  -0.0022   0.00    0.0
2022/11/10 03:14:00.000  -2112007.4237  -3705351.8413   4726827.0401   6   9   0.0034   0.0038   0.0037   0.0013  -0.0031  -0.0022   0.00    0.0
2022/11/10 03:14:30.000  -2112007.4237  -3705351.8413   4726827.0401   6   9   0.0034   0.0038   0.0037   0.0013  -0.0031  -0.0022   0.00    0.0
2022/11/10 03:15:00.000  -2112007.4237  -3705351.8413   4726827.0401   6   9   0.0034   0.0038   0.0037   0.0013  -0.0031  -0.0022   0.00    0.0
2022/11/10 03:15:30.000  -2112007.4238  -3705351.8413   4726827.0402   6   9   0.0034   0.0038   0.0037   0.0013  -0.0031  -0.0022   0.00    0.0
2022/11/10 03:16:00.000  -2112007.4238  -3705351.8414   4726827.0402   6   9   0.0034   0.0038   0.0037   0.0013  -0.0031  -0.0022   0.00    0.0
2022/11/10 03:16:30.000  -2112007.4239  -3705351.8414   4726827.0403   6   9   0.0034   0.0038   0.0037   0.0013  -0.0031  -0.0022   0.00    0.0
2022/11/10 03:17:00.000  -2112007.4239  -3705351.8414   4726827.0403   6   9   0.0034   0.0038   0.0037   0.0013  -0.0031  -0.0022   0.00    0.0
2022/11/10 03:17:30.000  -2112007.4240  -3705351.8415   4726827.0404   6   9   0.0034   0.0038   0.0036   0.0013  -0.0031  -0.0022   0.00    0.0
2022/11/10 03:18:00.000  -2112007.4240  -3705351.8415   4726827.0404   6   9   0.0034   0.0038   0.0036   0.0013  -0.0031  -0.0022   0.00    0.0
2022/11/10 03:18:30.000  -2112007.4241  -3705351.8415   4726827.0404   6   9   0.0034   0.0038   0.0036   0.0013  -0.0031  -0.0022   0.00    0.0
2022/11/10 03:19:00.000  -2112007.4241  -3705351.8415   4726827.0404   6   9   0.0034   0.0038   0.0036   0.0013  -0.0031  -0.0022   0.00    0.0
2022/11/10 03:19:30.000  -2112007.4241  -3705351.8415   4726827.0404   6   9   0.0034   0.0038   0.0036   0.0013  -0.0031  -0.0022   0.00    0.0
2022/11/10 03:20:00.000  -2112007.4242  -3705351.8415   4726827.0404   6   9   0.0034   0.0038   0.0036   0.0013  -0.0031  -0.0022   0.00    0.0
2022/11/10 03:20:30.000  -2112007.4242  -3705351.8414   4726827.0404   6   9   0.0034   0.0038   0.0036   0.0013  -0.0031  -0.0022   0.00    0.0
2022/11/10 03:21:00.000  -2112007.4242  -3705351.8414   4726827.0404   6   9   0.0034   0.0038   0.0036   0.0013  -0.0031  -0.0022   0.00    0.0
2022/11/10 03:21:30.000  -2112007.4242  -3705351.8415   4726827.0404   6   9   0.0034   0.0038   0.0036   0.0013  -0.0031  -0.0022   0.00    0.0
2022/11/10 03:22:00.000  -2112007.4242  -3705351.8415   4726827.0404   6   9   0.0034   0.0038   0.0036   0.0013  -0.0031  -0.0022   0.00    0.0
2022/11/10 03:22:30.000  -2112007.4242  -3705351.8416   4726827.0405   6   9   0.0034   0.0038   0.0036   0.0013  -0.0031  -0.0022   0.00    0.0
2022/11/10 03:23:00.000  -2112007.4243  -3705351.8416   4726827.0405   6   9   0.0034   0.0038   0.0036   0.0013  -0.0031  -0.0022   0.00    0.0
