% program   : RTKPOST ver.2.4.3 b34
% inp file  : C:\Users\Danisimo\Desktop\?????????\CHIL\chil0370.22o
% inp file  : C:\Users\Danisimo\Desktop\?????????\CMP9\cmp90370.22o
% inp file  : C:\Users\Danisimo\Desktop\?????????\BRDM00DLR_S_20220370000_01D_MN.rnx
% inp file  : C:\Users\Danisimo\Desktop\?????????\igs21960.sp3
% inp file  : C:\Users\Danisimo\Desktop\?????????\igs21960.clk_30s
% obs start : 2022/02/06 00:00:00.0 GPST (week2196      0.0s)
% obs end   : 2022/02/06 23:59:30.0 GPST (week2196  86370.0s)
% pos mode  : Static
% freqs     : L1+2
% solution  : Combined
% elev mask : 15.0 deg
% dynamics  : off
% tidecorr  : off
% ionos opt : Broadcast
% tropo opt : Saastamoinen
% ephemeris : Precise
% navi sys  : GPS
% amb res   : Continuous
% val thres : 3.0
% antenna1  :                       ( 0.0000  0.0000  0.6440)
% antenna2  :                       ( 0.0000  0.0000  0.1200)
% ref pos   : -2508506.3512  -4637174.6525   3579500.0123
%
% (x/y/z-ecef=WGS84,Q=1:fix,2:float,3:sbas,4:dgps,5:single,6:ppp,ns=# of satellites)
%  GPST                      x-ecef(m)      y-ecef(m)      z-ecef(m)   Q  ns   sdx(m)   sdy(m)   sdz(m)  sdxy(m)  sdyz(m)  sdzx(m) age(s)  ratio
2022/02/06 00:00:00.000  -2478003.5416  -4655348.8908   3577932.3490   1   8   0.0004   0.0004   0.0003   0.0001  -0.0002  -0.0002   0.00    3.6
2022/02/06 00:00:30.000  -2478003.5416  -4655348.8908   3577932.3490   1   8   0.0004   0.0004   0.0003   0.0001  -0.0002  -0.0002   0.00    3.5
2022/02/06 00:01:00.000  -2478003.5415  -4655348.8909   3577932.3490   1   8   0.0004   0.0004   0.0003   0.0001  -0.0002  -0.0002   0.00    3.4
2022/02/06 00:01:30.000  -2478003.5417  -4655348.8907   3577932.3489   1   8   0.0004   0.0004   0.0003   0.0001  -0.0002  -0.0002   0.00    3.1
2022/02/06 00:02:00.000  -2478003.5417  -4655348.8907   3577932.3489   1   8   0.0004   0.0004   0.0003   0.0001  -0.0002  -0.0002   0.00    3.6
2022/02/06 00:02:30.000  -2478003.5418  -4655348.8907   3577932.3489   1   8   0.0004   0.0004   0.0003   0.0001  -0.0002  -0.0002   0.00    3.7
2022/02/06 00:03:00.000  -2478003.5352  -4655348.8735   3577932.3323   1   8   0.0030   0.0038   0.0026   0.0030  -0.0025  -0.0023   0.00    3.7
2022/02/06 00:03:30.000  -2478003.5355  -4655348.8936   3577932.3502   2   9   0.0005   0.0005   0.0003  -0.0002  -0.0002  -0.0002   0.00    1.5
2022/02/06 00:04:00.000  -2478003.5355  -4655348.8936   3577932.3502   2  10   0.0005   0.0005   0.0003  -0.0002  -0.0002  -0.0002   0.00    1.0
2022/02/06 00:04:30.000  -2478003.5355  -4655348.8936   3577932.3501   2  10   0.0005   0.0005   0.0003  -0.0002  -0.0002  -0.0002   0.00    1.0
2022/02/06 00:05:00.000  -2478003.5355  -4655348.8935   3577932.3501   2  10   0.0005   0.0005   0.0003  -0.0002  -0.0002  -0.0002   0.00    1.0
2022/02/06 00:05:30.000  -2478003.5355  -4655348.8935   3577932.3501   2  10   0.0005   0.0005   0.0003  -0.0002  -0.0002  -0.0002   0.00    1.0
2022/02/06 00:06:00.000  -2478003.5355  -4655348.8935   3577932.3501   2  10   0.0005   0.0005   0.0003  -0.0002  -0.0002  -0.0002   0.00    1.1
2022/02/06 00:06:30.000  -2478003.5355  -4655348.8935   3577932.3501   2  10   0.0005   0.0005   0.0003  -0.0002  -0.0002  -0.0002   0.00    1.2
2022/02/06 00:07:00.000  -2478003.5355  -4655348.8935   3577932.3501   2  10   0.0005   0.0005   0.0003  -0.0002  -0.0002  -0.0002   0.00    1.3
2022/02/06 00:07:30.000  -2478003.5356  -4655348.8935   3577932.3501   2  10   0.0005   0.0005   0.0003  -0.0002  -0.0002  -0.0002   0.00    1.5
2022/02/06 00:08:00.000  -2478003.5356  -4655348.8935   3577932.3501   2  10   0.0005   0.0005   0.0003  -0.0002  -0.0002  -0.0002   0.00    1.6
2022/02/06 00:08:30.000  -2478003.5356  -4655348.8935   3577932.3501   2  10   0.0005   0.0005   0.0003  -0.0002  -0.0002  -0.0002   0.00    1.7
2022/02/06 00:09:00.000  -2478003.5357  -4655348.8935   3577932.3501   2  10   0.0005   0.0005   0.0003  -0.0002  -0.0002  -0.0002   0.00    1.9
2022/02/06 00:09:30.000  -2478003.5357  -4655348.8935   3577932.3500   2  10   0.0005   0.0005   0.0003  -0.0002  -0.0002  -0.0002   0.00    2.1
2022/02/06 00:10:00.000  -2478003.5357  -4655348.8935   3577932.3500   2  10   0.0005   0.0005   0.0003  -0.0002  -0.0002  -0.0002   0.00    2.2
2022/02/06 00:10:30.000  -2478003.5357  -4655348.8936   3577932.3500   2  10   0.0005   0.0005   0.0003  -0.0002  -0.0002  -0.0002   0.00    2.3
2022/02/06 00:11:00.000  -2478003.5357  -4655348.8936   3577932.3500   2  10   0.0005   0.0005   0.0003  -0.0002  -0.0002  -0.0002   0.00    2.4
2022/02/06 00:11:30.000  -2478003.5357  -4655348.8936   3577932.3500   2  10   0.0005   0.0005   0.0003  -0.0002  -0.0002  -0.0002   0.00    2.5
2022/02/06 00:12:00.000  -2478003.5381  -4655348.8929   3577932.3507   1   9   0.0004   0.0004   0.0003   0.0001  -0.0002  -0.0002   0.00    5.0
2022/02/06 00:12:30.000  -2478003.5381  -4655348.8930   3577932.3508   1   9   0.0004   0.0004   0.0003   0.0001  -0.0002  -0.0002   0.00    4.9
2022/02/06 00:13:00.000  -2478003.5381  -4655348.8931   3577932.3508   1   9   0.0004   0.0004   0.0003   0.0001  -0.0002  -0.0002   0.00    4.7
2022/02/06 00:13:30.000  -2478003.5381  -4655348.8932   3577932.3508   1   9   0.0004   0.0004   0.0003   0.0001  -0.0002  -0.0002   0.00    4.5
2022/02/06 00:14:00.000  -2478003.5381  -4655348.8933   3577932.3508   1   9   0.0004   0.0004   0.0003   0.0001  -0.0002  -0.0002   0.00    4.3
2022/02/06 00:14:30.000  -2478003.5381  -4655348.8933   3577932.3509   1   9   0.0004   0.0004   0.0003   0.0001  -0.0002  -0.0002   0.00    4.2
2022/02/06 00:16:00.000  -2478003.5382  -4655348.8934   3577932.3509   1   9   0.0004   0.0004   0.0003   0.0001  -0.0002  -0.0002   0.00    4.0
2022/02/06 00:16:30.000  -2478003.5382  -4655348.8934   3577932.3509   1   9   0.0004   0.0004   0.0003   0.0001  -0.0002  -0.0002   0.00    3.8
2022/02/06 00:17:00.000  -2478003.5383  -4655348.8935   3577932.3509   1   9   0.0004   0.0004   0.0003   0.0001  -0.0002  -0.0002   0.00    3.7
2022/02/06 00:17:30.000  -2478003.5383  -4655348.8935   3577932.3509   1   9   0.0004   0.0004   0.0003   0.0001  -0.0002  -0.0002   0.00    3.5
2022/02/06 00:18:00.000  -2478003.5384  -4655348.8935   3577932.3509   1   9   0.0004   0.0004   0.0003   0.0001  -0.0002  -0.0002   0.00    3.4
2022/02/06 00:18:30.000  -2478003.5384  -4655348.8936   3577932.3509   1   9   0.0004   0.0004   0.0003   0.0001  -0.0002  -0.0002   0.00    3.2
2022/02/06 00:19:00.000  -2478003.5384  -4655348.8936   3577932.3509   1   9   0.0004   0.0004   0.0003   0.0001  -0.0002  -0.0002   0.00    3.1
2022/02/06 00:19:30.000  -2478003.5357  -4655348.8936   3577932.3495   2   9   0.0005   0.0005   0.0003  -0.0002  -0.0002  -0.0002   0.00    2.3
2022/02/06 00:20:00.000  -2478003.5356  -4655348.8936   3577932.3495   2   9   0.0005   0.0005   0.0003  -0.0002  -0.0002  -0.0002   0.00    2.3
2022/02/06 00:20:30.000  -2478003.5356  -4655348.8935   3577932.3494   2   9   0.0005   0.0005   0.0003  -0.0002  -0.0002  -0.0002   0.00    2.2
2022/02/06 00:21:00.000  -2478003.5356  -4655348.8935   3577932.3494   2   9   0.0005   0.0005   0.0003  -0.0002  -0.0002  -0.0002   0.00    2.2
2022/02/06 00:21:30.000  -2478003.5355  -4655348.8935   3577932.3493   2   9   0.0005   0.0005   0.0003  -0.0002  -0.0002  -0.0002   0.00    2.1
2022/02/06 00:22:00.000  -2478003.5355  -4655348.8934   3577932.3493   2   9   0.0005   0.0005   0.0003  -0.0002  -0.0002  -0.0002   0.00    2.1
2022/02/06 00:22:30.000  -2478003.5355  -4655348.8934   3577932.3492   2   9   0.0005   0.0005   0.0003  -0.0002  -0.0002  -0.0002   0.00    2.1
2022/02/06 00:23:00.000  -2478003.5355  -4655348.8934   3577932.3492   2   9   0.0005   0.0005   0.0003  -0.0002  -0.0002  -0.0002   0.00    2.1
2022/02/06 00:23:30.000  -2478003.5355  -4655348.8934   3577932.3492   2   9   0.0005   0.0005   0.0003  -0.0002  -0.0002  -0.0002   0.00    2.2
2022/02/06 00:24:00.000  -2478003.5355  -4655348.8933   3577932.3492   2  10   0.0005   0.0005   0.0003  -0.0002  -0.0002  -0.0002   0.00    1.0
2022/02/06 00:24:30.000  -2478003.5355  -4655348.8933   3577932.3492   2  10   0.0005   0.0005   0.0003  -0.0002  -0.0002  -0.0002   0.00    1.0
2022/02/06 00:25:00.000  -2478003.5355  -4655348.8933   3577932.3491   2  10   0.0005   0.0005   0.0003  -0.0002  -0.0002  -0.0002   0.00    1.1
2022/02/06 00:25:30.000  -2478003.5355  -4655348.8933   3577932.3491   2  10   0.0005   0.0005   0.0003  -0.0002  -0.0002  -0.0002   0.00    1.1
2022/02/06 00:26:00.000  -2478003.5356  -4655348.8932   3577932.3491   2  10   0.0005   0.0005   0.0003  -0.0002  -0.0002  -0.0002   0.00    1.1
2022/02/06 00:26:30.000  -2478003.5356  -4655348.8932   3577932.3491   2  10   0.0005   0.0005   0.0003  -0.0002  -0.0002  -0.0002   0.00    1.1
2022/02/06 00:27:00.000  -2478003.5356  -4655348.8932   3577932.3491   2  10   0.0005   0.0005   0.0003  -0.0002  -0.0002  -0.0002   0.00    1.2
2022/02/06 00:27:30.000  -2478003.5357  -4655348.8932   3577932.3491   2  10   0.0005   0.0005   0.0003  -0.0002  -0.0002  -0.0002   0.00    1.2
2022/02/06 00:28:00.000  -2478003.5357  -4655348.8933   3577932.3491   2  10   0.0006   0.0005   0.0003  -0.0002  -0.0002  -0.0002   0.00    1.3
2022/02/06 00:28:30.000  -2478003.5357  -4655348.8933   3577932.3491   2  10   0.0006   0.0005   0.0003  -0.0002  -0.0002  -0.0002   0.00    1.4
2022/02/06 00:29:00.000  -2478003.5357  -4655348.8933   3577932.3491   2  10   0.0006   0.0005   0.0003  -0.0002  -0.0002  -0.0002   0.00    1.4
2022/02/06 00:29:30.000  -2478003.5384  -4655348.8920   3577932.3503   1   9   0.0004   0.0004   0.0003   0.0001  -0.0002  -0.0002   0.00   11.8
2022/02/06 00:30:00.000  -2478003.5383  -4655348.8920   3577932.3504   1   9   0.0004   0.0004   0.0003   0.0001  -0.0002  -0.0002   0.00   11.8
2022/02/06 00:30:30.000  -2478003.5382  -4655348.8920   3577932.3504   1   9   0.0004   0.0004   0.0003   0.0001  -0.0002  -0.0002   0.00   11.8
2022/02/06 00:31:00.000  -2478003.5381  -4655348.8921   3577932.3504   1   9   0.0004   0.0004   0.0003   0.0001  -0.0002  -0.0002   0.00   11.9
2022/02/06 00:31:30.000  -2478003.5394  -4655348.8915   3577932.3521   1   9   0.0003   0.0004   0.0003   0.0002  -0.0002  -0.0002   0.00    3.2
2022/02/06 00:32:00.000  -2478003.5393  -4655348.8916   3577932.3521   1   9   0.0003   0.0004   0.0003   0.0002  -0.0002  -0.0002   0.00    3.4
2022/02/06 00:32:30.000  -2478003.5393  -4655348.8916   3577932.3521   1   9   0.0003   0.0004   0.0003   0.0002  -0.0002  -0.0002   0.00    3.5
2022/02/06 00:33:00.000  -2478003.5392  -4655348.8916   3577932.3521   1   9   0.0003   0.0004   0.0003   0.0002  -0.0002  -0.0002   0.00    3.6
2022/02/06 00:33:30.000  -2478003.5392  -4655348.8917   3577932.3521   1   9   0.0003   0.0004   0.0003   0.0002  -0.0002  -0.0002   0.00    3.7
2022/02/06 00:34:00.000  -2478003.5391  -4655348.8918   3577932.3521   1   9   0.0003   0.0004   0.0003   0.0002  -0.0002  -0.0002   0.00    3.8
2022/02/06 00:34:30.000  -2478003.5391  -4655348.8918   3577932.3522   1   9   0.0003   0.0004   0.0003   0.0002  -0.0002  -0.0002   0.00    3.9
2022/02/06 00:35:00.000  -2478003.5390  -4655348.8918   3577932.3521   1   9   0.0003   0.0004   0.0003   0.0002  -0.0002  -0.0002   0.00    3.9
2022/02/06 00:35:30.000  -2478003.5390  -4655348.8919   3577932.3522   1   9   0.0003   0.0004   0.0003   0.0002  -0.0002  -0.0002   0.00    3.9
2022/02/06 00:36:00.000  -2478003.5390  -4655348.8919   3577932.3522   1   9   0.0003   0.0004   0.0003   0.0002  -0.0002  -0.0002   0.00    4.0
2022/02/06 00:36:30.000  -2478003.5390  -4655348.8919   3577932.3521   1   9   0.0003   0.0004   0.0003   0.0002  -0.0002  -0.0002   0.00    4.0
2022/02/06 00:37:00.000  -2478003.5390  -4655348.8919   3577932.3521   1   9   0.0003   0.0004   0.0003   0.0002  -0.0002  -0.0002   0.00    4.1
2022/02/06 00:37:30.000  -2478003.5390  -4655348.8918   3577932.3521   1   9   0.0003   0.0004   0.0003   0.0002  -0.0002  -0.0002   0.00    4.1
2022/02/06 00:38:00.000  -2478003.5389  -4655348.8918   3577932.3521   1   9   0.0003   0.0004   0.0003   0.0002  -0.0002  -0.0002   0.00    4.2
2022/02/06 00:38:30.000  -2478003.5390  -4655348.8918   3577932.3521   1   9   0.0003   0.0004   0.0003   0.0002  -0.0002  -0.0002   0.00    4.3
2022/02/06 00:39:00.000  -2478003.5390  -4655348.8918   3577932.3521   1   9   0.0003   0.0004   0.0003   0.0002  -0.0002  -0.0002   0.00    4.4
2022/02/06 00:39:30.000  -2478003.5390  -4655348.8917   3577932.3520   1   9   0.0003   0.0004   0.0003   0.0002  -0.0002  -0.0002   0.00    4.4
2022/02/06 00:40:00.000  -2478003.5390  -4655348.8917   3577932.3520   1   9   0.0003   0.0004   0.0003   0.0002  -0.0002  -0.0002   0.00    4.5
2022/02/06 00:40:30.000  -2478003.5390  -4655348.8916   3577932.3520   1   9   0.0003   0.0004   0.0003   0.0002  -0.0002  -0.0002   0.00    4.6
2022/02/06 00:41:00.000  -2478003.5391  -4655348.8916   3577932.3520   1   9   0.0003   0.0004   0.0003   0.0002  -0.0002  -0.0002   0.00    4.6
2022/02/06 00:41:30.000  -2478003.5391  -4655348.8915   3577932.3519   1   9   0.0003   0.0004   0.0003   0.0002  -0.0002  -0.0002   0.00    4.6
2022/02/06 00:42:00.000  -2478003.5391  -4655348.8915   3577932.3519   1   9   0.0003   0.0004   0.0003   0.0002  -0.0002  -0.0002   0.00    4.7
2022/02/06 00:42:30.000  -2478003.5391  -4655348.8914   3577932.3519   1   9   0.0003   0.0004   0.0003   0.0002  -0.0002  -0.0002   0.00    4.7
2022/02/06 00:43:00.000  -2478003.5392  -4655348.8914   3577932.3519   1   9   0.0003   0.0004   0.0003   0.0002  -0.0002  -0.0002   0.00    4.6
2022/02/06 00:43:30.000  -2478003.5392  -4655348.8913   3577932.3518   1   9   0.0003   0.0004   0.0003   0.0002  -0.0002  -0.0002   0.00    4.6
2022/02/06 00:44:00.000  -2478003.5392  -4655348.8913   3577932.3518   1   9   0.0003   0.0004   0.0003   0.0002  -0.0002  -0.0002   0.00    4.4
2022/02/06 00:44:30.000  -2478003.5392  -4655348.8913   3577932.3518   1   9   0.0003   0.0004   0.0003   0.0002  -0.0002  -0.0002   0.00    4.3
2022/02/06 00:45:00.000  -2478003.5392  -4655348.8913   3577932.3518   1   9   0.0003   0.0004   0.0003   0.0002  -0.0002  -0.0002   0.00    4.2
2022/02/06 00:45:30.000  -2478003.5393  -4655348.8913   3577932.3518   1   9   0.0003   0.0004   0.0003   0.0002  -0.0002  -0.0002   0.00    4.1
2022/02/06 00:46:00.000  -2478003.5393  -4655348.8913   3577932.3517   1   9   0.0003   0.0004   0.0003   0.0002  -0.0002  -0.0002   0.00    4.0
2022/02/06 00:46:30.000  -2478003.5393  -4655348.8913   3577932.3517   1   9   0.0003   0.0004   0.0003   0.0002  -0.0002  -0.0002   0.00    4.0
2022/02/06 00:47:00.000  -2478003.5393  -4655348.8914   3577932.3517   1   9   0.0003   0.0004   0.0003   0.0002  -0.0002  -0.0002   0.00    4.0
2022/02/06 00:47:30.000  -2478003.5393  -4655348.8914   3577932.3517   1   9   0.0003   0.0004   0.0003   0.0002  -0.0002  -0.0002   0.00    4.1
2022/02/06 00:48:00.000  -2478003.5393  -4655348.8914   3577932.3517   1   9   0.0003   0.0004   0.0003   0.0002  -0.0002  -0.0002   0.00    4.2
2022/02/06 00:48:30.000  -2478003.5394  -4655348.8915   3577932.3517   1   9   0.0003   0.0004   0.0003   0.0002  -0.0002  -0.0002   0.00    4.3
2022/02/06 00:49:00.000  -2478003.5394  -4655348.8915   3577932.3517   1   9   0.0003   0.0004   0.0003   0.0002  -0.0002  -0.0002   0.00    4.5
2022/02/06 00:49:30.000  -2478003.5394  -4655348.8915   3577932.3517   1   9   0.0003   0.0004   0.0003   0.0002  -0.0002  -0.0002   0.00    4.7
2022/02/06 00:50:00.000  -2478003.5394  -4655348.8915   3577932.3516   1   9   0.0003   0.0004   0.0003   0.0002  -0.0002  -0.0002   0.00    5.0
2022/02/06 00:50:30.000  -2478003.5395  -4655348.8915   3577932.3516   1   9   0.0003   0.0004   0.0003   0.0002  -0.0002  -0.0002   0.00    5.3
2022/02/06 00:51:00.000  -2478003.5395  -4655348.8915   3577932.3516   1   9   0.0003   0.0004   0.0003   0.0002  -0.0002  -0.0002   0.00    5.6
2022/02/06 00:51:30.000  -2478003.5396  -4655348.8915   3577932.3516   1   9   0.0003   0.0004   0.0003   0.0002  -0.0002  -0.0002   0.00    6.0
2022/02/06 00:52:00.000  -2478003.5396  -4655348.8915   3577932.3516   1   9   0.0003   0.0004   0.0003   0.0002  -0.0002  -0.0002   0.00    6.3
2022/02/06 00:52:30.000  -2478003.5397  -4655348.8915   3577932.3515   1   9   0.0003   0.0004   0.0003   0.0002  -0.0002  -0.0002   0.00    6.6
2022/02/06 00:53:00.000  -2478003.5398  -4655348.8915   3577932.3515   1   9   0.0003   0.0004   0.0003   0.0002  -0.0002  -0.0002   0.00    7.0
2022/02/06 00:53:30.000  -2478003.5398  -4655348.8914   3577932.3515   1   9   0.0003   0.0004   0.0003   0.0002  -0.0002  -0.0002   0.00    7.3
2022/02/06 00:54:00.000  -2478003.5399  -4655348.8914   3577932.3515   1   9   0.0003   0.0004   0.0003   0.0002  -0.0002  -0.0002   0.00    7.6
2022/02/06 00:54:30.000  -2478003.5399  -4655348.8914   3577932.3514   1   9   0.0003   0.0004   0.0003   0.0002  -0.0002  -0.0002   0.00    7.8
2022/02/06 00:55:00.000  -2478003.5400  -4655348.8913   3577932.3514   1   9   0.0003   0.0004   0.0003   0.0002  -0.0002  -0.0002   0.00    8.1
2022/02/06 00:55:30.000  -2478003.5401  -4655348.8913   3577932.3514   1   9   0.0003   0.0004   0.0003   0.0002  -0.0002  -0.0002   0.00    8.3
2022/02/06 00:56:00.000  -2478003.5401  -4655348.8913   3577932.3514   1   9   0.0003   0.0004   0.0003   0.0002  -0.0002  -0.0002   0.00    8.4
2022/02/06 00:56:30.000  -2478003.5402  -4655348.8913   3577932.3514   1   9   0.0003   0.0004   0.0003   0.0002  -0.0002  -0.0002   0.00    8.6
2022/02/06 00:57:00.000  -2478003.5402  -4655348.8912   3577932.3513   1   9   0.0003   0.0004   0.0003   0.0002  -0.0002  -0.0002   0.00    8.7
2022/02/06 00:57:30.000  -2478003.5403  -4655348.8912   3577932.3513   1   9   0.0003   0.0004   0.0003   0.0002  -0.0002  -0.0002   0.00    8.9
2022/02/06 00:58:00.000  -2478003.5403  -4655348.8912   3577932.3513   1   9   0.0003   0.0004   0.0003   0.0002  -0.0002  -0.0002   0.00    9.1
2022/02/06 00:58:30.000  -2478003.5404  -4655348.8912   3577932.3513   1   9   0.0003   0.0004   0.0003   0.0002  -0.0002  -0.0002   0.00    9.3
2022/02/06 00:59:00.000  -2478003.5404  -4655348.8912   3577932.3513   1   9   0.0003   0.0004   0.0003   0.0002  -0.0002  -0.0002   0.00    9.5
2022/02/06 00:59:30.000  -2478003.5405  -4655348.8912   3577932.3512   1   9   0.0003   0.0004   0.0003   0.0002  -0.0002  -0.0002   0.00    9.8
2022/02/06 01:00:00.000  -2478003.5405  -4655348.8912   3577932.3512   1   9   0.0003   0.0004   0.0003   0.0002  -0.0002  -0.0002   0.00   10.1
2022/02/06 01:00:30.000  -2478003.5405  -4655348.8912   3577932.3512   1   9   0.0003   0.0004   0.0003   0.0002  -0.0002  -0.0002   0.00   10.4
2022/02/06 01:01:00.000  -2478003.5406  -4655348.8912   3577932.3512   1   9   0.0003   0.0004   0.0003   0.0002  -0.0002  -0.0002   0.00   10.6
2022/02/06 01:01:30.000  -2478003.5406  -4655348.8912   3577932.3512   1   9   0.0003   0.0004   0.0003   0.0002  -0.0002  -0.0002   0.00   11.0
2022/02/06 01:02:00.000  -2478003.5407  -4655348.8912   3577932.3511   1   9   0.0003   0.0004   0.0003   0.0002  -0.0002  -0.0002   0.00   11.4
2022/02/06 01:02:30.000  -2478003.5420  -4655348.8950   3577932.3669   1   9   0.0008   0.0011   0.0008   0.0008  -0.0008  -0.0006   0.00   11.7
2022/02/06 01:03:00.000  -2478003.5423  -4655348.8951   3577932.3669   1   9   0.0008   0.0011   0.0008   0.0008  -0.0008  -0.0006   0.00   11.9
2022/02/06 01:03:30.000  -2478003.5426  -4655348.8953   3577932.3669   1   9   0.0008   0.0011   0.0008   0.0008  -0.0008  -0.0006   0.00   12.2
2022/02/06 01:04:00.000  -2478003.5430  -4655348.8955   3577932.3669   1   9   0.0008   0.0011   0.0008   0.0008  -0.0008  -0.0006   0.00   12.4
2022/02/06 01:04:30.000  -2478003.5432  -4655348.8957   3577932.3669   1   9   0.0008   0.0011   0.0008   0.0008  -0.0008  -0.0006   0.00   12.7
2022/02/06 01:05:00.000  -2478003.5435  -4655348.8961   3577932.3670   1   9   0.0008   0.0011   0.0008   0.0008  -0.0008  -0.0006   0.00   13.0
2022/02/06 01:05:30.000  -2478003.5437  -4655348.8964   3577932.3671   1   9   0.0008   0.0011   0.0008   0.0008  -0.0008  -0.0006   0.00   13.2
2022/02/06 01:06:00.000  -2478003.5439  -4655348.8966   3577932.3672   1   9   0.0008   0.0011   0.0008   0.0007  -0.0008  -0.0006   0.00   13.5
2022/02/06 01:06:30.000  -2478003.5441  -4655348.8969   3577932.3674   1   9   0.0007   0.0011   0.0008   0.0007  -0.0008  -0.0006   0.00   13.9
2022/02/06 01:07:00.000  -2478003.5443  -4655348.8972   3577932.3674   1   9   0.0007   0.0011   0.0008   0.0007  -0.0008  -0.0006   0.00   14.2
2022/02/06 01:07:30.000  -2478003.5446  -4655348.8976   3577932.3675   1   9   0.0007   0.0011   0.0008   0.0007  -0.0008  -0.0006   0.00   14.5
2022/02/06 01:08:00.000  -2478003.5448  -4655348.8980   3577932.3677   1   9   0.0007   0.0011   0.0008   0.0007  -0.0008  -0.0006   0.00   14.9
2022/02/06 01:08:30.000  -2478003.5449  -4655348.8983   3577932.3678   1   9   0.0007   0.0011   0.0008   0.0007  -0.0008  -0.0006   0.00   15.3
2022/02/06 01:09:00.000  -2478003.5449  -4655348.8985   3577932.3679   1   9   0.0007   0.0011   0.0008   0.0007  -0.0008  -0.0006   0.00   15.7
2022/02/06 01:09:30.000  -2478003.5451  -4655348.8988   3577932.3682   1   9   0.0007   0.0011   0.0008   0.0007  -0.0008  -0.0006   0.00   16.1
2022/02/06 01:10:00.000  -2478003.5452  -4655348.8991   3577932.3684   1   9   0.0007   0.0011   0.0008   0.0007  -0.0008  -0.0006   0.00   16.5
2022/02/06 01:10:30.000  -2478003.5454  -4655348.8995   3577932.3687   1   9   0.0007   0.0011   0.0008   0.0007  -0.0008  -0.0006   0.00   16.9
2022/02/06 01:11:00.000  -2478003.5457  -4655348.9001   3577932.3690   1   9   0.0007   0.0011   0.0008   0.0007  -0.0008  -0.0006   0.00   17.2
2022/02/06 01:11:30.000  -2478003.5460  -4655348.9006   3577932.3693   1   9   0.0007   0.0011   0.0008   0.0007  -0.0008  -0.0006   0.00   17.5
2022/02/06 01:12:00.000  -2478003.5462  -4655348.9011   3577932.3695   1   9   0.0007   0.0011   0.0008   0.0007  -0.0008  -0.0006   0.00   18.0
2022/02/06 01:12:30.000  -2478003.5464  -4655348.9015   3577932.3698   1   9   0.0007   0.0011   0.0008   0.0007  -0.0008  -0.0006   0.00   18.4
2022/02/06 01:13:00.000  -2478003.5466  -4655348.9020   3577932.3701   1   9   0.0007   0.0011   0.0008   0.0007  -0.0008  -0.0006   0.00   19.0
2022/02/06 01:13:30.000  -2478003.5468  -4655348.9025   3577932.3703   1   9   0.0007   0.0011   0.0008   0.0007  -0.0008  -0.0006   0.00   19.5
2022/02/06 01:14:00.000  -2478003.5471  -4655348.9031   3577932.3704   1   9   0.0007   0.0011   0.0008   0.0007  -0.0008  -0.0006   0.00   19.6
2022/02/06 01:14:30.000  -2478003.5474  -4655348.9036   3577932.3705   1   9   0.0007   0.0010   0.0008   0.0007  -0.0008  -0.0006   0.00   20.0
2022/02/06 01:15:00.000  -2478003.5477  -4655348.9041   3577932.3706   1   9   0.0007   0.0010   0.0008   0.0007  -0.0008  -0.0006   0.00   20.4
2022/02/06 01:15:30.000  -2478003.5415  -4655348.8915   3577932.3506   1   8   0.0003   0.0004   0.0003   0.0002  -0.0002  -0.0002   0.00   22.1
2022/02/06 01:16:00.000  -2478003.5415  -4655348.8915   3577932.3506   1   8   0.0003   0.0004   0.0003   0.0002  -0.0002  -0.0002   0.00   22.4
2022/02/06 01:16:30.000  -2478003.5416  -4655348.8915   3577932.3506   1   8   0.0003   0.0004   0.0003   0.0002  -0.0002  -0.0002   0.00   22.8
2022/02/06 01:17:00.000  -2478003.5416  -4655348.8915   3577932.3506   1   8   0.0003   0.0004   0.0003   0.0002  -0.0002  -0.0002   0.00   23.1
2022/02/06 01:17:30.000  -2478003.5417  -4655348.8914   3577932.3506   1   8   0.0003   0.0004   0.0003   0.0002  -0.0002  -0.0002   0.00   23.3
2022/02/06 01:18:00.000  -2478003.5417  -4655348.8914   3577932.3506   1   8   0.0003   0.0004   0.0003   0.0002  -0.0002  -0.0002   0.00   23.6
2022/02/06 01:18:30.000  -2478003.5418  -4655348.8914   3577932.3506   1   8   0.0003   0.0004   0.0003   0.0002  -0.0002  -0.0002   0.00   23.5
2022/02/06 01:19:00.000  -2478003.5418  -4655348.8914   3577932.3506   1   8   0.0003   0.0004   0.0003   0.0002  -0.0002  -0.0002   0.00   23.5
2022/02/06 01:19:30.000  -2478003.5419  -4655348.8914   3577932.3506   1   8   0.0003   0.0004   0.0003   0.0001  -0.0002  -0.0002   0.00   23.1
2022/02/06 01:20:00.000  -2478003.5419  -4655348.8914   3577932.3505   1   8   0.0003   0.0004   0.0003   0.0001  -0.0002  -0.0002   0.00   22.8
2022/02/06 01:20:30.000  -2478003.5420  -4655348.8914   3577932.3505   1   8   0.0003   0.0004   0.0003   0.0001  -0.0002  -0.0002   0.00   22.3
2022/02/06 01:21:00.000  -2478003.5420  -4655348.8914   3577932.3505   1   8   0.0003   0.0004   0.0003   0.0001  -0.0002  -0.0002   0.00   21.8
2022/02/06 01:21:30.000  -2478003.5420  -4655348.8914   3577932.3505   1   8   0.0003   0.0004   0.0003   0.0001  -0.0002  -0.0002   0.00   21.3
2022/02/06 01:22:00.000  -2478003.5421  -4655348.8914   3577932.3505   1   8   0.0003   0.0004   0.0003   0.0001  -0.0002  -0.0002   0.00   20.6
2022/02/06 01:22:30.000  -2478003.5421  -4655348.8914   3577932.3505   1   8   0.0003   0.0004   0.0003   0.0001  -0.0002  -0.0002   0.00   20.1
2022/02/06 01:23:00.000  -2478003.5421  -4655348.8914   3577932.3505   1   8   0.0003   0.0004   0.0003   0.0001  -0.0002  -0.0002   0.00   19.6
2022/02/06 01:23:30.000  -2478003.5422  -4655348.8915   3577932.3505   1   8   0.0003   0.0004   0.0003   0.0001  -0.0002  -0.0002   0.00   19.1
2022/02/06 01:24:00.000  -2478003.5422  -4655348.8915   3577932.3505   1   8   0.0003   0.0004   0.0003   0.0001  -0.0002  -0.0002   0.00   18.7
2022/02/06 01:24:30.000  -2478003.5422  -4655348.8915   3577932.3506   1   8   0.0003   0.0004   0.0003   0.0001  -0.0002  -0.0002   0.00   18.3
2022/02/06 01:25:00.000  -2478003.5423  -4655348.8916   3577932.3505   1   8   0.0003   0.0004   0.0003   0.0001  -0.0002  -0.0002   0.00   17.8
2022/02/06 01:25:30.000  -2478003.5423  -4655348.8916   3577932.3505   1   8   0.0003   0.0004   0.0003   0.0001  -0.0002  -0.0002   0.00   17.5
2022/02/06 01:26:00.000  -2478003.5423  -4655348.8916   3577932.3505   1   8   0.0003   0.0004   0.0003   0.0001  -0.0002  -0.0002   0.00   17.2
2022/02/06 01:26:30.000  -2478003.5423  -4655348.8917   3577932.3505   1   8   0.0003   0.0004   0.0003   0.0001  -0.0002  -0.0002   0.00   16.8
2022/02/06 01:27:00.000  -2478003.5423  -4655348.8917   3577932.3506   1   8   0.0003   0.0004   0.0003   0.0001  -0.0002  -0.0002   0.00   16.6
2022/02/06 01:27:30.000  -2478003.5423  -4655348.8917   3577932.3506   1   8   0.0003   0.0004   0.0003   0.0001  -0.0002  -0.0002   0.00   16.4
2022/02/06 01:28:00.000  -2478003.5424  -4655348.8918   3577932.3506   1   8   0.0003   0.0004   0.0003   0.0001  -0.0002  -0.0002   0.00   16.3
2022/02/06 01:28:30.000  -2478003.5424  -4655348.8918   3577932.3506   1   8   0.0003   0.0004   0.0003   0.0001  -0.0002  -0.0002   0.00   16.2
2022/02/06 01:29:00.000  -2478003.5424  -4655348.8918   3577932.3506   1   8   0.0003   0.0004   0.0003   0.0001  -0.0002  -0.0002   0.00   16.2
2022/02/06 01:29:30.000  -2478003.5425  -4655348.8919   3577932.3506   1   8   0.0003   0.0004   0.0003   0.0001  -0.0002  -0.0002   0.00   16.1
2022/02/06 01:30:00.000  -2478003.5425  -4655348.8919   3577932.3506   1   8   0.0003   0.0004   0.0003   0.0001  -0.0002  -0.0002   0.00   16.1
2022/02/06 01:30:30.000  -2478003.5425  -4655348.8919   3577932.3506   1   8   0.0003   0.0004   0.0003   0.0001  -0.0002  -0.0002   0.00   16.1
2022/02/06 01:31:00.000  -2478003.5426  -4655348.8920   3577932.3506   1   8   0.0003   0.0004   0.0003   0.0001  -0.0002  -0.0002   0.00   16.0
2022/02/06 01:31:30.000  -2478003.5426  -4655348.8920   3577932.3506   1   8   0.0003   0.0004   0.0003   0.0001  -0.0002  -0.0002   0.00   15.9
2022/02/06 01:32:00.000  -2478003.5426  -4655348.8920   3577932.3506   1   8   0.0003   0.0004   0.0003   0.0001  -0.0002  -0.0002   0.00   15.8
2022/02/06 01:32:30.000  -2478003.5427  -4655348.8921   3577932.3506   1   8   0.0003   0.0004   0.0003   0.0001  -0.0002  -0.0002   0.00   15.7
2022/02/06 01:33:00.000  -2478003.5427  -4655348.8921   3577932.3506   1   8   0.0003   0.0004   0.0003   0.0001  -0.0002  -0.0002   0.00   15.6
2022/02/06 01:33:30.000  -2478003.5556  -4655348.9079   3577932.3741   1   8   0.0007   0.0010   0.0009   0.0006  -0.0008  -0.0006   0.00   15.4
2022/02/06 01:34:00.000  -2478003.5557  -4655348.9080   3577932.3742   1   8   0.0007   0.0010   0.0009   0.0006  -0.0008  -0.0006   0.00   15.2
2022/02/06 01:34:30.000  -2478003.5558  -4655348.9081   3577932.3742   1   8   0.0007   0.0010   0.0009   0.0006  -0.0008  -0.0006   0.00   15.0
2022/02/06 01:35:00.000  -2478003.5560  -4655348.9083   3577932.3743   1   8   0.0007   0.0010   0.0009   0.0006  -0.0008  -0.0006   0.00   15.0
2022/02/06 01:35:30.000  -2478003.5561  -4655348.9084   3577932.3744   1   8   0.0007   0.0010   0.0009   0.0006  -0.0008  -0.0006   0.00   15.0
2022/02/06 01:36:00.000  -2478003.5562  -4655348.9084   3577932.3744   1   8   0.0007   0.0010   0.0009   0.0006  -0.0008  -0.0006   0.00   14.9
2022/02/06 01:36:30.000  -2478003.5563  -4655348.9084   3577932.3744   1   8   0.0007   0.0010   0.0009   0.0006  -0.0008  -0.0006   0.00   14.9
2022/02/06 01:37:00.000  -2478003.5564  -4655348.9085   3577932.3745   1   8   0.0007   0.0010   0.0009   0.0006  -0.0008  -0.0006   0.00   14.9
2022/02/06 01:37:30.000  -2478003.5565  -4655348.9086   3577932.3746   1   8   0.0007   0.0010   0.0009   0.0006  -0.0008  -0.0006   0.00   14.7
2022/02/06 01:38:00.000  -2478003.5565  -4655348.9086   3577932.3746   1   8   0.0006   0.0010   0.0009   0.0006  -0.0008  -0.0006   0.00   14.8
2022/02/06 01:38:30.000  -2478003.5566  -4655348.9087   3577932.3747   1   8   0.0006   0.0010   0.0009   0.0006  -0.0008  -0.0006   0.00   14.8
2022/02/06 01:39:00.000  -2478003.5567  -4655348.9088   3577932.3748   1   8   0.0006   0.0010   0.0009   0.0006  -0.0008  -0.0006   0.00   15.0
2022/02/06 01:39:30.000  -2478003.5568  -4655348.9089   3577932.3749   1   8   0.0006   0.0010   0.0009   0.0006  -0.0008  -0.0006   0.00   15.1
2022/02/06 01:40:00.000  -2478003.5569  -4655348.9090   3577932.3749   1   8   0.0006   0.0010   0.0009   0.0006  -0.0008  -0.0006   0.00   15.4
2022/02/06 01:40:30.000  -2478003.5571  -4655348.9092   3577932.3750   1   8   0.0006   0.0010   0.0009   0.0006  -0.0008  -0.0006   0.00   15.7
2022/02/06 01:41:00.000  -2478003.5573  -4655348.9093   3577932.3751   1   8   0.0006   0.0010   0.0009   0.0006  -0.0008  -0.0006   0.00   16.0
2022/02/06 01:41:30.000  -2478003.5575  -4655348.9095   3577932.3752   1   8   0.0006   0.0010   0.0009   0.0006  -0.0008  -0.0006   0.00   16.2
2022/02/06 01:42:00.000  -2478003.5577  -4655348.9097   3577932.3753   1   8   0.0006   0.0010   0.0009   0.0006  -0.0008  -0.0006   0.00   16.5
2022/02/06 01:42:30.000  -2478003.5579  -4655348.9099   3577932.3754   1   8   0.0006   0.0010   0.0009   0.0006  -0.0008  -0.0006   0.00   16.9
2022/02/06 01:43:00.000  -2478003.5581  -4655348.9102   3577932.3756   1   8   0.0006   0.0010   0.0009   0.0006  -0.0008  -0.0006   0.00   17.2
2022/02/06 01:43:30.000  -2478003.5583  -4655348.9103   3577932.3756   1   8   0.0006   0.0010   0.0009   0.0006  -0.0008  -0.0006   0.00   17.6
2022/02/06 01:44:00.000  -2478003.5584  -4655348.9105   3577932.3757   1   8   0.0006   0.0010   0.0009   0.0006  -0.0008  -0.0006   0.00   18.0
2022/02/06 01:44:30.000  -2478003.5585  -4655348.9106   3577932.3758   1   8   0.0006   0.0010   0.0009   0.0006  -0.0008  -0.0006   0.00   18.4
2022/02/06 01:45:00.000  -2478003.5586  -4655348.9108   3577932.3759   1   8   0.0006   0.0010   0.0009   0.0006  -0.0008  -0.0005   0.00   18.6
2022/02/06 01:45:30.000  -2478003.5586  -4655348.9110   3577932.3759   1   8   0.0006   0.0010   0.0009   0.0006  -0.0008  -0.0005   0.00   19.1
2022/02/06 01:46:00.000  -2478003.5587  -4655348.9112   3577932.3761   1   8   0.0006   0.0010   0.0009   0.0006  -0.0008  -0.0005   0.00   19.3
2022/02/06 01:46:30.000  -2478003.5587  -4655348.9114   3577932.3761   1   8   0.0006   0.0010   0.0009   0.0006  -0.0008  -0.0005   0.00   19.5
2022/02/06 01:47:00.000  -2478003.5587  -4655348.9116   3577932.3762   1   8   0.0006   0.0010   0.0009   0.0006  -0.0008  -0.0005   0.00   19.8
2022/02/06 01:47:30.000  -2478003.5586  -4655348.9118   3577932.3763   1   8   0.0006   0.0010   0.0009   0.0005  -0.0008  -0.0005   0.00   20.1
2022/02/06 01:48:00.000  -2478003.5586  -4655348.9121   3577932.3764   1   8   0.0006   0.0010   0.0009   0.0005  -0.0008  -0.0005   0.00   20.4
2022/02/06 01:48:30.000  -2478003.5586  -4655348.9124   3577932.3765   1   8   0.0006   0.0010   0.0009   0.0005  -0.0008  -0.0005   0.00   20.8
2022/02/06 01:49:00.000  -2478003.5586  -4655348.9127   3577932.3766   1   8   0.0006   0.0010   0.0009   0.0005  -0.0008  -0.0005   0.00   21.0
2022/02/06 01:49:30.000  -2478003.5586  -4655348.9130   3577932.3767   1   8   0.0006   0.0010   0.0009   0.0005  -0.0008  -0.0005   0.00   21.1
2022/02/06 01:50:00.000  -2478003.5586  -4655348.9132   3577932.3768   1   8   0.0006   0.0010   0.0009   0.0005  -0.0008  -0.0005   0.00   21.3
2022/02/06 01:50:30.000  -2478003.5412  -4655348.8936   3577932.3514   1   7   0.0003   0.0004   0.0003   0.0001  -0.0002  -0.0002   0.00   24.4
2022/02/06 01:51:00.000  -2478003.5412  -4655348.8937   3577932.3514   1   7   0.0003   0.0004   0.0003   0.0001  -0.0002  -0.0002   0.00   24.6
2022/02/06 01:51:30.000  -2478003.5412  -4655348.8937   3577932.3514   1   7   0.0003   0.0004   0.0003   0.0001  -0.0002  -0.0002   0.00   24.9
2022/02/06 01:52:00.000  -2478003.5412  -4655348.8938   3577932.3515   1   7   0.0003   0.0004   0.0003   0.0001  -0.0002  -0.0002   0.00   25.2
2022/02/06 01:52:30.000  -2478003.5412  -4655348.8938   3577932.3515   1   7   0.0003   0.0004   0.0003   0.0001  -0.0002  -0.0002   0.00   25.3
2022/02/06 01:53:00.000  -2478003.5412  -4655348.8939   3577932.3515   1   7   0.0003   0.0004   0.0003   0.0001  -0.0002  -0.0002   0.00   25.0
2022/02/06 01:53:30.000  -2478003.5412  -4655348.8939   3577932.3516   1   7   0.0003   0.0004   0.0003   0.0001  -0.0002  -0.0002   0.00   24.8
2022/02/06 01:54:00.000  -2478003.5412  -4655348.8940   3577932.3516   1   7   0.0003   0.0004   0.0003   0.0001  -0.0002  -0.0002   0.00   24.7
2022/02/06 01:54:30.000  -2478003.5412  -4655348.8940   3577932.3516   1   7   0.0003   0.0004   0.0003   0.0001  -0.0002  -0.0002   0.00   24.5
2022/02/06 01:55:00.000  -2478003.5412  -4655348.8941   3577932.3517   1   7   0.0003   0.0004   0.0003   0.0001  -0.0002  -0.0002   0.00   24.3
2022/02/06 01:55:30.000  -2478003.5412  -4655348.8941   3577932.3517   1   7   0.0003   0.0004   0.0003   0.0001  -0.0002  -0.0002   0.00   23.9
2022/02/06 01:56:00.000  -2478003.5412  -4655348.8942   3577932.3517   1   7   0.0003   0.0004   0.0003   0.0001  -0.0002  -0.0002   0.00   23.2
2022/02/06 01:56:30.000  -2478003.5412  -4655348.8942   3577932.3518   1   7   0.0003   0.0004   0.0003   0.0001  -0.0002  -0.0002   0.00   22.4
2022/02/06 01:57:00.000  -2478003.5412  -4655348.8943   3577932.3518   1   7   0.0003   0.0004   0.0003   0.0001  -0.0002  -0.0002   0.00   21.7
2022/02/06 01:57:30.000  -2478003.5412  -4655348.8943   3577932.3518   1   7   0.0003   0.0004   0.0003   0.0001  -0.0002  -0.0002   0.00   20.9
2022/02/06 01:58:00.000  -2478003.5412  -4655348.8943   3577932.3518   1   7   0.0003   0.0004   0.0003   0.0001  -0.0002  -0.0002   0.00   20.3
2022/02/06 01:58:30.000  -2478003.5412  -4655348.8944   3577932.3519   1   7   0.0003   0.0004   0.0003   0.0001  -0.0002  -0.0002   0.00   19.9
2022/02/06 01:59:00.000  -2478003.5412  -4655348.8944   3577932.3519   1   7   0.0003   0.0004   0.0003   0.0001  -0.0002  -0.0002   0.00   19.7
2022/02/06 01:59:30.000  -2478003.5412  -4655348.8944   3577932.3519   1   7   0.0003   0.0004   0.0003   0.0001  -0.0002  -0.0002   0.00   19.6
2022/02/06 02:00:00.000  -2478003.5412  -4655348.8945   3577932.3519   1   7   0.0003   0.0004   0.0003   0.0001  -0.0002  -0.0002   0.00   19.6
2022/02/06 02:00:30.000  -2478003.5412  -4655348.8945   3577932.3520   1   7   0.0003   0.0004   0.0003   0.0001  -0.0002  -0.0002   0.00   19.5
2022/02/06 02:01:00.000  -2478003.5559  -4655348.9184   3577932.3803   1   7   0.0006   0.0010   0.0008   0.0005  -0.0007  -0.0005   0.00   19.4
2022/02/06 02:01:30.000  -2478003.5559  -4655348.9188   3577932.3805   1   7   0.0006   0.0010   0.0008   0.0005  -0.0007  -0.0005   0.00   19.2
2022/02/06 02:02:00.000  -2478003.5557  -4655348.9190   3577932.3806   1   7   0.0006   0.0010   0.0008   0.0005  -0.0007  -0.0005   0.00   18.9
2022/02/06 02:02:30.000  -2478003.5349  -4655348.8929   3577932.3500   2   8   0.0005   0.0005   0.0003  -0.0002  -0.0002  -0.0002   0.00    1.0
2022/02/06 02:03:00.000  -2478003.5349  -4655348.8929   3577932.3500   2   8   0.0005   0.0005   0.0003  -0.0002  -0.0002  -0.0002   0.00    1.0
2022/02/06 02:03:30.000  -2478003.5349  -4655348.8929   3577932.3500   2   8   0.0005   0.0005   0.0003  -0.0002  -0.0002  -0.0002   0.00    1.0
2022/02/06 02:04:00.000  -2478003.5350  -4655348.8929   3577932.3501   2   8   0.0005   0.0005   0.0003  -0.0002  -0.0002  -0.0002   0.00    1.0
2022/02/06 02:04:30.000  -2478003.5350  -4655348.8929   3577932.3501   2   8   0.0005   0.0005   0.0003  -0.0002  -0.0002  -0.0002   0.00    1.1
2022/02/06 02:05:00.000  -2478003.5350  -4655348.8928   3577932.3501   2   8   0.0005   0.0005   0.0003  -0.0002  -0.0002  -0.0002   0.00    1.1
2022/02/06 02:05:30.000  -2478003.5350  -4655348.8928   3577932.3501   2   9   0.0005   0.0005   0.0003  -0.0002  -0.0002  -0.0002   0.00    1.1
2022/02/06 02:06:00.000  -2478003.5351  -4655348.8928   3577932.3501   2   9   0.0005   0.0005   0.0003  -0.0002  -0.0002  -0.0002   0.00    1.3
2022/02/06 02:06:30.000  -2478003.5351  -4655348.8927   3577932.3501   2   9   0.0005   0.0005   0.0003  -0.0002  -0.0002  -0.0002   0.00    1.2
2022/02/06 02:07:00.000  -2478003.5350  -4655348.8927   3577932.3500   2   9   0.0005   0.0005   0.0003  -0.0002  -0.0002  -0.0002   0.00    1.5
2022/02/06 02:07:30.000  -2478003.5350  -4655348.8926   3577932.3500   2   9   0.0005   0.0005   0.0003  -0.0002  -0.0002  -0.0002   0.00    1.6
2022/02/06 02:08:00.000  -2478003.5350  -4655348.8926   3577932.3500   2   9   0.0005   0.0005   0.0003  -0.0002  -0.0002  -0.0002   0.00    1.1
2022/02/06 02:08:30.000  -2478003.5350  -4655348.8925   3577932.3500   2   9   0.0005   0.0005   0.0003  -0.0002  -0.0002  -0.0002   0.00    1.2
2022/02/06 02:09:00.000  -2478003.5350  -4655348.8925   3577932.3500   2   9   0.0005   0.0005   0.0003  -0.0002  -0.0002  -0.0002   0.00    1.1
2022/02/06 02:09:30.000  -2478003.5350  -4655348.8925   3577932.3499   2   9   0.0005   0.0005   0.0003  -0.0002  -0.0002  -0.0002   0.00    1.3
2022/02/06 02:10:00.000  -2478003.5405  -4655348.8880   3577932.3496   1   8   0.0004   0.0004   0.0003   0.0001  -0.0002  -0.0002   0.00    6.2
2022/02/06 02:10:30.000  -2478003.5405  -4655348.8880   3577932.3496   1   8   0.0004   0.0004   0.0003   0.0001  -0.0002  -0.0002   0.00    6.1
2022/02/06 02:11:00.000  -2478003.5405  -4655348.8880   3577932.3496   1   8   0.0004   0.0004   0.0003   0.0001  -0.0002  -0.0002   0.00    6.0
2022/02/06 02:11:30.000  -2478003.5406  -4655348.8879   3577932.3496   1   8   0.0004   0.0004   0.0003   0.0001  -0.0002  -0.0002   0.00    5.9
2022/02/06 02:12:00.000  -2478003.5406  -4655348.8880   3577932.3496   1   8   0.0004   0.0004   0.0003   0.0001  -0.0002  -0.0002   0.00    5.8
2022/02/06 02:12:30.000  -2478003.5406  -4655348.8880   3577932.3496   1   8   0.0004   0.0004   0.0003   0.0001  -0.0002  -0.0002   0.00    5.7
2022/02/06 02:13:00.000  -2478003.5406  -4655348.8880   3577932.3496   1   8   0.0004   0.0004   0.0003   0.0001  -0.0002  -0.0002   0.00    5.6
2022/02/06 02:13:30.000  -2478003.5407  -4655348.8880   3577932.3496   1   8   0.0004   0.0004   0.0003   0.0001  -0.0002  -0.0002   0.00    5.5
2022/02/06 02:14:00.000  -2478003.5407  -4655348.8880   3577932.3496   1   8   0.0004   0.0004   0.0003   0.0001  -0.0002  -0.0002   0.00    5.5
2022/02/06 02:14:30.000  -2478003.5407  -4655348.8880   3577932.3496   1   8   0.0004   0.0004   0.0003   0.0001  -0.0002  -0.0002   0.00    5.4
2022/02/06 02:15:00.000  -2478003.5434  -4655348.8910   3577932.3533   1   8   0.0003   0.0004   0.0003   0.0001  -0.0002  -0.0002   0.00    3.0
2022/02/06 02:15:30.000  -2478003.5435  -4655348.8909   3577932.3533   1   8   0.0003   0.0004   0.0003   0.0001  -0.0002  -0.0002   0.00    3.1
2022/02/06 02:16:00.000  -2478003.5436  -4655348.8909   3577932.3534   1   8   0.0003   0.0004   0.0003   0.0001  -0.0002  -0.0002   0.00    3.1
2022/02/06 02:16:30.000  -2478003.5436  -4655348.8908   3577932.3534   1   8   0.0003   0.0004   0.0003   0.0001  -0.0002  -0.0002   0.00    3.1
2022/02/06 02:17:00.000  -2478003.5436  -4655348.8908   3577932.3534   1   8   0.0003   0.0004   0.0003   0.0001  -0.0002  -0.0002   0.00    3.2
2022/02/06 02:17:30.000  -2478003.5437  -4655348.8908   3577932.3534   1   8   0.0003   0.0004   0.0003   0.0001  -0.0002  -0.0002   0.00    3.2
2022/02/06 02:18:00.000  -2478003.5437  -4655348.8907   3577932.3535   1   8   0.0003   0.0004   0.0003   0.0001  -0.0002  -0.0002   0.00    3.2
2022/02/06 02:18:30.000  -2478003.5438  -4655348.8907   3577932.3535   1   8   0.0003   0.0004   0.0003   0.0001  -0.0002  -0.0002   0.00    3.2
2022/02/06 02:19:00.000  -2478003.5438  -4655348.8907   3577932.3535   1   8   0.0003   0.0004   0.0003   0.0001  -0.0002  -0.0002   0.00    3.2
2022/02/06 02:19:30.000  -2478003.5438  -4655348.8907   3577932.3536   1   8   0.0003   0.0004   0.0003   0.0001  -0.0002  -0.0002   0.00    3.2
2022/02/06 02:20:00.000  -2478003.5439  -4655348.8906   3577932.3536   1   8   0.0003   0.0004   0.0003   0.0001  -0.0002  -0.0002   0.00    3.2
2022/02/06 02:20:30.000  -2478003.5439  -4655348.8906   3577932.3536   1   8   0.0003   0.0004   0.0003   0.0001  -0.0002  -0.0002   0.00    3.3
2022/02/06 02:21:00.000  -2478003.5440  -4655348.8906   3577932.3537   1   8   0.0003   0.0004   0.0003   0.0001  -0.0002  -0.0002   0.00    3.4
2022/02/06 02:21:30.000  -2478003.5440  -4655348.8906   3577932.3537   1   8   0.0003   0.0004   0.0003   0.0001  -0.0002  -0.0002   0.00    3.5
2022/02/06 02:22:00.000  -2478003.5440  -4655348.8906   3577932.3537   1   8   0.0003   0.0004   0.0003   0.0001  -0.0002  -0.0002   0.00    3.6
2022/02/06 02:22:30.000  -2478003.5441  -4655348.8906   3577932.3537   1   8   0.0003   0.0004   0.0003   0.0001  -0.0002  -0.0002   0.00    3.7
2022/02/06 02:23:00.000  -2478003.5441  -4655348.8905   3577932.3538   1   8   0.0003   0.0004   0.0003   0.0001  -0.0002  -0.0002   0.00    3.9
2022/02/06 02:23:30.000  -2478003.5442  -4655348.8905   3577932.3538   1   8   0.0003   0.0004   0.0003   0.0001  -0.0002  -0.0002   0.00    4.1
2022/02/06 02:24:00.000  -2478003.5443  -4655348.8905   3577932.3539   1   8   0.0003   0.0004   0.0003   0.0001  -0.0002  -0.0002   0.00    4.3
2022/02/06 02:24:30.000  -2478003.5443  -4655348.8905   3577932.3539   1   8   0.0003   0.0004   0.0003   0.0001  -0.0002  -0.0002   0.00    4.5
2022/02/06 02:25:00.000  -2478003.5444  -4655348.8905   3577932.3539   1   8   0.0003   0.0004   0.0003   0.0001  -0.0002  -0.0002   0.00    4.7
2022/02/06 02:25:30.000  -2478003.5444  -4655348.8905   3577932.3539   1   8   0.0003   0.0004   0.0003   0.0001  -0.0002  -0.0002   0.00    4.9
2022/02/06 02:26:00.000  -2478003.5444  -4655348.8905   3577932.3539   1   8   0.0003   0.0004   0.0003   0.0001  -0.0002  -0.0002   0.00    5.2
2022/02/06 02:26:30.000  -2478003.5444  -4655348.8905   3577932.3540   1   8   0.0003   0.0004   0.0003   0.0001  -0.0002  -0.0002   0.00    5.5
2022/02/06 02:27:00.000  -2478003.5445  -4655348.8906   3577932.3540   1   8   0.0003   0.0004   0.0003   0.0001  -0.0002  -0.0002   0.00    5.8
2022/02/06 02:27:30.000  -2478003.5445  -4655348.8906   3577932.3540   1   8   0.0003   0.0004   0.0003   0.0001  -0.0002  -0.0002   0.00    6.0
2022/02/06 02:28:00.000  -2478003.5445  -4655348.8906   3577932.3540   1   8   0.0003   0.0004   0.0003   0.0001  -0.0002  -0.0002   0.00    6.3
2022/02/06 02:28:30.000  -2478003.5446  -4655348.8906   3577932.3541   1   8   0.0004   0.0004   0.0003   0.0001  -0.0002  -0.0002   0.00    6.6
2022/02/06 02:29:00.000  -2478003.5574  -4655348.8982   3577932.3775   1   8   0.0006   0.0008   0.0007   0.0004  -0.0005  -0.0004   0.00    6.8
2022/02/06 02:29:30.000  -2478003.5576  -4655348.8980   3577932.3775   1   8   0.0006   0.0008   0.0007   0.0004  -0.0005  -0.0004   0.00    7.0
2022/02/06 02:30:00.000  -2478003.5578  -4655348.8977   3577932.3776   1   8   0.0006   0.0008   0.0007   0.0003  -0.0005  -0.0004   0.00    7.3
2022/02/06 02:30:30.000  -2478003.5578  -4655348.8974   3577932.3776   1   8   0.0006   0.0008   0.0007   0.0003  -0.0005  -0.0004   0.00    7.5
2022/02/06 02:31:00.000  -2478003.5579  -4655348.8972   3577932.3776   1   8   0.0006   0.0008   0.0007   0.0003  -0.0005  -0.0004   0.00    7.7
2022/02/06 02:31:30.000  -2478003.5579  -4655348.8969   3577932.3776   1   8   0.0006   0.0008   0.0007   0.0003  -0.0005  -0.0004   0.00    7.8
2022/02/06 02:32:00.000  -2478003.5579  -4655348.8966   3577932.3776   1   8   0.0006   0.0008   0.0007   0.0003  -0.0005  -0.0004   0.00    8.0
2022/02/06 02:32:30.000  -2478003.5578  -4655348.8964   3577932.3777   1   8   0.0006   0.0008   0.0006   0.0003  -0.0005  -0.0004   0.00    8.1
2022/02/06 02:33:00.000  -2478003.5578  -4655348.8962   3577932.3777   1   8   0.0006   0.0008   0.0006   0.0003  -0.0005  -0.0004   0.00    8.3
2022/02/06 02:33:30.000  -2478003.5578  -4655348.8961   3577932.3778   1   8   0.0006   0.0008   0.0006   0.0003  -0.0005  -0.0003   0.00    8.4
2022/02/06 02:34:00.000  -2478003.5577  -4655348.8960   3577932.3779   1   8   0.0006   0.0008   0.0006   0.0003  -0.0005  -0.0003   0.00    8.5
2022/02/06 02:34:30.000  -2478003.5577  -4655348.8959   3577932.3780   1   8   0.0006   0.0008   0.0006   0.0003  -0.0005  -0.0003   0.00    8.6
2022/02/06 02:35:00.000  -2478003.5577  -4655348.8958   3577932.3781   1   8   0.0006   0.0008   0.0006   0.0003  -0.0005  -0.0003   0.00    8.7
2022/02/06 02:35:30.000  -2478003.5577  -4655348.8957   3577932.3782   1   8   0.0006   0.0008   0.0006   0.0003  -0.0005  -0.0003   0.00    8.9
2022/02/06 02:36:00.000  -2478003.5576  -4655348.8957   3577932.3782   1   8   0.0006   0.0008   0.0006   0.0003  -0.0005  -0.0003   0.00    9.1
2022/02/06 02:36:30.000  -2478003.5575  -4655348.8957   3577932.3782   1   8   0.0006   0.0008   0.0006   0.0003  -0.0005  -0.0003   0.00    9.4
2022/02/06 02:37:00.000  -2478003.5574  -4655348.8957   3577932.3782   1   8   0.0006   0.0008   0.0006   0.0003  -0.0005  -0.0003   0.00    9.7
2022/02/06 02:37:30.000  -2478003.5573  -4655348.8958   3577932.3782   1   8   0.0006   0.0008   0.0006   0.0003  -0.0005  -0.0003   0.00   10.0
2022/02/06 02:38:00.000  -2478003.5572  -4655348.8958   3577932.3782   1   8   0.0006   0.0008   0.0006   0.0003  -0.0005  -0.0003   0.00   10.2
2022/02/06 02:38:30.000  -2478003.5571  -4655348.8960   3577932.3783   1   8   0.0006   0.0008   0.0006   0.0003  -0.0005  -0.0003   0.00   10.5
2022/02/06 02:39:00.000  -2478003.5571  -4655348.8961   3577932.3784   1   8   0.0006   0.0008   0.0006   0.0003  -0.0005  -0.0003   0.00   10.7
2022/02/06 02:39:30.000  -2478003.5570  -4655348.8962   3577932.3785   1   8   0.0006   0.0008   0.0006   0.0003  -0.0005  -0.0003   0.00   11.0
2022/02/06 02:40:00.000  -2478003.5570  -4655348.8964   3577932.3786   1   8   0.0006   0.0008   0.0006   0.0003  -0.0005  -0.0003   0.00   11.2
2022/02/06 02:40:30.000  -2478003.5570  -4655348.8966   3577932.3787   1   8   0.0006   0.0008   0.0006   0.0003  -0.0005  -0.0003   0.00   11.5
2022/02/06 02:41:00.000  -2478003.5351  -4655348.8931   3577932.3499   2   9   0.0005   0.0005   0.0003  -0.0002  -0.0002  -0.0002   0.00    1.1
2022/02/06 02:41:30.000  -2478003.5351  -4655348.8931   3577932.3499   2   9   0.0005   0.0005   0.0003  -0.0002  -0.0002  -0.0002   0.00    1.2
2022/02/06 02:42:00.000  -2478003.5350  -4655348.8931   3577932.3500   2   9   0.0005   0.0005   0.0003  -0.0002  -0.0002  -0.0002   0.00    1.3
2022/02/06 02:42:30.000  -2478003.5350  -4655348.8932   3577932.3500   2   9   0.0005   0.0005   0.0003  -0.0002  -0.0002  -0.0002   0.00    1.3
2022/02/06 02:43:00.000  -2478003.5350  -4655348.8932   3577932.3500   2   9   0.0005   0.0005   0.0003  -0.0002  -0.0002  -0.0002   0.00    1.4
2022/02/06 02:43:30.000  -2478003.5350  -4655348.8932   3577932.3500   2   9   0.0005   0.0005   0.0003  -0.0002  -0.0002  -0.0002   0.00    1.5
2022/02/06 02:44:00.000  -2478003.5350  -4655348.8933   3577932.3500   2   9   0.0005   0.0005   0.0003  -0.0002  -0.0002  -0.0002   0.00    1.6
2022/02/06 02:44:30.000  -2478003.5350  -4655348.8933   3577932.3501   2   9   0.0005   0.0005   0.0003  -0.0002  -0.0002  -0.0002   0.00    1.7
2022/02/06 02:45:00.000  -2478003.5350  -4655348.8933   3577932.3501   2   9   0.0005   0.0005   0.0003  -0.0002  -0.0002  -0.0002   0.00    1.8
2022/02/06 02:45:30.000  -2478003.5349  -4655348.8933   3577932.3501   2   9   0.0005   0.0005   0.0003  -0.0002  -0.0002  -0.0002   0.00    1.9
2022/02/06 02:46:00.000  -2478003.5349  -4655348.8934   3577932.3501   2   9   0.0005   0.0005   0.0003  -0.0002  -0.0002  -0.0002   0.00    2.0
2022/02/06 02:46:30.000  -2478003.5349  -4655348.8934   3577932.3501   2   9   0.0005   0.0005   0.0003  -0.0002  -0.0002  -0.0002   0.00    2.1
2022/02/06 02:47:00.000  -2478003.5349  -4655348.8934   3577932.3501   2   9   0.0005   0.0005   0.0003  -0.0002  -0.0002  -0.0002   0.00    2.2
2022/02/06 02:47:30.000  -2478003.5349  -4655348.8934   3577932.3501   2   9   0.0005   0.0005   0.0003  -0.0002  -0.0002  -0.0002   0.00    2.3
2022/02/06 02:48:00.000  -2478003.5349  -4655348.8935   3577932.3501   2   9   0.0005   0.0005   0.0003  -0.0002  -0.0002  -0.0002   0.00    2.5
2022/02/06 02:48:30.000  -2478003.5349  -4655348.8935   3577932.3501   2   9   0.0005   0.0005   0.0003  -0.0002  -0.0002  -0.0002   0.00    2.6
2022/02/06 02:49:00.000  -2478003.5405  -4655348.8897   3577932.3479   1   8   0.0004   0.0004   0.0003   0.0002  -0.0002  -0.0002   0.00    8.1
2022/02/06 02:49:30.000  -2478003.5405  -4655348.8897   3577932.3479   1   8   0.0004   0.0004   0.0003   0.0002  -0.0002  -0.0002   0.00    8.0
2022/02/06 02:50:00.000  -2478003.5448  -4655348.8904   3577932.3538   1   8   0.0004   0.0004   0.0003   0.0002  -0.0002  -0.0002   0.00    3.2
2022/02/06 02:50:30.000  -2478003.5448  -4655348.8904   3577932.3538   1   8   0.0004   0.0004   0.0003   0.0002  -0.0002  -0.0002   0.00    3.3
2022/02/06 02:51:00.000  -2478003.5448  -4655348.8905   3577932.3537   1   8   0.0004   0.0004   0.0003   0.0002  -0.0002  -0.0002   0.00    3.5
2022/02/06 02:51:30.000  -2478003.5410  -4655348.8890   3577932.3486   1   9   0.0004   0.0004   0.0003   0.0002  -0.0002  -0.0002   0.00    7.3
2022/02/06 02:52:00.000  -2478003.5409  -4655348.8890   3577932.3486   1   9   0.0004   0.0004   0.0003   0.0002  -0.0002  -0.0002   0.00    7.3
2022/02/06 02:52:30.000  -2478003.5409  -4655348.8890   3577932.3485   1   9   0.0004   0.0004   0.0003   0.0002  -0.0002  -0.0002   0.00    7.2
2022/02/06 02:53:00.000  -2478003.5409  -4655348.8889   3577932.3485   1   9   0.0004   0.0004   0.0003   0.0002  -0.0002  -0.0002   0.00    7.1
2022/02/06 02:53:30.000  -2478003.5408  -4655348.8889   3577932.3485   1   9   0.0004   0.0004   0.0003   0.0002  -0.0002  -0.0002   0.00    7.1
2022/02/06 02:54:00.000  -2478003.5408  -4655348.8888   3577932.3484   1   9   0.0004   0.0004   0.0003   0.0002  -0.0002  -0.0002   0.00    7.1
2022/02/06 02:54:30.000  -2478003.5408  -4655348.8888   3577932.3484   1   9   0.0004   0.0004   0.0003   0.0002  -0.0002  -0.0002   0.00    7.0
2022/02/06 02:55:00.000  -2478003.5407  -4655348.8887   3577932.3484   1   9   0.0004   0.0004   0.0003   0.0002  -0.0002  -0.0002   0.00    7.0
2022/02/06 02:55:30.000  -2478003.5407  -4655348.8887   3577932.3483   1   9   0.0004   0.0004   0.0003   0.0002  -0.0002  -0.0002   0.00    6.9
2022/02/06 02:56:00.000  -2478003.5406  -4655348.8886   3577932.3483   1   9   0.0004   0.0004   0.0003   0.0002  -0.0002  -0.0002   0.00    6.9
2022/02/06 02:56:30.000  -2478003.5406  -4655348.8885   3577932.3483   1   9   0.0004   0.0004   0.0003   0.0002  -0.0002  -0.0002   0.00    6.8
2022/02/06 02:57:00.000  -2478003.5406  -4655348.8884   3577932.3483   1   9   0.0004   0.0004   0.0003   0.0002  -0.0002  -0.0002   0.00    6.8
2022/02/06 02:57:30.000  -2478003.5405  -4655348.8884   3577932.3482   1   9   0.0004   0.0004   0.0003   0.0002  -0.0002  -0.0002   0.00    6.7
2022/02/06 02:58:00.000  -2478003.5455  -4655348.8905   3577932.3540   1   9   0.0004   0.0004   0.0003   0.0002  -0.0002  -0.0002   0.00    3.1
2022/02/06 02:58:30.000  -2478003.5455  -4655348.8905   3577932.3540   1   9   0.0004   0.0004   0.0003   0.0002  -0.0002  -0.0002   0.00    3.2
2022/02/06 02:59:00.000  -2478003.5455  -4655348.8905   3577932.3539   1   9   0.0004   0.0004   0.0003   0.0002  -0.0002  -0.0002   0.00    3.3
2022/02/06 02:59:30.000  -2478003.5455  -4655348.8905   3577932.3539   1   9   0.0004   0.0004   0.0003   0.0002  -0.0002  -0.0002   0.00    3.5
2022/02/06 03:00:00.000  -2478003.5456  -4655348.8905   3577932.3539   1   9   0.0004   0.0004   0.0003   0.0002  -0.0002  -0.0002   0.00    3.5
2022/02/06 03:00:30.000  -2478003.5456  -4655348.8905   3577932.3539   1   9   0.0004   0.0004   0.0003   0.0002  -0.0002  -0.0002   0.00    3.6
2022/02/06 03:01:00.000  -2478003.5456  -4655348.8905   3577932.3538   1   9   0.0004   0.0004   0.0003   0.0002  -0.0002  -0.0002   0.00    3.7
2022/02/06 03:01:30.000  -2478003.5456  -4655348.8905   3577932.3538   1   9   0.0004   0.0004   0.0003   0.0002  -0.0002  -0.0002   0.00    3.8
2022/02/06 03:02:00.000  -2478003.5456  -4655348.8905   3577932.3538   1   9   0.0004   0.0004   0.0003   0.0002  -0.0002  -0.0002   0.00    3.9
2022/02/06 03:02:30.000  -2478003.5456  -4655348.8905   3577932.3538   1   9   0.0004   0.0004   0.0003   0.0002  -0.0002  -0.0002   0.00    4.1
2022/02/06 03:03:00.000  -2478003.5456  -4655348.8905   3577932.3538   1   9   0.0004   0.0004   0.0003   0.0002  -0.0002  -0.0002   0.00    4.2
2022/02/06 03:03:30.000  -2478003.5456  -4655348.8905   3577932.3538   1   9   0.0004   0.0004   0.0003   0.0002  -0.0002  -0.0002   0.00    4.4
2022/02/06 03:04:00.000  -2478003.5456  -4655348.8906   3577932.3537   1   9   0.0004   0.0004   0.0003   0.0002  -0.0002  -0.0002   0.00    4.6
2022/02/06 03:04:30.000  -2478003.5456  -4655348.8906   3577932.3537   1   9   0.0004   0.0004   0.0003   0.0002  -0.0002  -0.0002   0.00    4.8
2022/02/06 03:05:00.000  -2478003.5455  -4655348.8906   3577932.3537   1   9   0.0004   0.0004   0.0003   0.0002  -0.0002  -0.0002   0.00    5.0
2022/02/06 03:05:30.000  -2478003.5455  -4655348.8906   3577932.3537   1   9   0.0004   0.0004   0.0003   0.0002  -0.0002  -0.0002   0.00    5.2
2022/02/06 03:06:00.000  -2478003.5455  -4655348.8906   3577932.3537   1   9   0.0004   0.0004   0.0003   0.0002  -0.0002  -0.0002   0.00    5.5
2022/02/06 03:06:30.000  -2478003.5455  -4655348.8906   3577932.3537   1   9   0.0004   0.0004   0.0003   0.0002  -0.0002  -0.0002   0.00    5.7
2022/02/06 03:07:00.000  -2478003.5455  -4655348.8906   3577932.3536   1   9   0.0004   0.0004   0.0003   0.0002  -0.0002  -0.0002   0.00    6.0
2022/02/06 03:07:30.000  -2478003.5455  -4655348.8906   3577932.3536   1   9   0.0004   0.0004   0.0003   0.0002  -0.0002  -0.0002   0.00    6.3
2022/02/06 03:08:00.000  -2478003.5454  -4655348.8906   3577932.3536   1   9   0.0004   0.0004   0.0003   0.0002  -0.0002  -0.0002   0.00    6.5
2022/02/06 03:08:30.000  -2478003.5454  -4655348.8906   3577932.3536   1   9   0.0004   0.0004   0.0003   0.0002  -0.0002  -0.0002   0.00    6.8
2022/02/06 03:09:00.000  -2478003.5454  -4655348.8907   3577932.3536   1   9   0.0004   0.0004   0.0003   0.0002  -0.0002  -0.0002   0.00    7.1
2022/02/06 03:09:30.000  -2478003.5454  -4655348.8907   3577932.3535   1   9   0.0004   0.0004   0.0003   0.0002  -0.0002  -0.0002   0.00    7.3
2022/02/06 03:10:00.000  -2478003.5454  -4655348.8907   3577932.3535   1   9   0.0004   0.0004   0.0003   0.0002  -0.0002  -0.0002   0.00    7.5
2022/02/06 03:10:30.000  -2478003.5453  -4655348.8907   3577932.3535   1   9   0.0004   0.0004   0.0003   0.0002  -0.0002  -0.0002   0.00    7.6
2022/02/06 03:11:00.000  -2478003.5453  -4655348.8907   3577932.3534   1   9   0.0004   0.0004   0.0003   0.0002  -0.0002  -0.0002   0.00    7.7
2022/02/06 03:11:30.000  -2478003.5453  -4655348.8907   3577932.3534   1   9   0.0004   0.0004   0.0003   0.0002  -0.0002  -0.0002   0.00    7.7
2022/02/06 03:12:00.000  -2478003.5453  -4655348.8907   3577932.3534   1   9   0.0004   0.0004   0.0003   0.0002  -0.0002  -0.0002   0.00    7.8
2022/02/06 03:12:30.000  -2478003.5452  -4655348.8907   3577932.3533   1   9   0.0004   0.0004   0.0003   0.0002  -0.0002  -0.0002   0.00    7.8
2022/02/06 03:13:00.000  -2478003.5452  -4655348.8907   3577932.3533   1   9   0.0004   0.0004   0.0003   0.0002  -0.0002  -0.0002   0.00    7.8
2022/02/06 03:13:30.000  -2478003.5451  -4655348.8908   3577932.3533   1   9   0.0004   0.0004   0.0003   0.0002  -0.0002  -0.0002   0.00    7.8
2022/02/06 03:14:00.000  -2478003.5451  -4655348.8908   3577932.3532   1   9   0.0004   0.0004   0.0003   0.0002  -0.0002  -0.0002   0.00    7.8
2022/02/06 03:14:30.000  -2478003.5451  -4655348.8908   3577932.3532   1   9   0.0004   0.0004   0.0003   0.0002  -0.0002  -0.0002   0.00    7.8
2022/02/06 03:15:00.000  -2478003.5450  -4655348.8908   3577932.3532   1   9   0.0004   0.0004   0.0003   0.0002  -0.0002  -0.0002   0.00    7.7
2022/02/06 03:15:30.000  -2478003.5450  -4655348.8909   3577932.3531   1   9   0.0004   0.0004   0.0003   0.0002  -0.0002  -0.0002   0.00    7.7
2022/02/06 03:16:00.000  -2478003.5449  -4655348.8909   3577932.3531   1   9   0.0004   0.0004   0.0003   0.0002  -0.0002  -0.0002   0.00    7.8
2022/02/06 03:16:30.000  -2478003.5449  -4655348.8910   3577932.3531   1   9   0.0004   0.0004   0.0003   0.0002  -0.0002  -0.0002   0.00    7.9
2022/02/06 03:17:00.000  -2478003.5448  -4655348.8910   3577932.3531   1   9   0.0004   0.0004   0.0003   0.0002  -0.0002  -0.0002   0.00    8.1
2022/02/06 03:17:30.000  -2478003.5448  -4655348.8911   3577932.3530   1   9   0.0004   0.0004   0.0003   0.0002  -0.0002  -0.0002   0.00    8.4
2022/02/06 03:18:00.000  -2478003.5447  -4655348.8912   3577932.3530   1   9   0.0004   0.0004   0.0003   0.0002  -0.0002  -0.0002   0.00    8.7
2022/02/06 03:18:30.000  -2478003.5447  -4655348.8912   3577932.3530   1   9   0.0004   0.0004   0.0003   0.0002  -0.0002  -0.0002   0.00    8.9
2022/02/06 03:19:00.000  -2478003.5447  -4655348.8912   3577932.3530   1   9   0.0004   0.0004   0.0003   0.0002  -0.0002  -0.0002   0.00    9.3
2022/02/06 03:19:30.000  -2478003.5447  -4655348.8912   3577932.3529   1   9   0.0004   0.0004   0.0003   0.0002  -0.0002  -0.0002   0.00    9.6
2022/02/06 03:20:00.000  -2478003.5446  -4655348.8912   3577932.3529   1   9   0.0004   0.0004   0.0003   0.0002  -0.0002  -0.0002   0.00    9.9
2022/02/06 03:20:30.000  -2478003.5446  -4655348.8912   3577932.3529   1   9   0.0004   0.0004   0.0003   0.0002  -0.0002  -0.0002   0.00   10.1
2022/02/06 03:21:00.000  -2478003.5446  -4655348.8912   3577932.3529   1   9   0.0004   0.0004   0.0003   0.0002  -0.0002  -0.0002   0.00   10.3
2022/02/06 03:21:30.000  -2478003.5446  -4655348.8913   3577932.3529   1   9   0.0004   0.0004   0.0003   0.0002  -0.0002  -0.0002   0.00   10.6
2022/02/06 03:22:00.000  -2478003.5446  -4655348.8913   3577932.3529   1   9   0.0004   0.0004   0.0003   0.0002  -0.0002  -0.0002   0.00   10.9
2022/02/06 03:22:30.000  -2478003.5610  -4655348.9004   3577932.3691   1   9   0.0007   0.0007   0.0005   0.0004  -0.0004  -0.0003   0.00   11.2
2022/02/06 03:23:00.000  -2478003.5608  -4655348.9005   3577932.3689   1   9   0.0007   0.0007   0.0005   0.0004  -0.0004  -0.0003   0.00   11.6
