% program   : RTKPOST ver.2.4.3 b34
% inp file  : C:\Users\Danisimo\Desktop\?????\CHIL\chil0640.22o
% inp file  : C:\Users\Danisimo\Desktop\?????\BRDM00DLR_S_20220640000_01D_MN.rnx
% inp file  : C:\Users\Danisimo\Desktop\?????\igs21996.sp3
% inp file  : C:\Users\Danisimo\Desktop\?????\igs21996.clk_30s
% obs start : 2022/03/05 00:00:00.0 GPST (week2199 518400.0s)
% obs end   : 2022/03/05 23:59:30.0 GPST (week2199 604770.0s)
% pos mode  : PPP Static
% solution  : Combined
% elev mask : 15.0 deg
% dynamics  : off
% tidecorr  : on
% tropo opt : Estimate ZTD+Grad
% ephemeris : Precise
% navi sys  : GPS
% antenna1  :                       ( 0.0000  0.0000  0.6440)
%
% (x/y/z-ecef=WGS84,Q=1:fix,2:float,3:sbas,4:dgps,5:single,6:ppp,ns=# of satellites)
%  GPST                      x-ecef(m)      y-ecef(m)      z-ecef(m)   Q  ns   sdx(m)   sdy(m)   sdz(m)  sdxy(m)  sdyz(m)  sdzx(m) age(s)  ratio
2022/03/05 00:00:00.000  -2478003.7142  -4655348.7213   3577932.4391   6   9   0.0035   0.0044   0.0030   0.0022  -0.0031  -0.0022   0.00    0.0
2022/03/05 00:00:30.000  -2478003.7142  -4655348.7213   3577932.4391   6   9   0.0035   0.0044   0.0030   0.0022  -0.0031  -0.0022   0.00    0.0
2022/03/05 00:01:00.000  -2478003.7141  -4655348.7214   3577932.4392   6   9   0.0035   0.0044   0.0030   0.0022  -0.0031  -0.0022   0.00    0.0
2022/03/05 00:01:30.000  -2478003.7141  -4655348.7214   3577932.4392   6   9   0.0035   0.0044   0.0030   0.0022  -0.0031  -0.0022   0.00    0.0
2022/03/05 00:02:00.000  -2478003.7141  -4655348.7215   3577932.4392   6   9   0.0035   0.0044   0.0030   0.0022  -0.0031  -0.0022   0.00    0.0
2022/03/05 00:02:30.000  -2478003.7141  -4655348.7216   3577932.4393   6   9   0.0035   0.0044   0.0030   0.0022  -0.0031  -0.0022   0.00    0.0
2022/03/05 00:03:00.000  -2478003.7140  -4655348.7217   3577932.4393   6   9   0.0035   0.0044   0.0030   0.0022  -0.0031  -0.0022   0.00    0.0
2022/03/05 00:03:30.000  -2478003.7140  -4655348.7217   3577932.4393   6   9   0.0035   0.0044   0.0030   0.0022  -0.0031  -0.0022   0.00    0.0
2022/03/05 00:04:00.000  -2478003.7140  -4655348.7217   3577932.4393   6   9   0.0035   0.0044   0.0030   0.0022  -0.0031  -0.0022   0.00    0.0
2022/03/05 00:04:30.000  -2478003.7140  -4655348.7218   3577932.4393   6   8   0.0035   0.0044   0.0030   0.0022  -0.0031  -0.0022   0.00    0.0
2022/03/05 00:05:00.000  -2478003.7139  -4655348.7218   3577932.4393   6   8   0.0035   0.0044   0.0030   0.0022  -0.0031  -0.0022   0.00    0.0
2022/03/05 00:05:30.000  -2478003.7139  -4655348.7219   3577932.4393   6   8   0.0035   0.0044   0.0030   0.0022  -0.0031  -0.0022   0.00    0.0
2022/03/05 00:06:00.000  -2478003.7139  -4655348.7219   3577932.4394   6   8   0.0035   0.0044   0.0030   0.0022  -0.0031  -0.0022   0.00    0.0
2022/03/05 00:06:30.000  -2478003.7140  -4655348.7220   3577932.4395   6   8   0.0035   0.0044   0.0030   0.0022  -0.0031  -0.0022   0.00    0.0
2022/03/05 00:07:00.000  -2478003.7140  -4655348.7220   3577932.4395   6   8   0.0035   0.0044   0.0030   0.0022  -0.0031  -0.0022   0.00    0.0
2022/03/05 00:07:30.000  -2478003.7140  -4655348.7221   3577932.4396   6   8   0.0035   0.0044   0.0030   0.0022  -0.0031  -0.0022   0.00    0.0
2022/03/05 00:08:00.000  -2478003.7139  -4655348.7221   3577932.4396   6   8   0.0035   0.0044   0.0030   0.0022  -0.0031  -0.0022   0.00    0.0
2022/03/05 00:08:30.000  -2478003.7139  -4655348.7221   3577932.4396   6   8   0.0035   0.0044   0.0030   0.0022  -0.0031  -0.0022   0.00    0.0
2022/03/05 00:09:00.000  -2478003.7139  -4655348.7222   3577932.4397   6   8   0.0035   0.0044   0.0030   0.0022  -0.0031  -0.0022   0.00    0.0
2022/03/05 00:09:30.000  -2478003.7139  -4655348.7222   3577932.4397   6   8   0.0035   0.0044   0.0030   0.0022  -0.0031  -0.0022   0.00    0.0
2022/03/05 00:10:00.000  -2478003.7139  -4655348.7223   3577932.4397   6   8   0.0035   0.0044   0.0030   0.0022  -0.0031  -0.0023   0.00    0.0
2022/03/05 00:10:30.000  -2478003.7139  -4655348.7223   3577932.4397   6   8   0.0035   0.0044   0.0030   0.0022  -0.0031  -0.0023   0.00    0.0
2022/03/05 00:11:00.000  -2478003.7138  -4655348.7223   3577932.4397   6   8   0.0035   0.0044   0.0031   0.0022  -0.0031  -0.0023   0.00    0.0
2022/03/05 00:11:30.000  -2478003.7138  -4655348.7224   3577932.4397   6   8   0.0035   0.0044   0.0031   0.0022  -0.0031  -0.0023   0.00    0.0
2022/03/05 00:12:00.000  -2478003.7138  -4655348.7224   3577932.4397   6   8   0.0035   0.0044   0.0031   0.0022  -0.0031  -0.0023   0.00    0.0
2022/03/05 00:12:30.000  -2478003.7138  -4655348.7224   3577932.4398   6   8   0.0035   0.0044   0.0031   0.0022  -0.0031  -0.0023   0.00    0.0
2022/03/05 00:13:00.000  -2478003.7138  -4655348.7225   3577932.4398   6   9   0.0035   0.0044   0.0031   0.0022  -0.0031  -0.0023   0.00    0.0
2022/03/05 00:13:30.000  -2478003.7137  -4655348.7225   3577932.4398   6   9   0.0035   0.0044   0.0031   0.0022  -0.0031  -0.0023   0.00    0.0
2022/03/05 00:14:00.000  -2478003.7137  -4655348.7226   3577932.4398   6   9   0.0035   0.0044   0.0031   0.0022  -0.0031  -0.0023   0.00    0.0
2022/03/05 00:14:30.000  -2478003.7137  -4655348.7226   3577932.4398   6   9   0.0035   0.0044   0.0031   0.0022  -0.0031  -0.0023   0.00    0.0
2022/03/05 00:15:00.000  -2478003.7137  -4655348.7226   3577932.4398   6   9   0.0035   0.0044   0.0031   0.0022  -0.0031  -0.0023   0.00    0.0
2022/03/05 00:15:30.000  -2478003.7137  -4655348.7227   3577932.4398   6   9   0.0035   0.0044   0.0031   0.0022  -0.0031  -0.0023   0.00    0.0
2022/03/05 00:16:00.000  -2478003.7137  -4655348.7227   3577932.4399   6   9   0.0035   0.0044   0.0031   0.0022  -0.0031  -0.0023   0.00    0.0
2022/03/05 00:16:30.000  -2478003.7137  -4655348.7227   3577932.4399   6   9   0.0035   0.0044   0.0031   0.0022  -0.0031  -0.0023   0.00    0.0
2022/03/05 00:17:00.000  -2478003.7137  -4655348.7227   3577932.4399   6   9   0.0035   0.0044   0.0031   0.0022  -0.0031  -0.0023   0.00    0.0
2022/03/05 00:17:30.000  -2478003.7136  -4655348.7228   3577932.4399   6   9   0.0035   0.0044   0.0031   0.0022  -0.0031  -0.0023   0.00    0.0
2022/03/05 00:18:00.000  -2478003.7136  -4655348.7228   3577932.4398   6   9   0.0035   0.0044   0.0031   0.0022  -0.0031  -0.0023   0.00    0.0
2022/03/05 00:18:30.000  -2478003.7136  -4655348.7229   3577932.4398   6   9   0.0035   0.0044   0.0031   0.0022  -0.0031  -0.0023   0.00    0.0
2022/03/05 00:19:00.000  -2478003.7136  -4655348.7229   3577932.4398   6   9   0.0035   0.0044   0.0031   0.0022  -0.0031  -0.0023   0.00    0.0
2022/03/05 00:19:30.000  -2478003.7136  -4655348.7230   3577932.4398   6   9   0.0035   0.0044   0.0031   0.0022  -0.0031  -0.0023   0.00    0.0
2022/03/05 00:20:00.000  -2478003.7136  -4655348.7230   3577932.4398   6   9   0.0035   0.0044   0.0031   0.0022  -0.0031  -0.0023   0.00    0.0
2022/03/05 00:20:30.000  -2478003.7136  -4655348.7230   3577932.4398   6   9   0.0035   0.0044   0.0031   0.0022  -0.0031  -0.0023   0.00    0.0
2022/03/05 00:21:00.000  -2478003.7136  -4655348.7231   3577932.4399   6   9   0.0035   0.0044   0.0031   0.0022  -0.0031  -0.0023   0.00    0.0
2022/03/05 00:21:30.000  -2478003.7136  -4655348.7231   3577932.4399   6   9   0.0035   0.0044   0.0031   0.0022  -0.0031  -0.0023   0.00    0.0
2022/03/05 00:22:00.000  -2478003.7136  -4655348.7231   3577932.4398   6   9   0.0035   0.0044   0.0031   0.0022  -0.0031  -0.0023   0.00    0.0
2022/03/05 00:22:30.000  -2478003.7136  -4655348.7230   3577932.4398   6   9   0.0035   0.0044   0.0031   0.0022  -0.0031  -0.0023   0.00    0.0
2022/03/05 00:23:00.000  -2478003.7135  -4655348.7231   3577932.4398   6   9   0.0035   0.0044   0.0031   0.0022  -0.0031  -0.0023   0.00    0.0
2022/03/05 00:23:30.000  -2478003.7135  -4655348.7231   3577932.4398   6   9   0.0035   0.0044   0.0031   0.0022  -0.0032  -0.0023   0.00    0.0
2022/03/05 00:24:00.000  -2478003.7135  -4655348.7231   3577932.4398   6   9   0.0035   0.0044   0.0031   0.0022  -0.0032  -0.0023   0.00    0.0
2022/03/05 00:24:30.000  -2478003.7134  -4655348.7230   3577932.4398   6   9   0.0035   0.0044   0.0031   0.0022  -0.0032  -0.0023   0.00    0.0
2022/03/05 00:25:00.000  -2478003.7134  -4655348.7230   3577932.4398   6   9   0.0035   0.0044   0.0031   0.0022  -0.0032  -0.0023   0.00    0.0
2022/03/05 00:25:30.000  -2478003.7133  -4655348.7230   3577932.4397   6   9   0.0035   0.0044   0.0031   0.0022  -0.0032  -0.0023   0.00    0.0
2022/03/05 00:26:00.000  -2478003.7133  -4655348.7229   3577932.4397   6   9   0.0035   0.0044   0.0031   0.0022  -0.0032  -0.0023   0.00    0.0
2022/03/05 00:26:30.000  -2478003.7133  -4655348.7229   3577932.4397   6   9   0.0035   0.0044   0.0031   0.0022  -0.0032  -0.0023   0.00    0.0
2022/03/05 00:27:00.000  -2478003.7132  -4655348.7229   3577932.4396   6   9   0.0035   0.0044   0.0031   0.0022  -0.0032  -0.0023   0.00    0.0
2022/03/05 00:27:30.000  -2478003.7132  -4655348.7228   3577932.4396   6   9   0.0035   0.0044   0.0031   0.0022  -0.0032  -0.0023   0.00    0.0
2022/03/05 00:28:00.000  -2478003.7132  -4655348.7228   3577932.4395   6   9   0.0035   0.0044   0.0031   0.0022  -0.0032  -0.0023   0.00    0.0
2022/03/05 00:28:30.000  -2478003.7131  -4655348.7227   3577932.4395   6   9   0.0035   0.0044   0.0031   0.0022  -0.0032  -0.0023   0.00    0.0
2022/03/05 00:29:00.000  -2478003.7131  -4655348.7228   3577932.4395   6   9   0.0035   0.0044   0.0031   0.0022  -0.0032  -0.0023   0.00    0.0
2022/03/05 00:29:30.000  -2478003.7131  -4655348.7228   3577932.4395   6   9   0.0035   0.0044   0.0031   0.0022  -0.0032  -0.0023   0.00    0.0
2022/03/05 00:30:00.000  -2478003.7131  -4655348.7229   3577932.4395   6   9   0.0035   0.0044   0.0031   0.0022  -0.0032  -0.0023   0.00    0.0
2022/03/05 00:30:30.000  -2478003.7131  -4655348.7229   3577932.4395   6   9   0.0035   0.0044   0.0031   0.0022  -0.0032  -0.0023   0.00    0.0
2022/03/05 00:31:00.000  -2478003.7131  -4655348.7229   3577932.4395   6   9   0.0035   0.0044   0.0031   0.0022  -0.0032  -0.0023   0.00    0.0
2022/03/05 00:31:30.000  -2478003.7131  -4655348.7229   3577932.4396   6   9   0.0035   0.0044   0.0031   0.0022  -0.0032  -0.0023   0.00    0.0
2022/03/05 00:32:00.000  -2478003.7131  -4655348.7229   3577932.4395   6   9   0.0035   0.0044   0.0031   0.0022  -0.0032  -0.0023   0.00    0.0
2022/03/05 00:32:30.000  -2478003.7131  -4655348.7229   3577932.4395   6   9   0.0035   0.0044   0.0031   0.0022  -0.0032  -0.0023   0.00    0.0
2022/03/05 00:33:00.000  -2478003.7131  -4655348.7229   3577932.4395   6   9   0.0035   0.0044   0.0031   0.0022  -0.0032  -0.0023   0.00    0.0
2022/03/05 00:33:30.000  -2478003.7130  -4655348.7229   3577932.4395   6   9   0.0035   0.0044   0.0031   0.0022  -0.0032  -0.0023   0.00    0.0
2022/03/05 00:34:00.000  -2478003.7130  -4655348.7229   3577932.4395   6   9   0.0035   0.0044   0.0031   0.0022  -0.0032  -0.0023   0.00    0.0
2022/03/05 00:34:30.000  -2478003.7129  -4655348.7229   3577932.4395   6   9   0.0035   0.0044   0.0031   0.0022  -0.0032  -0.0023   0.00    0.0
2022/03/05 00:35:00.000  -2478003.7129  -4655348.7228   3577932.4395   6   9   0.0035   0.0044   0.0031   0.0022  -0.0032  -0.0023   0.00    0.0
2022/03/05 00:35:30.000  -2478003.7129  -4655348.7228   3577932.4394   6   9   0.0035   0.0044   0.0031   0.0022  -0.0032  -0.0023   0.00    0.0
2022/03/05 00:36:00.000  -2478003.7128  -4655348.7227   3577932.4394   6   9   0.0035   0.0044   0.0031   0.0022  -0.0031  -0.0023   0.00    0.0
2022/03/05 00:36:30.000  -2478003.7127  -4655348.7227   3577932.4393   6   8   0.0035   0.0044   0.0031   0.0022  -0.0031  -0.0023   0.00    0.0
2022/03/05 00:37:00.000  -2478003.7127  -4655348.7226   3577932.4393   6   8   0.0035   0.0044   0.0031   0.0022  -0.0031  -0.0023   0.00    0.0
2022/03/05 00:37:30.000  -2478003.7127  -4655348.7225   3577932.4392   6   8   0.0035   0.0044   0.0031   0.0022  -0.0031  -0.0023   0.00    0.0
2022/03/05 00:38:00.000  -2478003.7127  -4655348.7225   3577932.4392   6   8   0.0035   0.0044   0.0031   0.0022  -0.0031  -0.0023   0.00    0.0
2022/03/05 00:38:30.000  -2478003.7126  -4655348.7225   3577932.4392   6   8   0.0035   0.0044   0.0031   0.0022  -0.0031  -0.0023   0.00    0.0
2022/03/05 00:39:00.000  -2478003.7126  -4655348.7225   3577932.4391   6   8   0.0035   0.0044   0.0031   0.0022  -0.0031  -0.0023   0.00    0.0
2022/03/05 00:39:30.000  -2478003.7126  -4655348.7224   3577932.4391   6   8   0.0035   0.0044   0.0031   0.0022  -0.0031  -0.0023   0.00    0.0
2022/03/05 00:40:00.000  -2478003.7125  -4655348.7224   3577932.4391   6   8   0.0035   0.0044   0.0031   0.0022  -0.0031  -0.0023   0.00    0.0
2022/03/05 00:40:30.000  -2478003.7125  -4655348.7224   3577932.4391   6   8   0.0035   0.0044   0.0031   0.0022  -0.0031  -0.0023   0.00    0.0
2022/03/05 00:41:00.000  -2478003.7124  -4655348.7223   3577932.4390   6   8   0.0035   0.0044   0.0031   0.0022  -0.0031  -0.0023   0.00    0.0
2022/03/05 00:41:30.000  -2478003.7124  -4655348.7223   3577932.4390   6   8   0.0035   0.0044   0.0031   0.0022  -0.0031  -0.0023   0.00    0.0
2022/03/05 00:42:00.000  -2478003.7124  -4655348.7223   3577932.4389   6   8   0.0035   0.0044   0.0031   0.0022  -0.0031  -0.0023   0.00    0.0
2022/03/05 00:42:30.000  -2478003.7123  -4655348.7223   3577932.4389   6   8   0.0035   0.0044   0.0031   0.0022  -0.0031  -0.0023   0.00    0.0
2022/03/05 00:43:00.000  -2478003.7123  -4655348.7222   3577932.4389   6   8   0.0035   0.0044   0.0031   0.0022  -0.0031  -0.0023   0.00    0.0
2022/03/05 00:43:30.000  -2478003.7122  -4655348.7222   3577932.4389   6   8   0.0035   0.0044   0.0031   0.0022  -0.0031  -0.0023   0.00    0.0
2022/03/05 00:44:00.000  -2478003.7122  -4655348.7222   3577932.4389   6   8   0.0035   0.0044   0.0031   0.0022  -0.0031  -0.0023   0.00    0.0
2022/03/05 00:44:30.000  -2478003.7122  -4655348.7223   3577932.4389   6   8   0.0035   0.0044   0.0031   0.0022  -0.0031  -0.0023   0.00    0.0
2022/03/05 00:45:00.000  -2478003.7122  -4655348.7223   3577932.4389   6   8   0.0035   0.0044   0.0031   0.0022  -0.0031  -0.0023   0.00    0.0
2022/03/05 00:45:30.000  -2478003.7122  -4655348.7223   3577932.4388   6   8   0.0035   0.0044   0.0031   0.0022  -0.0031  -0.0023   0.00    0.0
2022/03/05 00:46:00.000  -2478003.7121  -4655348.7224   3577932.4388   6   8   0.0035   0.0044   0.0031   0.0022  -0.0031  -0.0023   0.00    0.0
2022/03/05 00:46:30.000  -2478003.7121  -4655348.7223   3577932.4388   6   8   0.0035   0.0044   0.0031   0.0022  -0.0031  -0.0023   0.00    0.0
2022/03/05 00:47:00.000  -2478003.7121  -4655348.7223   3577932.4388   6   8   0.0035   0.0044   0.0031   0.0022  -0.0031  -0.0023   0.00    0.0
2022/03/05 00:47:30.000  -2478003.7120  -4655348.7222   3577932.4387   6   8   0.0035   0.0044   0.0031   0.0022  -0.0031  -0.0023   0.00    0.0
2022/03/05 00:48:00.000  -2478003.7120  -4655348.7222   3577932.4387   6   8   0.0035   0.0044   0.0031   0.0022  -0.0031  -0.0023   0.00    0.0
2022/03/05 00:48:30.000  -2478003.7120  -4655348.7221   3577932.4387   6   8   0.0035   0.0044   0.0031   0.0022  -0.0031  -0.0023   0.00    0.0
2022/03/05 00:49:00.000  -2478003.7119  -4655348.7221   3577932.4386   6   8   0.0035   0.0044   0.0031   0.0022  -0.0031  -0.0023   0.00    0.0
2022/03/05 00:49:30.000  -2478003.7119  -4655348.7220   3577932.4386   6   9   0.0035   0.0044   0.0031   0.0022  -0.0031  -0.0023   0.00    0.0
2022/03/05 00:50:00.000  -2478003.7119  -4655348.7220   3577932.4386   6   9   0.0035   0.0044   0.0031   0.0022  -0.0031  -0.0023   0.00    0.0
2022/03/05 00:50:30.000  -2478003.7119  -4655348.7220   3577932.4385   6   9   0.0035   0.0044   0.0031   0.0022  -0.0031  -0.0023   0.00    0.0
2022/03/05 00:51:00.000  -2478003.7118  -4655348.7220   3577932.4385   6   9   0.0035   0.0044   0.0031   0.0022  -0.0031  -0.0023   0.00    0.0
2022/03/05 00:51:30.000  -2478003.7118  -4655348.7220   3577932.4385   6   9   0.0035   0.0044   0.0031   0.0022  -0.0031  -0.0023   0.00    0.0
2022/03/05 00:52:00.000  -2478003.7118  -4655348.7220   3577932.4385   6   9   0.0035   0.0044   0.0031   0.0022  -0.0031  -0.0023   0.00    0.0
2022/03/05 00:52:30.000  -2478003.7118  -4655348.7219   3577932.4385   6   9   0.0035   0.0044   0.0031   0.0022  -0.0031  -0.0023   0.00    0.0
2022/03/05 00:53:00.000  -2478003.7117  -4655348.7220   3577932.4385   6   9   0.0035   0.0044   0.0031   0.0022  -0.0031  -0.0023   0.00    0.0
2022/03/05 00:53:30.000  -2478003.7117  -4655348.7220   3577932.4385   6   9   0.0035   0.0044   0.0031   0.0022  -0.0031  -0.0023   0.00    0.0
2022/03/05 00:54:00.000  -2478003.7117  -4655348.7221   3577932.4385   6  10   0.0035   0.0044   0.0031   0.0022  -0.0031  -0.0023   0.00    0.0
2022/03/05 00:54:30.000  -2478003.7117  -4655348.7222   3577932.4385   6  10   0.0035   0.0044   0.0031   0.0022  -0.0031  -0.0023   0.00    0.0
2022/03/05 00:55:00.000  -2478003.7118  -4655348.7222   3577932.4385   6  10   0.0035   0.0044   0.0031   0.0022  -0.0031  -0.0023   0.00    0.0
2022/03/05 00:55:30.000  -2478003.7117  -4655348.7223   3577932.4385   6  10   0.0035   0.0044   0.0031   0.0022  -0.0031  -0.0023   0.00    0.0
2022/03/05 00:56:00.000  -2478003.7117  -4655348.7224   3577932.4385   6  10   0.0035   0.0044   0.0031   0.0022  -0.0031  -0.0023   0.00    0.0
2022/03/05 00:56:30.000  -2478003.7118  -4655348.7224   3577932.4385   6  10   0.0035   0.0044   0.0031   0.0022  -0.0031  -0.0023   0.00    0.0
2022/03/05 00:57:00.000  -2478003.7117  -4655348.7225   3577932.4385   6  10   0.0035   0.0044   0.0031   0.0022  -0.0031  -0.0023   0.00    0.0
2022/03/05 00:57:30.000  -2478003.7117  -4655348.7226   3577932.4386   6  10   0.0035   0.0044   0.0031   0.0022  -0.0031  -0.0023   0.00    0.0
2022/03/05 00:58:00.000  -2478003.7117  -4655348.7226   3577932.4386   6  10   0.0035   0.0044   0.0031   0.0022  -0.0031  -0.0023   0.00    0.0
2022/03/05 00:58:30.000  -2478003.7117  -4655348.7227   3577932.4387   6  10   0.0035   0.0044   0.0031   0.0022  -0.0031  -0.0023   0.00    0.0
2022/03/05 00:59:00.000  -2478003.7117  -4655348.7228   3577932.4388   6  10   0.0035   0.0044   0.0031   0.0022  -0.0031  -0.0023   0.00    0.0
2022/03/05 00:59:30.000  -2478003.7117  -4655348.7228   3577932.4389   6  10   0.0035   0.0044   0.0031   0.0022  -0.0031  -0.0023   0.00    0.0
2022/03/05 01:00:00.000  -2478003.7117  -4655348.7228   3577932.4388   6  10   0.0035   0.0044   0.0031   0.0022  -0.0031  -0.0023   0.00    0.0
2022/03/05 01:00:30.000  -2478003.7117  -4655348.7229   3577932.4389   6   9   0.0035   0.0044   0.0031   0.0022  -0.0031  -0.0023   0.00    0.0
2022/03/05 01:01:00.000  -2478003.7117  -4655348.7230   3577932.4389   6   9   0.0035   0.0044   0.0031   0.0022  -0.0031  -0.0023   0.00    0.0
2022/03/05 01:01:30.000  -2478003.7117  -4655348.7230   3577932.4389   6   9   0.0035   0.0044   0.0031   0.0022  -0.0031  -0.0023   0.00    0.0
2022/03/05 01:02:00.000  -2478003.7117  -4655348.7231   3577932.4390   6   9   0.0035   0.0044   0.0031   0.0022  -0.0031  -0.0023   0.00    0.0
2022/03/05 01:02:30.000  -2478003.7118  -4655348.7232   3577932.4390   6   9   0.0035   0.0044   0.0031   0.0022  -0.0031  -0.0023   0.00    0.0
2022/03/05 01:03:00.000  -2478003.7118  -4655348.7232   3577932.4390   6   9   0.0035   0.0044   0.0031   0.0022  -0.0031  -0.0023   0.00    0.0
2022/03/05 01:03:30.000  -2478003.7118  -4655348.7233   3577932.4390   6   9   0.0035   0.0044   0.0031   0.0022  -0.0031  -0.0023   0.00    0.0
2022/03/05 01:04:00.000  -2478003.7118  -4655348.7234   3577932.4391   6   9   0.0035   0.0044   0.0031   0.0022  -0.0031  -0.0023   0.00    0.0
2022/03/05 01:04:30.000  -2478003.7118  -4655348.7235   3577932.4391   6   9   0.0035   0.0044   0.0031   0.0022  -0.0032  -0.0023   0.00    0.0
2022/03/05 01:05:00.000  -2478003.7118  -4655348.7236   3577932.4392   6   9   0.0035   0.0044   0.0031   0.0022  -0.0032  -0.0023   0.00    0.0
2022/03/05 01:05:30.000  -2478003.7118  -4655348.7236   3577932.4392   6   9   0.0035   0.0044   0.0031   0.0022  -0.0032  -0.0023   0.00    0.0
2022/03/05 01:06:00.000  -2478003.7118  -4655348.7236   3577932.4392   6   9   0.0035   0.0044   0.0031   0.0022  -0.0032  -0.0023   0.00    0.0
2022/03/05 01:06:30.000  -2478003.7117  -4655348.7236   3577932.4392   6   9   0.0035   0.0044   0.0031   0.0022  -0.0032  -0.0023   0.00    0.0
2022/03/05 01:07:00.000  -2478003.7118  -4655348.7237   3577932.4392   6   9   0.0035   0.0044   0.0031   0.0022  -0.0032  -0.0023   0.00    0.0
2022/03/05 01:07:30.000  -2478003.7118  -4655348.7238   3577932.4393   6   9   0.0035   0.0044   0.0031   0.0022  -0.0032  -0.0023   0.00    0.0
2022/03/05 01:08:00.000  -2478003.7118  -4655348.7239   3577932.4393   6   9   0.0035   0.0044   0.0031   0.0022  -0.0032  -0.0023   0.00    0.0
2022/03/05 01:08:30.000  -2478003.7117  -4655348.7239   3577932.4393   6   9   0.0035   0.0044   0.0031   0.0022  -0.0032  -0.0023   0.00    0.0
2022/03/05 01:09:00.000  -2478003.7117  -4655348.7239   3577932.4393   6   9   0.0035   0.0044   0.0031   0.0022  -0.0032  -0.0023   0.00    0.0
2022/03/05 01:09:30.000  -2478003.7117  -4655348.7240   3577932.4394   6   9   0.0035   0.0044   0.0031   0.0023  -0.0032  -0.0023   0.00    0.0
2022/03/05 01:10:00.000  -2478003.7117  -4655348.7240   3577932.4394   6   9   0.0035   0.0044   0.0031   0.0023  -0.0032  -0.0023   0.00    0.0
2022/03/05 01:10:30.000  -2478003.7117  -4655348.7240   3577932.4394   6   9   0.0035   0.0044   0.0031   0.0023  -0.0032  -0.0023   0.00    0.0
2022/03/05 01:11:00.000  -2478003.7117  -4655348.7241   3577932.4394   6   9   0.0035   0.0044   0.0031   0.0023  -0.0032  -0.0023   0.00    0.0
2022/03/05 01:11:30.000  -2478003.7118  -4655348.7241   3577932.4394   6   9   0.0035   0.0044   0.0031   0.0023  -0.0032  -0.0023   0.00    0.0
2022/03/05 01:12:00.000  -2478003.7118  -4655348.7242   3577932.4395   6   9   0.0035   0.0044   0.0031   0.0023  -0.0032  -0.0023   0.00    0.0
2022/03/05 01:12:30.000  -2478003.7118  -4655348.7243   3577932.4395   6   9   0.0035   0.0044   0.0031   0.0023  -0.0032  -0.0023   0.00    0.0
2022/03/05 01:13:00.000  -2478003.7119  -4655348.7243   3577932.4395   6   9   0.0035   0.0044   0.0031   0.0023  -0.0032  -0.0023   0.00    0.0
2022/03/05 01:13:30.000  -2478003.7119  -4655348.7244   3577932.4396   6   9   0.0035   0.0044   0.0031   0.0023  -0.0032  -0.0023   0.00    0.0
2022/03/05 01:14:00.000  -2478003.7119  -4655348.7245   3577932.4396   6   9   0.0035   0.0044   0.0031   0.0023  -0.0032  -0.0023   0.00    0.0
2022/03/05 01:14:30.000  -2478003.7119  -4655348.7246   3577932.4397   6   9   0.0035   0.0044   0.0031   0.0023  -0.0032  -0.0023   0.00    0.0
2022/03/05 01:15:00.000  -2478003.7119  -4655348.7247   3577932.4397   6   9   0.0035   0.0044   0.0031   0.0023  -0.0032  -0.0023   0.00    0.0
2022/03/05 01:15:30.000  -2478003.7120  -4655348.7248   3577932.4398   6   9   0.0035   0.0044   0.0031   0.0023  -0.0032  -0.0023   0.00    0.0
2022/03/05 01:16:00.000  -2478003.7119  -4655348.7248   3577932.4398   6   9   0.0035   0.0044   0.0031   0.0023  -0.0032  -0.0023   0.00    0.0
2022/03/05 01:16:30.000  -2478003.7119  -4655348.7248   3577932.4398   6   9   0.0035   0.0044   0.0031   0.0023  -0.0032  -0.0023   0.00    0.0
2022/03/05 01:17:00.000  -2478003.7120  -4655348.7249   3577932.4398   6   9   0.0035   0.0044   0.0031   0.0023  -0.0032  -0.0023   0.00    0.0
2022/03/05 01:17:30.000  -2478003.7120  -4655348.7249   3577932.4398   6   9   0.0035   0.0044   0.0031   0.0023  -0.0032  -0.0023   0.00    0.0
2022/03/05 01:18:00.000  -2478003.7120  -4655348.7250   3577932.4398   6   9   0.0035   0.0044   0.0031   0.0023  -0.0032  -0.0023   0.00    0.0
2022/03/05 01:18:30.000  -2478003.7120  -4655348.7250   3577932.4398   6   9   0.0035   0.0044   0.0031   0.0023  -0.0032  -0.0023   0.00    0.0
2022/03/05 01:19:00.000  -2478003.7120  -4655348.7250   3577932.4398   6   9   0.0035   0.0044   0.0031   0.0023  -0.0032  -0.0023   0.00    0.0
2022/03/05 01:19:30.000  -2478003.7120  -4655348.7251   3577932.4398   6   9   0.0035   0.0044   0.0031   0.0023  -0.0032  -0.0023   0.00    0.0
2022/03/05 01:20:00.000  -2478003.7120  -4655348.7251   3577932.4398   6   9   0.0035   0.0044   0.0031   0.0023  -0.0032  -0.0023   0.00    0.0
2022/03/05 01:20:30.000  -2478003.7120  -4655348.7252   3577932.4399   6   9   0.0035   0.0044   0.0031   0.0023  -0.0032  -0.0023   0.00    0.0
2022/03/05 01:21:00.000  -2478003.7120  -4655348.7252   3577932.4399   6   9   0.0035   0.0044   0.0031   0.0023  -0.0032  -0.0023   0.00    0.0
2022/03/05 01:21:30.000  -2478003.7120  -4655348.7252   3577932.4399   6   9   0.0035   0.0044   0.0031   0.0023  -0.0032  -0.0023   0.00    0.0
2022/03/05 01:22:00.000  -2478003.7120  -4655348.7252   3577932.4399   6   9   0.0035   0.0044   0.0031   0.0023  -0.0032  -0.0023   0.00    0.0
2022/03/05 01:22:30.000  -2478003.7120  -4655348.7253   3577932.4398   6   9   0.0035   0.0044   0.0031   0.0023  -0.0032  -0.0023   0.00    0.0
2022/03/05 01:23:00.000  -2478003.7119  -4655348.7253   3577932.4398   6   9   0.0035   0.0044   0.0031   0.0023  -0.0032  -0.0023   0.00    0.0
2022/03/05 01:23:30.000  -2478003.7119  -4655348.7253   3577932.4398   6   9   0.0035   0.0044   0.0031   0.0023  -0.0032  -0.0023   0.00    0.0
2022/03/05 01:24:00.000  -2478003.7120  -4655348.7254   3577932.4399   6   9   0.0035   0.0044   0.0031   0.0023  -0.0032  -0.0023   0.00    0.0
2022/03/05 01:24:30.000  -2478003.7120  -4655348.7254   3577932.4399   6   9   0.0035   0.0044   0.0031   0.0023  -0.0032  -0.0023   0.00    0.0
2022/03/05 01:25:00.000  -2478003.7120  -4655348.7255   3577932.4399   6   9   0.0035   0.0044   0.0031   0.0023  -0.0032  -0.0023   0.00    0.0
2022/03/05 01:25:30.000  -2478003.7120  -4655348.7255   3577932.4399   6   9   0.0035   0.0044   0.0031   0.0023  -0.0032  -0.0023   0.00    0.0
2022/03/05 01:26:00.000  -2478003.7119  -4655348.7255   3577932.4399   6   9   0.0035   0.0044   0.0031   0.0023  -0.0032  -0.0023   0.00    0.0
2022/03/05 01:26:30.000  -2478003.7118  -4655348.7255   3577932.4399   6   9   0.0035   0.0044   0.0031   0.0023  -0.0032  -0.0023   0.00    0.0
2022/03/05 01:27:00.000  -2478003.7118  -4655348.7254   3577932.4399   6   9   0.0035   0.0044   0.0031   0.0023  -0.0032  -0.0023   0.00    0.0
2022/03/05 01:27:30.000  -2478003.7117  -4655348.7254   3577932.4398   6   9   0.0035   0.0044   0.0031   0.0023  -0.0032  -0.0023   0.00    0.0
2022/03/05 01:28:00.000  -2478003.7116  -4655348.7253   3577932.4398   6   9   0.0035   0.0044   0.0031   0.0023  -0.0032  -0.0023   0.00    0.0
2022/03/05 01:28:30.000  -2478003.7116  -4655348.7254   3577932.4398   6   9   0.0035   0.0044   0.0031   0.0023  -0.0032  -0.0023   0.00    0.0
2022/03/05 01:29:00.000  -2478003.7116  -4655348.7253   3577932.4398   6   9   0.0035   0.0044   0.0031   0.0023  -0.0032  -0.0023   0.00    0.0
2022/03/05 01:29:30.000  -2478003.7115  -4655348.7253   3577932.4398   6   9   0.0035   0.0044   0.0031   0.0023  -0.0032  -0.0023   0.00    0.0
2022/03/05 01:30:00.000  -2478003.7115  -4655348.7253   3577932.4397   6   9   0.0035   0.0044   0.0031   0.0023  -0.0032  -0.0023   0.00    0.0
2022/03/05 01:30:30.000  -2478003.7114  -4655348.7253   3577932.4397   6   9   0.0035   0.0044   0.0031   0.0023  -0.0032  -0.0023   0.00    0.0
2022/03/05 01:31:00.000  -2478003.7114  -4655348.7253   3577932.4397   6   9   0.0035   0.0044   0.0031   0.0023  -0.0032  -0.0023   0.00    0.0
2022/03/05 01:31:30.000  -2478003.7113  -4655348.7253   3577932.4397   6   9   0.0036   0.0044   0.0031   0.0023  -0.0032  -0.0023   0.00    0.0
2022/03/05 01:32:00.000  -2478003.7113  -4655348.7253   3577932.4397   6   9   0.0036   0.0044   0.0031   0.0023  -0.0032  -0.0023   0.00    0.0
2022/03/05 01:32:30.000  -2478003.7113  -4655348.7253   3577932.4397   6   9   0.0036   0.0044   0.0031   0.0023  -0.0032  -0.0023   0.00    0.0
2022/03/05 01:33:00.000  -2478003.7112  -4655348.7253   3577932.4398   6   9   0.0036   0.0044   0.0031   0.0023  -0.0032  -0.0023   0.00    0.0
2022/03/05 01:33:30.000  -2478003.7112  -4655348.7254   3577932.4398   6   9   0.0036   0.0044   0.0031   0.0023  -0.0032  -0.0023   0.00    0.0
2022/03/05 01:34:00.000  -2478003.7111  -4655348.7254   3577932.4398   6   9   0.0036   0.0044   0.0031   0.0023  -0.0032  -0.0023   0.00    0.0
2022/03/05 01:34:30.000  -2478003.7111  -4655348.7254   3577932.4398   6   9   0.0036   0.0044   0.0031   0.0023  -0.0032  -0.0023   0.00    0.0
2022/03/05 01:35:00.000  -2478003.7110  -4655348.7254   3577932.4398   6   9   0.0036   0.0044   0.0031   0.0023  -0.0032  -0.0023   0.00    0.0
2022/03/05 01:35:30.000  -2478003.7110  -4655348.7254   3577932.4398   6   9   0.0036   0.0044   0.0031   0.0023  -0.0032  -0.0023   0.00    0.0
2022/03/05 01:36:00.000  -2478003.7109  -4655348.7254   3577932.4398   6   9   0.0036   0.0044   0.0031   0.0023  -0.0032  -0.0023   0.00    0.0
2022/03/05 01:36:30.000  -2478003.7109  -4655348.7254   3577932.4397   6   9   0.0036   0.0044   0.0031   0.0023  -0.0032  -0.0023   0.00    0.0
2022/03/05 01:37:00.000  -2478003.7108  -4655348.7254   3577932.4397   6   9   0.0036   0.0044   0.0031   0.0023  -0.0032  -0.0023   0.00    0.0
2022/03/05 01:37:30.000  -2478003.7108  -4655348.7253   3577932.4397   6   9   0.0036   0.0044   0.0031   0.0023  -0.0032  -0.0023   0.00    0.0
2022/03/05 01:38:00.000  -2478003.7108  -4655348.7253   3577932.4397   6   9   0.0036   0.0044   0.0031   0.0023  -0.0032  -0.0023   0.00    0.0
2022/03/05 01:38:30.000  -2478003.7107  -4655348.7253   3577932.4397   6   9   0.0036   0.0044   0.0031   0.0023  -0.0032  -0.0023   0.00    0.0
2022/03/05 01:39:00.000  -2478003.7106  -4655348.7253   3577932.4397   6   9   0.0036   0.0044   0.0031   0.0023  -0.0032  -0.0023   0.00    0.0
2022/03/05 01:39:30.000  -2478003.7105  -4655348.7253   3577932.4396   6   9   0.0036   0.0044   0.0031   0.0023  -0.0032  -0.0023   0.00    0.0
2022/03/05 01:40:00.000  -2478003.7105  -4655348.7252   3577932.4396   6   9   0.0036   0.0044   0.0031   0.0023  -0.0032  -0.0023   0.00    0.0
2022/03/05 01:40:30.000  -2478003.7104  -4655348.7253   3577932.4396   6   8   0.0036   0.0044   0.0031   0.0023  -0.0032  -0.0023   0.00    0.0
2022/03/05 01:41:00.000  -2478003.7104  -4655348.7253   3577932.4396   6   8   0.0036   0.0044   0.0031   0.0023  -0.0032  -0.0023   0.00    0.0
2022/03/05 01:41:30.000  -2478003.7103  -4655348.7253   3577932.4395   6   8   0.0036   0.0044   0.0031   0.0023  -0.0032  -0.0023   0.00    0.0
2022/03/05 01:42:00.000  -2478003.7103  -4655348.7252   3577932.4395   6   8   0.0036   0.0044   0.0031   0.0023  -0.0032  -0.0023   0.00    0.0
2022/03/05 01:42:30.000  -2478003.7102  -4655348.7252   3577932.4395   6   8   0.0036   0.0044   0.0031   0.0023  -0.0032  -0.0023   0.00    0.0
2022/03/05 01:43:00.000  -2478003.7102  -4655348.7252   3577932.4395   6   7   0.0036   0.0044   0.0031   0.0023  -0.0032  -0.0023   0.00    0.0
2022/03/05 01:43:30.000  -2478003.7101  -4655348.7251   3577932.4395   6   7   0.0036   0.0044   0.0031   0.0023  -0.0032  -0.0023   0.00    0.0
2022/03/05 01:44:00.000  -2478003.7101  -4655348.7251   3577932.4394   6   7   0.0036   0.0044   0.0031   0.0023  -0.0032  -0.0023   0.00    0.0
2022/03/05 01:44:30.000  -2478003.7100  -4655348.7251   3577932.4394   6   7   0.0036   0.0044   0.0031   0.0023  -0.0032  -0.0023   0.00    0.0
2022/03/05 01:45:00.000  -2478003.7100  -4655348.7251   3577932.4394   6   8   0.0036   0.0044   0.0031   0.0023  -0.0032  -0.0023   0.00    0.0
2022/03/05 01:45:30.000  -2478003.7100  -4655348.7251   3577932.4394   6   7   0.0036   0.0044   0.0031   0.0023  -0.0032  -0.0023   0.00    0.0
2022/03/05 01:46:00.000  -2478003.7099  -4655348.7250   3577932.4394   6   7   0.0036   0.0044   0.0031   0.0023  -0.0032  -0.0023   0.00    0.0
2022/03/05 01:46:30.000  -2478003.7099  -4655348.7250   3577932.4394   6   7   0.0036   0.0044   0.0031   0.0023  -0.0032  -0.0023   0.00    0.0
2022/03/05 01:47:00.000  -2478003.7099  -4655348.7250   3577932.4394   6   7   0.0036   0.0044   0.0031   0.0023  -0.0032  -0.0023   0.00    0.0
2022/03/05 01:47:30.000  -2478003.7099  -4655348.7251   3577932.4394   6   7   0.0036   0.0044   0.0031   0.0023  -0.0032  -0.0023   0.00    0.0
2022/03/05 01:48:00.000  -2478003.7099  -4655348.7251   3577932.4394   6   7   0.0036   0.0044   0.0031   0.0023  -0.0032  -0.0023   0.00    0.0
2022/03/05 01:48:30.000  -2478003.7099  -4655348.7251   3577932.4394   6   7   0.0036   0.0044   0.0031   0.0023  -0.0032  -0.0023   0.00    0.0
2022/03/05 01:49:00.000  -2478003.7099  -4655348.7250   3577932.4394   6   7   0.0036   0.0044   0.0031   0.0023  -0.0032  -0.0023   0.00    0.0
2022/03/05 01:49:30.000  -2478003.7099  -4655348.7251   3577932.4394   6   7   0.0036   0.0044   0.0031   0.0023  -0.0032  -0.0023   0.00    0.0
2022/03/05 01:50:00.000  -2478003.7098  -4655348.7251   3577932.4394   6   7   0.0036   0.0044   0.0031   0.0023  -0.0032  -0.0023   0.00    0.0
2022/03/05 01:50:30.000  -2478003.7098  -4655348.7251   3577932.4394   6   7   0.0036   0.0044   0.0031   0.0023  -0.0032  -0.0023   0.00    0.0
2022/03/05 01:51:00.000  -2478003.7097  -4655348.7250   3577932.4394   6   7   0.0036   0.0044   0.0031   0.0023  -0.0032  -0.0023   0.00    0.0
2022/03/05 01:51:30.000  -2478003.7097  -4655348.7250   3577932.4394   6   7   0.0036   0.0044   0.0031   0.0023  -0.0032  -0.0023   0.00    0.0
2022/03/05 01:52:00.000  -2478003.7096  -4655348.7250   3577932.4394   6   7   0.0036   0.0044   0.0031   0.0023  -0.0032  -0.0023   0.00    0.0
2022/03/05 01:52:30.000  -2478003.7096  -4655348.7250   3577932.4394   6   7   0.0036   0.0044   0.0031   0.0023  -0.0032  -0.0023   0.00    0.0
2022/03/05 01:53:00.000  -2478003.7096  -4655348.7250   3577932.4393   6   7   0.0036   0.0044   0.0031   0.0023  -0.0032  -0.0023   0.00    0.0
2022/03/05 01:53:30.000  -2478003.7095  -4655348.7250   3577932.4393   6   7   0.0036   0.0044   0.0031   0.0023  -0.0032  -0.0023   0.00    0.0
2022/03/05 01:54:00.000  -2478003.7095  -4655348.7250   3577932.4393   6   7   0.0036   0.0044   0.0031   0.0022  -0.0032  -0.0023   0.00    0.0
2022/03/05 01:54:30.000  -2478003.7095  -4655348.7250   3577932.4393   6   7   0.0036   0.0044   0.0031   0.0022  -0.0032  -0.0023   0.00    0.0
2022/03/05 01:55:00.000  -2478003.7094  -4655348.7249   3577932.4393   6   7   0.0036   0.0044   0.0031   0.0022  -0.0032  -0.0023   0.00    0.0
2022/03/05 01:55:30.000  -2478003.7093  -4655348.7249   3577932.4393   6   7   0.0035   0.0044   0.0031   0.0022  -0.0032  -0.0023   0.00    0.0
2022/03/05 01:56:00.000  -2478003.7093  -4655348.7248   3577932.4392   6   7   0.0035   0.0044   0.0031   0.0022  -0.0032  -0.0023   0.00    0.0
2022/03/05 01:56:30.000  -2478003.7092  -4655348.7248   3577932.4392   6   7   0.0035   0.0044   0.0031   0.0022  -0.0032  -0.0023   0.00    0.0
2022/03/05 01:57:00.000  -2478003.7091  -4655348.7248   3577932.4392   6   7   0.0035   0.0044   0.0031   0.0022  -0.0032  -0.0023   0.00    0.0
2022/03/05 01:57:30.000  -2478003.7091  -4655348.7247   3577932.4392   6   7   0.0035   0.0044   0.0031   0.0022  -0.0032  -0.0023   0.00    0.0
2022/03/05 01:58:00.000  -2478003.7090  -4655348.7247   3577932.4392   6   7   0.0035   0.0044   0.0031   0.0022  -0.0032  -0.0023   0.00    0.0
2022/03/05 01:58:30.000  -2478003.7090  -4655348.7246   3577932.4392   6   7   0.0035   0.0044   0.0031   0.0022  -0.0032  -0.0023   0.00    0.0
2022/03/05 01:59:00.000  -2478003.7089  -4655348.7246   3577932.4391   6   7   0.0035   0.0044   0.0031   0.0022  -0.0032  -0.0023   0.00    0.0
2022/03/05 01:59:30.000  -2478003.7089  -4655348.7246   3577932.4391   6   7   0.0035   0.0044   0.0031   0.0022  -0.0032  -0.0023   0.00    0.0
2022/03/05 02:00:00.000  -2478003.7088  -4655348.7245   3577932.4391   6   7   0.0035   0.0044   0.0031   0.0022  -0.0032  -0.0023   0.00    0.0
2022/03/05 02:00:30.000  -2478003.7088  -4655348.7245   3577932.4391   6   7   0.0035   0.0044   0.0031   0.0022  -0.0032  -0.0023   0.00    0.0
2022/03/05 02:01:00.000  -2478003.7088  -4655348.7245   3577932.4391   6   7   0.0035   0.0044   0.0031   0.0022  -0.0032  -0.0023   0.00    0.0
2022/03/05 02:01:30.000  -2478003.7088  -4655348.7245   3577932.4391   6   7   0.0035   0.0044   0.0031   0.0022  -0.0032  -0.0023   0.00    0.0
2022/03/05 02:02:00.000  -2478003.7087  -4655348.7245   3577932.4391   6   7   0.0035   0.0044   0.0031   0.0022  -0.0032  -0.0023   0.00    0.0
2022/03/05 02:02:30.000  -2478003.7087  -4655348.7245   3577932.4390   6   7   0.0035   0.0044   0.0031   0.0022  -0.0032  -0.0023   0.00    0.0
2022/03/05 02:03:00.000  -2478003.7086  -4655348.7244   3577932.4390   6   7   0.0035   0.0044   0.0031   0.0022  -0.0032  -0.0023   0.00    0.0
2022/03/05 02:03:30.000  -2478003.7085  -4655348.7244   3577932.4390   6   7   0.0035   0.0044   0.0031   0.0022  -0.0032  -0.0023   0.00    0.0
2022/03/05 02:04:00.000  -2478003.7085  -4655348.7244   3577932.4390   6   7   0.0035   0.0044   0.0031   0.0022  -0.0032  -0.0023   0.00    0.0
2022/03/05 02:04:30.000  -2478003.7085  -4655348.7244   3577932.4389   6   7   0.0035   0.0044   0.0031   0.0022  -0.0032  -0.0023   0.00    0.0
2022/03/05 02:05:00.000  -2478003.7084  -4655348.7243   3577932.4389   6   7   0.0035   0.0044   0.0031   0.0022  -0.0032  -0.0023   0.00    0.0
2022/03/05 02:05:30.000  -2478003.7084  -4655348.7243   3577932.4389   6   7   0.0035   0.0044   0.0031   0.0022  -0.0032  -0.0023   0.00    0.0
2022/03/05 02:06:00.000  -2478003.7083  -4655348.7243   3577932.4389   6   7   0.0035   0.0044   0.0031   0.0022  -0.0032  -0.0023   0.00    0.0
2022/03/05 02:06:30.000  -2478003.7083  -4655348.7242   3577932.4389   6   7   0.0035   0.0044   0.0031   0.0022  -0.0032  -0.0023   0.00    0.0
2022/03/05 02:07:00.000  -2478003.7082  -4655348.7242   3577932.4389   6   7   0.0035   0.0044   0.0031   0.0022  -0.0032  -0.0023   0.00    0.0
2022/03/05 02:07:30.000  -2478003.7082  -4655348.7242   3577932.4389   6   7   0.0035   0.0044   0.0031   0.0022  -0.0032  -0.0023   0.00    0.0
2022/03/05 02:08:00.000  -2478003.7081  -4655348.7242   3577932.4389   6   7   0.0035   0.0044   0.0031   0.0022  -0.0032  -0.0023   0.00    0.0
2022/03/05 02:08:30.000  -2478003.7080  -4655348.7242   3577932.4389   6   7   0.0035   0.0044   0.0031   0.0022  -0.0032  -0.0023   0.00    0.0
2022/03/05 02:09:00.000  -2478003.7080  -4655348.7242   3577932.4388   6   7   0.0035   0.0044   0.0031   0.0022  -0.0032  -0.0023   0.00    0.0
2022/03/05 02:09:30.000  -2478003.7080  -4655348.7242   3577932.4388   6   7   0.0035   0.0044   0.0031   0.0022  -0.0032  -0.0023   0.00    0.0
2022/03/05 02:10:00.000  -2478003.7079  -4655348.7242   3577932.4388   6   7   0.0035   0.0044   0.0031   0.0022  -0.0032  -0.0023   0.00    0.0
2022/03/05 02:10:30.000  -2478003.7078  -4655348.7242   3577932.4388   6   7   0.0035   0.0044   0.0031   0.0022  -0.0032  -0.0023   0.00    0.0
2022/03/05 02:11:00.000  -2478003.7078  -4655348.7241   3577932.4388   6   7   0.0035   0.0044   0.0031   0.0022  -0.0032  -0.0023   0.00    0.0
2022/03/05 02:11:30.000  -2478003.7077  -4655348.7241   3577932.4388   6   7   0.0035   0.0044   0.0031   0.0022  -0.0032  -0.0023   0.00    0.0
2022/03/05 02:12:00.000  -2478003.7077  -4655348.7241   3577932.4387   6   7   0.0035   0.0044   0.0031   0.0022  -0.0032  -0.0023   0.00    0.0
2022/03/05 02:12:30.000  -2478003.7076  -4655348.7241   3577932.4387   6   7   0.0035   0.0044   0.0031   0.0022  -0.0032  -0.0023   0.00    0.0
2022/03/05 02:13:00.000  -2478003.7076  -4655348.7241   3577932.4388   6   7   0.0035   0.0044   0.0031   0.0022  -0.0032  -0.0023   0.00    0.0
2022/03/05 02:13:30.000  -2478003.7076  -4655348.7241   3577932.4388   6   7   0.0035   0.0044   0.0031   0.0022  -0.0032  -0.0023   0.00    0.0
2022/03/05 02:14:00.000  -2478003.7076  -4655348.7241   3577932.4388   6   7   0.0035   0.0044   0.0031   0.0022  -0.0032  -0.0023   0.00    0.0
2022/03/05 02:14:30.000  -2478003.7076  -4655348.7242   3577932.4388   6   7   0.0035   0.0044   0.0031   0.0022  -0.0032  -0.0023   0.00    0.0
2022/03/05 02:15:00.000  -2478003.7076  -4655348.7242   3577932.4388   6   7   0.0035   0.0044   0.0031   0.0022  -0.0032  -0.0023   0.00    0.0
2022/03/05 02:15:30.000  -2478003.7075  -4655348.7243   3577932.4388   6   7   0.0035   0.0044   0.0031   0.0022  -0.0032  -0.0023   0.00    0.0
2022/03/05 02:16:00.000  -2478003.7075  -4655348.7243   3577932.4389   6   7   0.0035   0.0044   0.0031   0.0022  -0.0032  -0.0023   0.00    0.0
2022/03/05 02:16:30.000  -2478003.7074  -4655348.7243   3577932.4389   6   7   0.0035   0.0044   0.0031   0.0022  -0.0032  -0.0023   0.00    0.0
2022/03/05 02:17:00.000  -2478003.7074  -4655348.7244   3577932.4389   6   7   0.0035   0.0044   0.0031   0.0022  -0.0032  -0.0023   0.00    0.0
2022/03/05 02:17:30.000  -2478003.7073  -4655348.7245   3577932.4389   6   7   0.0035   0.0044   0.0031   0.0022  -0.0032  -0.0023   0.00    0.0
2022/03/05 02:18:00.000  -2478003.7073  -4655348.7245   3577932.4389   6   7   0.0035   0.0044   0.0031   0.0022  -0.0032  -0.0023   0.00    0.0
2022/03/05 02:18:30.000  -2478003.7072  -4655348.7245   3577932.4390   6   7   0.0035   0.0044   0.0031   0.0022  -0.0032  -0.0023   0.00    0.0
2022/03/05 02:19:00.000  -2478003.7072  -4655348.7246   3577932.4390   6   7   0.0035   0.0044   0.0031   0.0022  -0.0032  -0.0023   0.00    0.0
2022/03/05 02:19:30.000  -2478003.7072  -4655348.7247   3577932.4391   6   7   0.0035   0.0044   0.0031   0.0022  -0.0032  -0.0023   0.00    0.0
2022/03/05 02:20:00.000  -2478003.7072  -4655348.7248   3577932.4391   6   8   0.0035   0.0044   0.0031   0.0022  -0.0032  -0.0023   0.00    0.0
2022/03/05 02:20:30.000  -2478003.7071  -4655348.7249   3577932.4391   6   8   0.0035   0.0044   0.0031   0.0022  -0.0032  -0.0023   0.00    0.0
2022/03/05 02:21:00.000  -2478003.7071  -4655348.7249   3577932.4391   6   8   0.0035   0.0044   0.0031   0.0022  -0.0032  -0.0023   0.00    0.0
2022/03/05 02:21:30.000  -2478003.7070  -4655348.7251   3577932.4392   6   8   0.0035   0.0044   0.0031   0.0022  -0.0032  -0.0023   0.00    0.0
2022/03/05 02:22:00.000  -2478003.7070  -4655348.7252   3577932.4392   6   8   0.0035   0.0044   0.0031   0.0022  -0.0032  -0.0023   0.00    0.0
2022/03/05 02:22:30.000  -2478003.7070  -4655348.7252   3577932.4393   6   8   0.0035   0.0044   0.0031   0.0022  -0.0032  -0.0023   0.00    0.0
2022/03/05 02:23:00.000  -2478003.7069  -4655348.7253   3577932.4393   6   8   0.0035   0.0044   0.0031   0.0022  -0.0032  -0.0023   0.00    0.0
2022/03/05 02:23:30.000  -2478003.7069  -4655348.7253   3577932.4393   6   8   0.0035   0.0044   0.0031   0.0022  -0.0032  -0.0023   0.00    0.0
2022/03/05 02:24:00.000  -2478003.7069  -4655348.7253   3577932.4393   6   8   0.0035   0.0044   0.0031   0.0022  -0.0032  -0.0023   0.00    0.0
2022/03/05 02:24:30.000  -2478003.7068  -4655348.7254   3577932.4394   6   8   0.0035   0.0044   0.0031   0.0022  -0.0032  -0.0023   0.00    0.0
2022/03/05 02:25:00.000  -2478003.7068  -4655348.7255   3577932.4394   6   8   0.0035   0.0044   0.0031   0.0022  -0.0032  -0.0023   0.00    0.0
2022/03/05 02:25:30.000  -2478003.7068  -4655348.7255   3577932.4395   6   8   0.0035   0.0044   0.0031   0.0022  -0.0032  -0.0023   0.00    0.0
2022/03/05 02:26:00.000  -2478003.7068  -4655348.7256   3577932.4395   6   8   0.0035   0.0044   0.0031   0.0022  -0.0032  -0.0023   0.00    0.0
2022/03/05 02:26:30.000  -2478003.7067  -4655348.7257   3577932.4395   6   8   0.0035   0.0044   0.0031   0.0022  -0.0032  -0.0023   0.00    0.0
2022/03/05 02:27:00.000  -2478003.7067  -4655348.7258   3577932.4396   6   8   0.0035   0.0044   0.0031   0.0022  -0.0032  -0.0023   0.00    0.0
2022/03/05 02:27:30.000  -2478003.7067  -4655348.7260   3577932.4397   6   8   0.0035   0.0044   0.0031   0.0022  -0.0032  -0.0023   0.00    0.0
2022/03/05 02:28:00.000  -2478003.7066  -4655348.7261   3577932.4397   6   8   0.0035   0.0044   0.0031   0.0022  -0.0032  -0.0023   0.00    0.0
2022/03/05 02:28:30.000  -2478003.7066  -4655348.7261   3577932.4397   6   8   0.0035   0.0044   0.0031   0.0022  -0.0032  -0.0023   0.00    0.0
2022/03/05 02:29:00.000  -2478003.7066  -4655348.7262   3577932.4398   6   8   0.0035   0.0044   0.0031   0.0022  -0.0032  -0.0023   0.00    0.0
2022/03/05 02:29:30.000  -2478003.7065  -4655348.7263   3577932.4398   6   8   0.0035   0.0044   0.0031   0.0022  -0.0032  -0.0023   0.00    0.0
2022/03/05 02:30:00.000  -2478003.7065  -4655348.7264   3577932.4398   6   8   0.0035   0.0044   0.0031   0.0022  -0.0032  -0.0023   0.00    0.0
2022/03/05 02:30:30.000  -2478003.7064  -4655348.7265   3577932.4399   6   8   0.0035   0.0044   0.0031   0.0022  -0.0032  -0.0023   0.00    0.0
2022/03/05 02:31:00.000  -2478003.7064  -4655348.7265   3577932.4398   6   8   0.0035   0.0044   0.0031   0.0022  -0.0032  -0.0023   0.00    0.0
2022/03/05 02:31:30.000  -2478003.7064  -4655348.7265   3577932.4398   6   8   0.0035   0.0044   0.0031   0.0022  -0.0032  -0.0023   0.00    0.0
2022/03/05 02:32:00.000  -2478003.7063  -4655348.7265   3577932.4398   6   8   0.0035   0.0044   0.0031   0.0022  -0.0032  -0.0023   0.00    0.0
2022/03/05 02:32:30.000  -2478003.7062  -4655348.7266   3577932.4399   6   8   0.0035   0.0044   0.0031   0.0022  -0.0032  -0.0023   0.00    0.0
2022/03/05 02:33:00.000  -2478003.7062  -4655348.7266   3577932.4399   6   8   0.0035   0.0044   0.0031   0.0022  -0.0032  -0.0023   0.00    0.0
2022/03/05 02:33:30.000  -2478003.7061  -4655348.7267   3577932.4399   6   8   0.0035   0.0044   0.0031   0.0022  -0.0032  -0.0023   0.00    0.0
2022/03/05 02:34:00.000  -2478003.7061  -4655348.7267   3577932.4399   6   8   0.0035   0.0044   0.0031   0.0022  -0.0032  -0.0023   0.00    0.0
2022/03/05 02:34:30.000  -2478003.7060  -4655348.7267   3577932.4399   6   8   0.0035   0.0044   0.0031   0.0022  -0.0032  -0.0023   0.00    0.0
2022/03/05 02:35:00.000  -2478003.7060  -4655348.7268   3577932.4400   6   8   0.0035   0.0044   0.0031   0.0022  -0.0032  -0.0023   0.00    0.0
2022/03/05 02:35:30.000  -2478003.7060  -4655348.7268   3577932.4400   6   8   0.0035   0.0044   0.0031   0.0022  -0.0032  -0.0023   0.00    0.0
2022/03/05 02:36:00.000  -2478003.7059  -4655348.7269   3577932.4400   6   8   0.0035   0.0044   0.0031   0.0022  -0.0032  -0.0023   0.00    0.0
2022/03/05 02:36:30.000  -2478003.7059  -4655348.7269   3577932.4400   6   8   0.0035   0.0044   0.0031   0.0022  -0.0032  -0.0022   0.00    0.0
2022/03/05 02:37:00.000  -2478003.7059  -4655348.7270   3577932.4400   6   8   0.0035   0.0044   0.0031   0.0022  -0.0032  -0.0022   0.00    0.0
2022/03/05 02:37:30.000  -2478003.7059  -4655348.7271   3577932.4401   6   8   0.0035   0.0044   0.0031   0.0022  -0.0032  -0.0022   0.00    0.0
2022/03/05 02:38:00.000  -2478003.7059  -4655348.7272   3577932.4401   6   8   0.0035   0.0044   0.0031   0.0022  -0.0032  -0.0022   0.00    0.0
2022/03/05 02:38:30.000  -2478003.7059  -4655348.7273   3577932.4402   6   8   0.0035   0.0044   0.0031   0.0022  -0.0032  -0.0022   0.00    0.0
2022/03/05 02:39:00.000  -2478003.7058  -4655348.7274   3577932.4402   6   8   0.0035   0.0044   0.0031   0.0022  -0.0032  -0.0022   0.00    0.0
2022/03/05 02:39:30.000  -2478003.7058  -4655348.7275   3577932.4403   6   8   0.0035   0.0044   0.0031   0.0022  -0.0032  -0.0022   0.00    0.0
2022/03/05 02:40:00.000  -2478003.7058  -4655348.7276   3577932.4404   6   8   0.0035   0.0044   0.0031   0.0022  -0.0032  -0.0022   0.00    0.0
2022/03/05 02:40:30.000  -2478003.7058  -4655348.7277   3577932.4404   6   8   0.0035   0.0044   0.0031   0.0022  -0.0032  -0.0022   0.00    0.0
2022/03/05 02:41:00.000  -2478003.7057  -4655348.7278   3577932.4404   6   8   0.0035   0.0044   0.0031   0.0022  -0.0032  -0.0022   0.00    0.0
2022/03/05 02:41:30.000  -2478003.7057  -4655348.7278   3577932.4404   6   8   0.0035   0.0044   0.0031   0.0022  -0.0032  -0.0022   0.00    0.0
2022/03/05 02:42:00.000  -2478003.7056  -4655348.7279   3577932.4405   6   8   0.0035   0.0044   0.0031   0.0022  -0.0032  -0.0022   0.00    0.0
2022/03/05 02:42:30.000  -2478003.7056  -4655348.7279   3577932.4405   6   8   0.0035   0.0044   0.0031   0.0022  -0.0032  -0.0022   0.00    0.0
2022/03/05 02:43:00.000  -2478003.7055  -4655348.7280   3577932.4405   6   8   0.0035   0.0044   0.0031   0.0022  -0.0032  -0.0022   0.00    0.0
2022/03/05 02:43:30.000  -2478003.7055  -4655348.7280   3577932.4405   6   8   0.0035   0.0044   0.0031   0.0022  -0.0032  -0.0022   0.00    0.0
2022/03/05 02:44:00.000  -2478003.7055  -4655348.7280   3577932.4405   6   8   0.0035   0.0044   0.0031   0.0022  -0.0032  -0.0022   0.00    0.0
2022/03/05 02:44:30.000  -2478003.7054  -4655348.7280   3577932.4405   6   8   0.0035   0.0044   0.0031   0.0022  -0.0032  -0.0022   0.00    0.0
2022/03/05 02:45:00.000  -2478003.7053  -4655348.7281   3577932.4405   6   8   0.0035   0.0044   0.0031   0.0022  -0.0032  -0.0022   0.00    0.0
2022/03/05 02:45:30.000  -2478003.7053  -4655348.7281   3577932.4405   6   8   0.0035   0.0044   0.0031   0.0022  -0.0032  -0.0022   0.00    0.0
2022/03/05 02:46:00.000  -2478003.7053  -4655348.7281   3577932.4406   6   8   0.0035   0.0044   0.0031   0.0022  -0.0032  -0.0022   0.00    0.0
2022/03/05 02:46:30.000  -2478003.7052  -4655348.7282   3577932.4406   6   8   0.0035   0.0044   0.0031   0.0022  -0.0032  -0.0022   0.00    0.0
2022/03/05 02:47:00.000  -2478003.7052  -4655348.7283   3577932.4407   6   8   0.0035   0.0044   0.0031   0.0022  -0.0032  -0.0022   0.00    0.0
2022/03/05 02:47:30.000  -2478003.7052  -4655348.7284   3577932.4407   6   8   0.0035   0.0044   0.0031   0.0022  -0.0032  -0.0022   0.00    0.0
2022/03/05 02:48:00.000  -2478003.7052  -4655348.7285   3577932.4407   6   8   0.0035   0.0044   0.0031   0.0022  -0.0032  -0.0022   0.00    0.0
2022/03/05 02:48:30.000  -2478003.7052  -4655348.7285   3577932.4407   6   8   0.0035   0.0044   0.0031   0.0022  -0.0032  -0.0022   0.00    0.0
2022/03/05 02:49:00.000  -2478003.7052  -4655348.7286   3577932.4408   6   8   0.0035   0.0044   0.0031   0.0022  -0.0032  -0.0022   0.00    0.0
2022/03/05 02:49:30.000  -2478003.7051  -4655348.7286   3577932.4408   6   8   0.0035   0.0044   0.0031   0.0022  -0.0032  -0.0022   0.00    0.0
2022/03/05 02:50:00.000  -2478003.7051  -4655348.7287   3577932.4408   6   8   0.0035   0.0044   0.0031   0.0022  -0.0032  -0.0022   0.00    0.0
2022/03/05 02:50:30.000  -2478003.7050  -4655348.7288   3577932.4409   6   8   0.0035   0.0044   0.0031   0.0022  -0.0032  -0.0022   0.00    0.0
2022/03/05 02:51:00.000  -2478003.7051  -4655348.7289   3577932.4409   6   8   0.0035   0.0044   0.0031   0.0022  -0.0032  -0.0022   0.00    0.0
2022/03/05 02:51:30.000  -2478003.7051  -4655348.7290   3577932.4410   6   8   0.0035   0.0044   0.0031   0.0022  -0.0032  -0.0022   0.00    0.0
2022/03/05 02:52:00.000  -2478003.7051  -4655348.7290   3577932.4410   6   8   0.0035   0.0044   0.0031   0.0022  -0.0032  -0.0022   0.00    0.0
2022/03/05 02:52:30.000  -2478003.7050  -4655348.7291   3577932.4410   6   8   0.0035   0.0044   0.0031   0.0022  -0.0032  -0.0022   0.00    0.0
2022/03/05 02:53:00.000  -2478003.7050  -4655348.7291   3577932.4410   6   8   0.0035   0.0044   0.0031   0.0022  -0.0032  -0.0022   0.00    0.0
2022/03/05 02:53:30.000  -2478003.7050  -4655348.7291   3577932.4411   6   8   0.0035   0.0044   0.0031   0.0021  -0.0032  -0.0022   0.00    0.0
2022/03/05 02:54:00.000  -2478003.7050  -4655348.7291   3577932.4410   6   8   0.0035   0.0044   0.0031   0.0021  -0.0032  -0.0022   0.00    0.0
2022/03/05 02:54:30.000  -2478003.7050  -4655348.7290   3577932.4411   6   8   0.0035   0.0044   0.0031   0.0021  -0.0032  -0.0022   0.00    0.0
2022/03/05 02:55:00.000  -2478003.7049  -4655348.7290   3577932.4411   6   8   0.0035   0.0044   0.0031   0.0021  -0.0032  -0.0022   0.00    0.0
2022/03/05 02:55:30.000  -2478003.7049  -4655348.7290   3577932.4411   6   8   0.0035   0.0044   0.0031   0.0021  -0.0032  -0.0022   0.00    0.0
2022/03/05 02:56:00.000  -2478003.7049  -4655348.7290   3577932.4411   6   8   0.0035   0.0044   0.0031   0.0021  -0.0032  -0.0022   0.00    0.0
2022/03/05 02:56:30.000  -2478003.7049  -4655348.7290   3577932.4411   6   8   0.0035   0.0044   0.0031   0.0021  -0.0032  -0.0022   0.00    0.0
2022/03/05 02:57:00.000  -2478003.7049  -4655348.7291   3577932.4411   6   8   0.0035   0.0044   0.0031   0.0021  -0.0032  -0.0022   0.00    0.0
2022/03/05 02:57:30.000  -2478003.7048  -4655348.7291   3577932.4411   6   8   0.0035   0.0044   0.0031   0.0021  -0.0032  -0.0022   0.00    0.0
2022/03/05 02:58:00.000  -2478003.7048  -4655348.7291   3577932.4411   6   8   0.0035   0.0044   0.0031   0.0021  -0.0032  -0.0022   0.00    0.0
2022/03/05 02:58:30.000  -2478003.7048  -4655348.7291   3577932.4411   6   8   0.0035   0.0044   0.0031   0.0021  -0.0032  -0.0022   0.00    0.0
2022/03/05 02:59:00.000  -2478003.7048  -4655348.7291   3577932.4411   6   8   0.0035   0.0044   0.0031   0.0021  -0.0032  -0.0022   0.00    0.0
2022/03/05 02:59:30.000  -2478003.7048  -4655348.7290   3577932.4410   6   8   0.0035   0.0044   0.0031   0.0021  -0.0032  -0.0022   0.00    0.0
2022/03/05 03:00:00.000  -2478003.7047  -4655348.7291   3577932.4410   6   8   0.0035   0.0044   0.0031   0.0021  -0.0032  -0.0022   0.00    0.0
2022/03/05 03:00:30.000  -2478003.7047  -4655348.7291   3577932.4410   6   8   0.0035   0.0044   0.0031   0.0021  -0.0032  -0.0022   0.00    0.0
2022/03/05 03:01:00.000  -2478003.7047  -4655348.7290   3577932.4409   6   8   0.0035   0.0044   0.0031   0.0021  -0.0032  -0.0022   0.00    0.0
2022/03/05 03:01:30.000  -2478003.7047  -4655348.7289   3577932.4409   6   8   0.0035   0.0044   0.0031   0.0021  -0.0032  -0.0022   0.00    0.0
2022/03/05 03:02:00.000  -2478003.7046  -4655348.7289   3577932.4409   6   8   0.0035   0.0044   0.0031   0.0021  -0.0032  -0.0022   0.00    0.0
2022/03/05 03:02:30.000  -2478003.7046  -4655348.7289   3577932.4409   6   8   0.0035   0.0044   0.0031   0.0021  -0.0032  -0.0022   0.00    0.0
2022/03/05 03:03:00.000  -2478003.7046  -4655348.7289   3577932.4409   6   8   0.0035   0.0044   0.0031   0.0021  -0.0032  -0.0022   0.00    0.0
2022/03/05 03:03:30.000  -2478003.7045  -4655348.7289   3577932.4409   6   8   0.0035   0.0044   0.0031   0.0021  -0.0032  -0.0022   0.00    0.0
2022/03/05 03:04:00.000  -2478003.7045  -4655348.7288   3577932.4408   6   8   0.0035   0.0044   0.0031   0.0021  -0.0032  -0.0022   0.00    0.0
2022/03/05 03:04:30.000  -2478003.7045  -4655348.7287   3577932.4408   6   8   0.0035   0.0044   0.0031   0.0021  -0.0032  -0.0022   0.00    0.0
2022/03/05 03:05:00.000  -2478003.7045  -4655348.7286   3577932.4407   6   8   0.0035   0.0044   0.0031   0.0021  -0.0032  -0.0022   0.00    0.0
2022/03/05 03:05:30.000  -2478003.7044  -4655348.7285   3577932.4406   6   8   0.0035   0.0044   0.0031   0.0021  -0.0032  -0.0022   0.00    0.0
2022/03/05 03:06:00.000  -2478003.7044  -4655348.7284   3577932.4406   6   8   0.0035   0.0044   0.0031   0.0021  -0.0032  -0.0022   0.00    0.0
2022/03/05 03:06:30.000  -2478003.7044  -4655348.7283   3577932.4405   6   8   0.0035   0.0044   0.0031   0.0021  -0.0032  -0.0022   0.00    0.0
2022/03/05 03:07:00.000  -2478003.7044  -4655348.7282   3577932.4404   6   8   0.0035   0.0045   0.0031   0.0021  -0.0032  -0.0022   0.00    0.0
2022/03/05 03:07:30.000  -2478003.7043  -4655348.7281   3577932.4403   6   8   0.0035   0.0045   0.0031   0.0021  -0.0032  -0.0022   0.00    0.0
2022/03/05 03:08:00.000  -2478003.7043  -4655348.7280   3577932.4403   6   8   0.0035   0.0045   0.0031   0.0021  -0.0032  -0.0022   0.00    0.0
2022/03/05 03:08:30.000  -2478003.7042  -4655348.7280   3577932.4402   6   8   0.0035   0.0045   0.0031   0.0021  -0.0032  -0.0022   0.00    0.0
2022/03/05 03:09:00.000  -2478003.7042  -4655348.7279   3577932.4402   6   8   0.0035   0.0045   0.0031   0.0021  -0.0032  -0.0022   0.00    0.0
2022/03/05 03:09:30.000  -2478003.7042  -4655348.7278   3577932.4402   6   8   0.0035   0.0045   0.0031   0.0021  -0.0032  -0.0022   0.00    0.0
2022/03/05 03:10:00.000  -2478003.7041  -4655348.7277   3577932.4401   6   8   0.0035   0.0045   0.0031   0.0021  -0.0032  -0.0022   0.00    0.0
2022/03/05 03:10:30.000  -2478003.7041  -4655348.7276   3577932.4401   6   8   0.0035   0.0045   0.0031   0.0021  -0.0032  -0.0022   0.00    0.0
2022/03/05 03:11:00.000  -2478003.7041  -4655348.7276   3577932.4401   6   8   0.0035   0.0045   0.0031   0.0021  -0.0032  -0.0022   0.00    0.0
2022/03/05 03:11:30.000  -2478003.7040  -4655348.7275   3577932.4401   6   8   0.0035   0.0045   0.0031   0.0021  -0.0032  -0.0022   0.00    0.0
2022/03/05 03:12:00.000  -2478003.7040  -4655348.7275   3577932.4400   6   8   0.0035   0.0045   0.0031   0.0021  -0.0032  -0.0022   0.00    0.0
2022/03/05 03:12:30.000  -2478003.7039  -4655348.7274   3577932.4400   6   8   0.0035   0.0045   0.0031   0.0021  -0.0032  -0.0022   0.00    0.0
2022/03/05 03:13:00.000  -2478003.7039  -4655348.7273   3577932.4400   6   8   0.0035   0.0045   0.0031   0.0021  -0.0032  -0.0022   0.00    0.0
2022/03/05 03:13:30.000  -2478003.7038  -4655348.7273   3577932.4399   6   8   0.0035   0.0045   0.0031   0.0021  -0.0032  -0.0022   0.00    0.0
2022/03/05 03:14:00.000  -2478003.7038  -4655348.7272   3577932.4399   6   8   0.0035   0.0045   0.0031   0.0021  -0.0032  -0.0022   0.00    0.0
2022/03/05 03:14:30.000  -2478003.7038  -4655348.7272   3577932.4399   6   8   0.0035   0.0045   0.0031   0.0021  -0.0032  -0.0022   0.00    0.0
2022/03/05 03:15:00.000  -2478003.7038  -4655348.7272   3577932.4399   6   8   0.0035   0.0045   0.0031   0.0021  -0.0032  -0.0022   0.00    0.0
2022/03/05 03:15:30.000  -2478003.7037  -4655348.7271   3577932.4398   6   8   0.0035   0.0045   0.0031   0.0021  -0.0032  -0.0022   0.00    0.0
2022/03/05 03:16:00.000  -2478003.7037  -4655348.7271   3577932.4398   6   8   0.0035   0.0045   0.0031   0.0021  -0.0032  -0.0022   0.00    0.0
2022/03/05 03:16:30.000  -2478003.7037  -4655348.7270   3577932.4397   6   8   0.0035   0.0045   0.0031   0.0021  -0.0032  -0.0022   0.00    0.0
2022/03/05 03:17:00.000  -2478003.7037  -4655348.7270   3577932.4397   6   8   0.0035   0.0045   0.0031   0.0021  -0.0032  -0.0022   0.00    0.0
2022/03/05 03:17:30.000  -2478003.7037  -4655348.7270   3577932.4397   6   8   0.0035   0.0045   0.0031   0.0021  -0.0032  -0.0022   0.00    0.0
2022/03/05 03:18:00.000  -2478003.7036  -4655348.7270   3577932.4397   6   8   0.0035   0.0045   0.0031   0.0021  -0.0032  -0.0022   0.00    0.0
2022/03/05 03:18:30.000  -2478003.7036  -4655348.7269   3577932.4397   6   8   0.0035   0.0045   0.0031   0.0021  -0.0032  -0.0022   0.00    0.0
2022/03/05 03:19:00.000  -2478003.7035  -4655348.7268   3577932.4396   6   8   0.0035   0.0045   0.0031   0.0021  -0.0032  -0.0022   0.00    0.0
2022/03/05 03:19:30.000  -2478003.7035  -4655348.7267   3577932.4395   6   8   0.0035   0.0045   0.0031   0.0021  -0.0032  -0.0022   0.00    0.0
2022/03/05 03:20:00.000  -2478003.7035  -4655348.7266   3577932.4395   6   8   0.0035   0.0045   0.0031   0.0021  -0.0032  -0.0022   0.00    0.0
2022/03/05 03:20:30.000  -2478003.7035  -4655348.7266   3577932.4394   6   8   0.0035   0.0045   0.0031   0.0021  -0.0032  -0.0022   0.00    0.0
2022/03/05 03:21:00.000  -2478003.7035  -4655348.7265   3577932.4394   6   8   0.0035   0.0045   0.0031   0.0021  -0.0032  -0.0022   0.00    0.0
2022/03/05 03:21:30.000  -2478003.7035  -4655348.7265   3577932.4394   6   8   0.0035   0.0045   0.0031   0.0021  -0.0032  -0.0022   0.00    0.0
2022/03/05 03:22:00.000  -2478003.7035  -4655348.7265   3577932.4394   6   8   0.0035   0.0045   0.0031   0.0021  -0.0032  -0.0022   0.00    0.0
2022/03/05 03:22:30.000  -2478003.7035  -4655348.7265   3577932.4393   6   8   0.0035   0.0045   0.0031   0.0021  -0.0032  -0.0022   0.00    0.0
2022/03/05 03:23:00.000  -2478003.7035  -4655348.7265   3577932.4393   6   8   0.0035   0.0045   0.0031   0.0021  -0.0032  -0.0022   0.00    0.0
