% program   : RTKPOST ver.2.4.3 b34
% inp file  : C:\Users\Danisimo\Desktop\?????\CHIL\chil0640.22o
% inp file  : C:\Users\Danisimo\Desktop\?????\CRFP\crfp0640.22o
% inp file  : C:\Users\Danisimo\Desktop\?????\BRDM00DLR_S_20220640000_01D_MN.rnx
% inp file  : C:\Users\Danisimo\Desktop\?????\igs21996.sp3
% inp file  : C:\Users\Danisimo\Desktop\?????\igs21996.clk_30s
% obs start : 2022/03/05 00:00:00.0 GPST (week2199 518400.0s)
% obs end   : 2022/03/05 23:59:30.0 GPST (week2199 604770.0s)
% pos mode  : Static
% freqs     : L1+2
% solution  : Forward
% elev mask : 15.0 deg
% dynamics  : off
% tidecorr  : off
% ionos opt : Broadcast
% tropo opt : Saastamoinen
% ephemeris : Precise
% navi sys  : GPS
% amb res   : Continuous
% val thres : 3.0
% antenna1  :                       ( 0.0000  0.0000  0.6440)
% antenna2  :                       ( 0.0000  0.0000  0.0355)
% ref pos   : -2410446.9477  -4710490.2666   3550422.5286
%
% (x/y/z-ecef=WGS84,Q=1:fix,2:float,3:sbas,4:dgps,5:single,6:ppp,ns=# of satellites)
%  GPST                      x-ecef(m)      y-ecef(m)      z-ecef(m)   Q  ns   sdx(m)   sdy(m)   sdz(m)  sdxy(m)  sdyz(m)  sdzx(m) age(s)  ratio
2022/03/05 00:00:00.000  -2478003.6525  -4655348.3449   3577931.9508   2   8   0.5239   0.9700   0.8952   0.4708  -0.7823  -0.5239   0.00    1.2
2022/03/05 00:00:30.000  -2478003.7093  -4655348.3078   3577932.0613   2   8   0.3473   0.6010   0.5218   0.2656  -0.4476  -0.3022   0.00    1.1
2022/03/05 00:01:00.000  -2478003.6215  -4655348.3558   3577932.0404   2   8   0.2670   0.4238   0.3428   0.1632  -0.2872  -0.1950   0.00    1.0
2022/03/05 00:01:30.000  -2478003.6111  -4655348.2912   3577932.0446   2   8   0.2209   0.3196   0.2431   0.1028  -0.1989  -0.1353   0.00    1.0
2022/03/05 00:02:00.000  -2478003.5783  -4655348.3231   3577932.0570   2   8   0.1909   0.2521   0.1837   0.0635  -0.1473  -0.1001   0.00    1.2
2022/03/05 00:02:30.000  -2478003.5482  -4655348.3881   3577932.0810   2   8   0.1692   0.2048   0.1443   0.0317  -0.1138  -0.0768   0.00    1.1
2022/03/05 00:03:00.000  -2478003.5832  -4655348.4503   3577932.0585   2   8   0.1524   0.1704   0.1168  -0.0208  -0.0909  -0.0606   0.00    1.3
2022/03/05 00:03:30.000  -2478003.6084  -4655348.5494   3577932.0830   2   8   0.1389   0.1444   0.0969  -0.0334  -0.0747  -0.0490   0.00    1.4
2022/03/05 00:04:00.000  -2478003.6160  -4655348.6294   3577932.1023   2   8   0.1276   0.1242   0.0820  -0.0376  -0.0627  -0.0403   0.00    1.4
2022/03/05 00:04:30.000  -2478003.6621  -4655348.7423   3577932.1895   2   7   0.1187   0.1084   0.0709  -0.0385  -0.0539  -0.0344   0.00    1.1
2022/03/05 00:05:00.000  -2478003.7259  -4655348.8247   3577932.2399   2   7   0.1107   0.0956   0.0620  -0.0383  -0.0470  -0.0297   0.00    1.1
2022/03/05 00:05:30.000  -2478003.8196  -4655348.9038   3577932.3004   2   7   0.1036   0.0851   0.0549  -0.0376  -0.0414  -0.0259   0.00    1.1
2022/03/05 00:06:00.000  -2478003.8945  -4655348.9473   3577932.3429   2   7   0.0972   0.0764   0.0489  -0.0366  -0.0368  -0.0227   0.00    1.1
2022/03/05 00:06:30.000  -2478003.9856  -4655348.9595   3577932.3828   2   7   0.0914   0.0691   0.0440  -0.0353  -0.0330  -0.0201   0.00    1.0
2022/03/05 00:07:00.000  -2478004.0851  -4655348.9401   3577932.4161   2   7   0.0861   0.0628   0.0398  -0.0340  -0.0298  -0.0180   0.00    1.0
2022/03/05 00:07:30.000  -2478004.1411  -4655348.8911   3577932.4377   2   7   0.0813   0.0575   0.0363  -0.0327  -0.0271  -0.0161   0.00    1.0
2022/03/05 00:08:00.000  -2478004.1856  -4655348.8106   3577932.4409   2   7   0.0769   0.0529   0.0332  -0.0313  -0.0248  -0.0146   0.00    1.1
2022/03/05 00:08:30.000  -2478004.2324  -4655348.7232   3577932.4323   2   7   0.0728   0.0488   0.0306  -0.0300  -0.0228  -0.0132   0.00    1.2
2022/03/05 00:09:00.000  -2478004.2427  -4655348.6488   3577932.4114   2   7   0.0691   0.0453   0.0282  -0.0288  -0.0211  -0.0121   0.00    1.3
2022/03/05 00:09:30.000  -2478004.2580  -4655348.5847   3577932.3943   2   7   0.0657   0.0421   0.0262  -0.0276  -0.0195  -0.0111   0.00    1.5
2022/03/05 00:10:00.000  -2478004.2469  -4655348.5231   3577932.3683   2   7   0.0626   0.0393   0.0244  -0.0264  -0.0182  -0.0103   0.00    1.7
2022/03/05 00:10:30.000  -2478004.2175  -4655348.4658   3577932.3395   2   7   0.0597   0.0368   0.0228  -0.0253  -0.0170  -0.0095   0.00    2.0
2022/03/05 00:11:00.000  -2478004.1873  -4655348.4142   3577932.3150   2   7   0.0570   0.0346   0.0214  -0.0243  -0.0159  -0.0089   0.00    2.2
2022/03/05 00:11:30.000  -2478004.1395  -4655348.3852   3577932.2917   2   7   0.0545   0.0326   0.0201  -0.0233  -0.0149  -0.0083   0.00    2.4
2022/03/05 00:12:00.000  -2478004.0917  -4655348.3692   3577932.2729   2   7   0.0522   0.0307   0.0189  -0.0224  -0.0140  -0.0078   0.00    2.4
2022/03/05 00:12:30.000  -2478004.0387  -4655348.3630   3577932.2544   2   7   0.0500   0.0291   0.0179  -0.0216  -0.0133  -0.0074   0.00    2.3
2022/03/05 00:13:00.000  -2478003.9895  -4655348.3679   3577932.2419   2   7   0.0480   0.0276   0.0169  -0.0208  -0.0125  -0.0070   0.00    2.3
2022/03/05 00:13:30.000  -2478003.9435  -4655348.3823   3577932.2328   2   7   0.0462   0.0262   0.0160  -0.0200  -0.0119  -0.0066   0.00    2.3
2022/03/05 00:14:00.000  -2478003.8897  -4655348.4053   3577932.2244   2   7   0.0444   0.0249   0.0152  -0.0193  -0.0113  -0.0063   0.00    2.3
2022/03/05 00:14:30.000  -2478003.8348  -4655348.4348   3577932.2199   2   7   0.0428   0.0237   0.0145  -0.0186  -0.0107  -0.0060   0.00    2.3
2022/03/05 00:15:00.000  -2478003.7781  -4655348.4753   3577932.2172   2   7   0.0412   0.0226   0.0138  -0.0180  -0.0102  -0.0057   0.00    2.4
2022/03/05 00:15:30.000  -2478003.7182  -4655348.5211   3577932.2166   2   8   0.0398   0.0216   0.0132  -0.0174  -0.0098  -0.0055   0.00    1.0
2022/03/05 00:16:00.000  -2478003.6553  -4655348.5756   3577932.2199   2   8   0.0385   0.0207   0.0126  -0.0168  -0.0093  -0.0053   0.00    1.1
2022/03/05 00:16:30.000  -2478003.6017  -4655348.6247   3577932.2210   2   8   0.0372   0.0198   0.0121  -0.0163  -0.0089  -0.0051   0.00    1.1
2022/03/05 00:17:00.000  -2478003.5555  -4655348.6738   3577932.2242   2   8   0.0360   0.0190   0.0116  -0.0158  -0.0085  -0.0049   0.00    1.2
2022/03/05 00:17:30.000  -2478003.5100  -4655348.7171   3577932.2276   2   8   0.0349   0.0183   0.0112  -0.0153  -0.0082  -0.0047   0.00    1.2
2022/03/05 00:18:00.000  -2478003.4615  -4655348.7584   3577932.2329   2   8   0.0338   0.0176   0.0107  -0.0149  -0.0079  -0.0046   0.00    1.2
2022/03/05 00:18:30.000  -2478003.4148  -4655348.8002   3577932.2415   2   8   0.0328   0.0169   0.0103  -0.0144  -0.0076  -0.0044   0.00    1.2
2022/03/05 00:19:00.000  -2478003.3733  -4655348.8366   3577932.2508   2   8   0.0318   0.0163   0.0099  -0.0140  -0.0073  -0.0043   0.00    1.1
2022/03/05 00:19:30.000  -2478003.3352  -4655348.8670   3577932.2610   2   8   0.0309   0.0157   0.0096  -0.0136  -0.0070  -0.0042   0.00    1.1
2022/03/05 00:20:00.000  -2478003.2940  -4655348.8974   3577932.2694   2   8   0.0301   0.0152   0.0093  -0.0133  -0.0068  -0.0041   0.00    1.1
2022/03/05 00:20:30.000  -2478003.2555  -4655348.9226   3577932.2762   2   8   0.0293   0.0147   0.0089  -0.0129  -0.0065  -0.0039   0.00    1.1
2022/03/05 00:21:00.000  -2478003.2212  -4655348.9410   3577932.2827   2   8   0.0285   0.0142   0.0086  -0.0126  -0.0063  -0.0038   0.00    1.1
2022/03/05 00:21:30.000  -2478003.1936  -4655348.9574   3577932.2905   2   8   0.0278   0.0138   0.0084  -0.0123  -0.0061  -0.0037   0.00    1.1
2022/03/05 00:22:00.000  -2478003.1686  -4655348.9697   3577932.2971   2   8   0.0271   0.0133   0.0081  -0.0120  -0.0059  -0.0037   0.00    1.1
2022/03/05 00:22:30.000  -2478003.1479  -4655348.9763   3577932.3011   2   8   0.0264   0.0129   0.0079  -0.0117  -0.0057  -0.0036   0.00    1.1
2022/03/05 00:23:00.000  -2478003.1314  -4655348.9813   3577932.3032   2   8   0.0258   0.0125   0.0076  -0.0115  -0.0055  -0.0035   0.00    1.0
2022/03/05 00:23:30.000  -2478003.1170  -4655348.9814   3577932.3038   2   8   0.0252   0.0122   0.0074  -0.0112  -0.0054  -0.0034   0.00    1.0
2022/03/05 00:24:00.000  -2478003.1026  -4655348.9819   3577932.3035   2   8   0.0246   0.0118   0.0072  -0.0110  -0.0052  -0.0033   0.00    1.0
2022/03/05 00:24:30.000  -2478003.0884  -4655348.9807   3577932.3015   2   8   0.0241   0.0115   0.0070  -0.0107  -0.0050  -0.0033   0.00    1.0
2022/03/05 00:25:00.000  -2478003.0740  -4655348.9809   3577932.2990   2   8   0.0236   0.0112   0.0068  -0.0105  -0.0049  -0.0032   0.00    1.0
2022/03/05 00:25:30.000  -2478003.0642  -4655348.9796   3577932.2955   2   8   0.0231   0.0109   0.0066  -0.0103  -0.0048  -0.0031   0.00    1.1
2022/03/05 00:26:00.000  -2478003.0566  -4655348.9790   3577932.2909   2   8   0.0226   0.0106   0.0064  -0.0101  -0.0046  -0.0031   0.00    1.1
2022/03/05 00:26:30.000  -2478003.0513  -4655348.9772   3577932.2853   2   8   0.0221   0.0104   0.0063  -0.0099  -0.0045  -0.0030   0.00    1.1
2022/03/05 00:27:00.000  -2478003.0483  -4655348.9756   3577932.2797   2   8   0.0217   0.0101   0.0061  -0.0097  -0.0044  -0.0030   0.00    1.1
2022/03/05 00:27:30.000  -2478003.0492  -4655348.9739   3577932.2737   2   8   0.0213   0.0099   0.0060  -0.0096  -0.0043  -0.0029   0.00    1.1
2022/03/05 00:28:00.000  -2478003.0511  -4655348.9725   3577932.2671   2   8   0.0208   0.0096   0.0058  -0.0094  -0.0042  -0.0028   0.00    1.1
2022/03/05 00:28:30.000  -2478003.0533  -4655348.9731   3577932.2618   2   8   0.0205   0.0094   0.0057  -0.0092  -0.0041  -0.0028   0.00    1.1
2022/03/05 00:29:00.000  -2478003.0581  -4655348.9744   3577932.2565   2   8   0.0201   0.0092   0.0056  -0.0091  -0.0040  -0.0028   0.00    1.1
2022/03/05 00:29:30.000  -2478003.0668  -4655348.9749   3577932.2520   2   8   0.0197   0.0090   0.0054  -0.0089  -0.0039  -0.0027   0.00    1.1
2022/03/05 00:30:00.000  -2478003.0779  -4655348.9757   3577932.2477   2   8   0.0194   0.0088   0.0053  -0.0088  -0.0038  -0.0027   0.00    1.1
2022/03/05 00:30:30.000  -2478003.0927  -4655348.9738   3577932.2435   2   8   0.0190   0.0086   0.0052  -0.0087  -0.0037  -0.0026   0.00    1.1
2022/03/05 00:31:00.000  -2478003.1074  -4655348.9718   3577932.2395   2   8   0.0187   0.0084   0.0051  -0.0085  -0.0036  -0.0026   0.00    1.1
2022/03/05 00:31:30.000  -2478003.1266  -4655348.9683   3577932.2370   2   8   0.0184   0.0082   0.0050  -0.0084  -0.0035  -0.0025   0.00    1.1
2022/03/05 00:32:00.000  -2478003.1466  -4655348.9639   3577932.2351   2   8   0.0181   0.0081   0.0049  -0.0083  -0.0034  -0.0025   0.00    1.0
2022/03/05 00:32:30.000  -2478003.1681  -4655348.9586   3577932.2334   2   8   0.0178   0.0079   0.0048  -0.0082  -0.0034  -0.0025   0.00    1.0
2022/03/05 00:33:00.000  -2478003.1897  -4655348.9508   3577932.2315   2   8   0.0175   0.0078   0.0047  -0.0080  -0.0033  -0.0024   0.00    1.0
2022/03/05 00:33:30.000  -2478003.2107  -4655348.9408   3577932.2293   2   8   0.0173   0.0076   0.0046  -0.0079  -0.0032  -0.0024   0.00    1.0
2022/03/05 00:34:00.000  -2478003.2263  -4655348.9305   3577932.2275   2   8   0.0170   0.0075   0.0045  -0.0078  -0.0032  -0.0023   0.00    1.0
2022/03/05 00:34:30.000  -2478003.2405  -4655348.9186   3577932.2254   2   8   0.0168   0.0073   0.0044  -0.0077  -0.0031  -0.0023   0.00    1.0
2022/03/05 00:35:00.000  -2478003.2525  -4655348.9062   3577932.2232   2   8   0.0165   0.0072   0.0043  -0.0076  -0.0030  -0.0023   0.00    1.0
2022/03/05 00:35:30.000  -2478003.2594  -4655348.8942   3577932.2206   2   8   0.0163   0.0071   0.0043  -0.0075  -0.0030  -0.0022   0.00    1.0
2022/03/05 00:36:00.000  -2478003.2628  -4655348.8814   3577932.2171   2   8   0.0161   0.0070   0.0042  -0.0075  -0.0029  -0.0022   0.00    1.0
2022/03/05 00:36:30.000  -2478003.2646  -4655348.8690   3577932.2131   2   8   0.0158   0.0069   0.0041  -0.0074  -0.0029  -0.0022   0.00    1.0
2022/03/05 00:37:00.000  -2478003.2632  -4655348.8583   3577932.2093   2   8   0.0156   0.0067   0.0040  -0.0073  -0.0028  -0.0022   0.00    1.0
2022/03/05 00:37:30.000  -2478003.2609  -4655348.8475   3577932.2050   2   8   0.0154   0.0066   0.0040  -0.0072  -0.0027  -0.0021   0.00    1.0
2022/03/05 00:38:00.000  -2478003.2564  -4655348.8379   3577932.2009   2   8   0.0152   0.0065   0.0039  -0.0071  -0.0027  -0.0021   0.00    1.1
2022/03/05 00:38:30.000  -2478003.2476  -4655348.8302   3577932.1972   2   8   0.0150   0.0064   0.0038  -0.0070  -0.0027  -0.0021   0.00    1.1
2022/03/05 00:39:00.000  -2478003.2405  -4655348.8237   3577932.1940   2   8   0.0148   0.0063   0.0038  -0.0070  -0.0026  -0.0020   0.00    1.1
2022/03/05 00:39:30.000  -2478003.2325  -4655348.8189   3577932.1917   2   8   0.0146   0.0062   0.0037  -0.0069  -0.0026  -0.0020   0.00    1.1
2022/03/05 00:40:00.000  -2478003.2255  -4655348.8150   3577932.1898   2   8   0.0145   0.0061   0.0036  -0.0068  -0.0025  -0.0020   0.00    1.1
2022/03/05 00:40:30.000  -2478003.2211  -4655348.8123   3577932.1885   2   8   0.0143   0.0061   0.0036  -0.0068  -0.0025  -0.0020   0.00    1.2
2022/03/05 00:41:00.000  -2478003.2167  -4655348.8105   3577932.1875   2   8   0.0141   0.0060   0.0035  -0.0067  -0.0024  -0.0019   0.00    1.2
2022/03/05 00:41:30.000  -2478003.2124  -4655348.8105   3577932.1873   2   8   0.0140   0.0059   0.0035  -0.0066  -0.0024  -0.0019   0.00    1.2
2022/03/05 00:42:00.000  -2478003.2098  -4655348.8111   3577932.1872   2   8   0.0138   0.0058   0.0034  -0.0066  -0.0024  -0.0019   0.00    1.2
2022/03/05 00:42:30.000  -2478003.2085  -4655348.8122   3577932.1871   2   8   0.0136   0.0057   0.0034  -0.0065  -0.0023  -0.0019   0.00    1.2
2022/03/05 00:43:00.000  -2478003.2069  -4655348.8140   3577932.1874   2   8   0.0135   0.0057   0.0033  -0.0065  -0.0023  -0.0018   0.00    1.2
2022/03/05 00:43:30.000  -2478003.2069  -4655348.8161   3577932.1879   2   8   0.0133   0.0056   0.0033  -0.0064  -0.0022  -0.0018   0.00    1.2
2022/03/05 00:44:00.000  -2478003.2064  -4655348.8190   3577932.1889   2   8   0.0132   0.0055   0.0032  -0.0064  -0.0022  -0.0018   0.00    1.2
2022/03/05 00:44:30.000  -2478003.2061  -4655348.8218   3577932.1898   2   8   0.0131   0.0054   0.0032  -0.0063  -0.0022  -0.0018   0.00    1.1
2022/03/05 00:45:00.000  -2478003.2050  -4655348.8239   3577932.1912   2   8   0.0129   0.0054   0.0032  -0.0062  -0.0021  -0.0018   0.00    1.1
2022/03/05 00:45:30.000  -2478003.2031  -4655348.8256   3577932.1923   2   8   0.0128   0.0053   0.0031  -0.0062  -0.0021  -0.0017   0.00    1.1
2022/03/05 00:46:00.000  -2478003.2007  -4655348.8272   3577932.1940   2   8   0.0127   0.0053   0.0031  -0.0061  -0.0021  -0.0017   0.00    1.1
2022/03/05 00:46:30.000  -2478003.1967  -4655348.8287   3577932.1956   2   8   0.0125   0.0052   0.0030  -0.0061  -0.0021  -0.0017   0.00    1.1
2022/03/05 00:47:00.000  -2478003.1905  -4655348.8299   3577932.1972   2   8   0.0124   0.0051   0.0030  -0.0061  -0.0020  -0.0017   0.00    1.1
2022/03/05 00:47:30.000  -2478003.1845  -4655348.8311   3577932.1988   2   8   0.0123   0.0051   0.0030  -0.0060  -0.0020  -0.0016   0.00    1.1
2022/03/05 00:48:00.000  -2478003.1772  -4655348.8319   3577932.2002   2   8   0.0122   0.0050   0.0029  -0.0060  -0.0020  -0.0016   0.00    1.1
2022/03/05 00:48:30.000  -2478003.1687  -4655348.8329   3577932.2019   2   8   0.0121   0.0050   0.0029  -0.0059  -0.0019  -0.0016   0.00    1.1
2022/03/05 00:49:00.000  -2478003.1615  -4655348.8332   3577932.2036   2   8   0.0119   0.0049   0.0028  -0.0059  -0.0019  -0.0016   0.00    1.1
2022/03/05 00:49:30.000  -2478003.1540  -4655348.8338   3577932.2056   2   9   0.0118   0.0049   0.0028  -0.0058  -0.0019  -0.0016   0.00    1.0
2022/03/05 00:50:00.000  -2478003.1457  -4655348.8343   3577932.2076   2   9   0.0117   0.0048   0.0028  -0.0058  -0.0019  -0.0015   0.00    1.0
2022/03/05 00:50:30.000  -2478003.1374  -4655348.8346   3577932.2092   2   9   0.0116   0.0048   0.0027  -0.0058  -0.0018  -0.0015   0.00    1.0
2022/03/05 00:51:00.000  -2478003.1297  -4655348.8345   3577932.2108   2   9   0.0115   0.0047   0.0027  -0.0057  -0.0018  -0.0015   0.00    1.0
2022/03/05 00:51:30.000  -2478003.1223  -4655348.8346   3577932.2124   2   9   0.0114   0.0047   0.0027  -0.0057  -0.0018  -0.0015   0.00    1.0
2022/03/05 00:52:00.000  -2478003.1155  -4655348.8346   3577932.2142   2   9   0.0113   0.0046   0.0026  -0.0057  -0.0018  -0.0015   0.00    1.0
2022/03/05 00:52:30.000  -2478003.1078  -4655348.8349   3577932.2156   2   9   0.0112   0.0046   0.0026  -0.0056  -0.0018  -0.0014   0.00    1.0
2022/03/05 00:53:00.000  -2478003.1016  -4655348.8353   3577932.2171   2   9   0.0111   0.0046   0.0026  -0.0056  -0.0017  -0.0014   0.00    1.0
2022/03/05 00:53:30.000  -2478003.0958  -4655348.8358   3577932.2183   2   9   0.0110   0.0045   0.0026  -0.0056  -0.0017  -0.0014   0.00    1.0
2022/03/05 00:54:00.000  -2478003.0910  -4655348.8363   3577932.2193   2   9   0.0109   0.0045   0.0025  -0.0055  -0.0017  -0.0014   0.00    1.0
2022/03/05 00:54:30.000  -2478003.0869  -4655348.8368   3577932.2203   2   9   0.0108   0.0044   0.0025  -0.0055  -0.0017  -0.0014   0.00    1.0
2022/03/05 00:55:00.000  -2478003.0846  -4655348.8374   3577932.2212   2   9   0.0107   0.0044   0.0025  -0.0055  -0.0017  -0.0014   0.00    1.0
2022/03/05 00:55:30.000  -2478003.0819  -4655348.8380   3577932.2219   2   9   0.0107   0.0044   0.0025  -0.0054  -0.0016  -0.0013   0.00    1.0
2022/03/05 00:56:00.000  -2478003.0798  -4655348.8388   3577932.2228   2   9   0.0106   0.0043   0.0024  -0.0054  -0.0016  -0.0013   0.00    1.0
2022/03/05 00:56:30.000  -2478003.0781  -4655348.8396   3577932.2236   2   9   0.0105   0.0043   0.0024  -0.0054  -0.0016  -0.0013   0.00    1.1
2022/03/05 00:57:00.000  -2478003.0774  -4655348.8402   3577932.2243   2   9   0.0104   0.0043   0.0024  -0.0053  -0.0016  -0.0013   0.00    1.1
2022/03/05 00:57:30.000  -2478003.0778  -4655348.8407   3577932.2247   2  10   0.0103   0.0042   0.0024  -0.0053  -0.0016  -0.0013   0.00    1.0
2022/03/05 00:58:00.000  -2478003.0783  -4655348.8413   3577932.2255   2  10   0.0102   0.0042   0.0023  -0.0053  -0.0016  -0.0012   0.00    1.0
2022/03/05 00:58:30.000  -2478003.0785  -4655348.8417   3577932.2261   2  10   0.0102   0.0042   0.0023  -0.0053  -0.0015  -0.0012   0.00    1.0
2022/03/05 00:59:00.000  -2478003.0778  -4655348.8422   3577932.2268   2  10   0.0101   0.0041   0.0023  -0.0052  -0.0015  -0.0012   0.00    1.0
2022/03/05 00:59:30.000  -2478003.0773  -4655348.8425   3577932.2275   2  10   0.0100   0.0041   0.0023  -0.0052  -0.0015  -0.0012   0.00    1.0
2022/03/05 01:00:00.000  -2478003.0764  -4655348.8426   3577932.2283   2  10   0.0099   0.0041   0.0023  -0.0052  -0.0015  -0.0012   0.00    1.0
2022/03/05 01:00:30.000  -2478003.0756  -4655348.8427   3577932.2294   2   9   0.0099   0.0041   0.0022  -0.0052  -0.0015  -0.0012   0.00    1.0
2022/03/05 01:01:00.000  -2478003.0746  -4655348.8430   3577932.2304   2   9   0.0098   0.0040   0.0022  -0.0051  -0.0015  -0.0012   0.00    1.0
2022/03/05 01:01:30.000  -2478003.0741  -4655348.8428   3577932.2313   2   9   0.0097   0.0040   0.0022  -0.0051  -0.0015  -0.0012   0.00    1.0
2022/03/05 01:02:00.000  -2478003.0726  -4655348.8431   3577932.2323   2   9   0.0097   0.0040   0.0022  -0.0051  -0.0014  -0.0012   0.00    1.0
2022/03/05 01:02:30.000  -2478003.0708  -4655348.8436   3577932.2332   2   9   0.0096   0.0040   0.0022  -0.0051  -0.0014  -0.0012   0.00    1.0
2022/03/05 01:03:00.000  -2478003.0691  -4655348.8442   3577932.2342   2   9   0.0095   0.0039   0.0022  -0.0050  -0.0014  -0.0012   0.00    1.0
2022/03/05 01:03:30.000  -2478003.0669  -4655348.8451   3577932.2353   2   9   0.0095   0.0039   0.0021  -0.0050  -0.0014  -0.0012   0.00    1.0
2022/03/05 01:04:00.000  -2478003.0650  -4655348.8458   3577932.2360   2   9   0.0094   0.0039   0.0021  -0.0050  -0.0014  -0.0012   0.00    1.1
2022/03/05 01:04:30.000  -2478003.0639  -4655348.8464   3577932.2368   2   9   0.0094   0.0039   0.0021  -0.0050  -0.0014  -0.0012   0.00    1.1
2022/03/05 01:05:00.000  -2478003.0628  -4655348.8477   3577932.2377   2   9   0.0093   0.0038   0.0021  -0.0050  -0.0014  -0.0012   0.00    1.1
2022/03/05 01:05:30.000  -2478003.0615  -4655348.8490   3577932.2386   2   9   0.0092   0.0038   0.0021  -0.0049  -0.0014  -0.0011   0.00    1.1
2022/03/05 01:06:00.000  -2478003.0608  -4655348.8506   3577932.2399   2   9   0.0092   0.0038   0.0021  -0.0049  -0.0013  -0.0011   0.00    1.1
2022/03/05 01:06:30.000  -2478003.0600  -4655348.8525   3577932.2410   2   9   0.0091   0.0038   0.0020  -0.0049  -0.0013  -0.0011   0.00    1.1
2022/03/05 01:07:00.000  -2478003.0606  -4655348.8545   3577932.2424   2   9   0.0091   0.0038   0.0020  -0.0049  -0.0013  -0.0011   0.00    1.1
2022/03/05 01:07:30.000  -2478003.0615  -4655348.8567   3577932.2438   2   9   0.0090   0.0037   0.0020  -0.0049  -0.0013  -0.0011   0.00    1.1
2022/03/05 01:08:00.000  -2478003.0622  -4655348.8588   3577932.2453   2   9   0.0089   0.0037   0.0020  -0.0048  -0.0013  -0.0011   0.00    1.1
2022/03/05 01:08:30.000  -2478003.0644  -4655348.8608   3577932.2469   2   9   0.0089   0.0037   0.0020  -0.0048  -0.0013  -0.0011   0.00    1.1
2022/03/05 01:09:00.000  -2478003.0658  -4655348.8630   3577932.2485   2   9   0.0088   0.0037   0.0020  -0.0048  -0.0013  -0.0011   0.00    1.1
2022/03/05 01:09:30.000  -2478003.0682  -4655348.8652   3577932.2501   2   9   0.0088   0.0037   0.0020  -0.0048  -0.0013  -0.0011   0.00    1.1
2022/03/05 01:10:00.000  -2478003.0705  -4655348.8672   3577932.2519   2   9   0.0087   0.0036   0.0019  -0.0048  -0.0013  -0.0011   0.00    1.1
2022/03/05 01:10:30.000  -2478003.0725  -4655348.8690   3577932.2534   2   9   0.0087   0.0036   0.0019  -0.0047  -0.0013  -0.0010   0.00    1.2
2022/03/05 01:11:00.000  -2478003.0748  -4655348.8706   3577932.2550   2   9   0.0086   0.0036   0.0019  -0.0047  -0.0013  -0.0010   0.00    1.2
2022/03/05 01:11:30.000  -2478003.0777  -4655348.8719   3577932.2565   2   9   0.0085   0.0036   0.0019  -0.0047  -0.0012  -0.0010   0.00    1.2
2022/03/05 01:12:00.000  -2478003.0808  -4655348.8731   3577932.2578   2   9   0.0085   0.0036   0.0019  -0.0047  -0.0012  -0.0010   0.00    1.2
2022/03/05 01:12:30.000  -2478003.0841  -4655348.8740   3577932.2591   2   9   0.0084   0.0036   0.0019  -0.0047  -0.0012  -0.0010   0.00    1.3
2022/03/05 01:13:00.000  -2478003.0866  -4655348.8749   3577932.2606   2   9   0.0084   0.0035   0.0019  -0.0047  -0.0012  -0.0010   0.00    1.3
2022/03/05 01:13:30.000  -2478003.0888  -4655348.8757   3577932.2618   2   9   0.0083   0.0035   0.0019  -0.0046  -0.0012  -0.0010   0.00    1.3
2022/03/05 01:14:00.000  -2478003.0901  -4655348.8766   3577932.2629   2   9   0.0083   0.0035   0.0019  -0.0046  -0.0012  -0.0009   0.00    1.4
2022/03/05 01:14:30.000  -2478003.0926  -4655348.8770   3577932.2638   2   9   0.0082   0.0035   0.0018  -0.0046  -0.0012  -0.0009   0.00    1.4
2022/03/05 01:15:00.000  -2478003.0936  -4655348.8776   3577932.2647   2   9   0.0082   0.0035   0.0018  -0.0046  -0.0012  -0.0009   0.00    1.4
2022/03/05 01:15:30.000  -2478003.0948  -4655348.8779   3577932.2655   2   9   0.0081   0.0035   0.0018  -0.0046  -0.0012  -0.0009   0.00    1.4
2022/03/05 01:16:00.000  -2478003.0965  -4655348.8780   3577932.2663   2   9   0.0081   0.0035   0.0018  -0.0045  -0.0012  -0.0009   0.00    1.4
2022/03/05 01:16:30.000  -2478003.0978  -4655348.8781   3577932.2669   2   9   0.0080   0.0034   0.0018  -0.0045  -0.0012  -0.0008   0.00    1.4
2022/03/05 01:17:00.000  -2478003.0990  -4655348.8781   3577932.2673   2   9   0.0080   0.0034   0.0018  -0.0045  -0.0012  -0.0008   0.00    1.5
2022/03/05 01:17:30.000  -2478003.1005  -4655348.8778   3577932.2676   2   9   0.0079   0.0034   0.0018  -0.0045  -0.0012  -0.0008   0.00    1.5
2022/03/05 01:18:00.000  -2478003.1011  -4655348.8775   3577932.2676   2   9   0.0079   0.0034   0.0018  -0.0045  -0.0012  -0.0008   0.00    1.5
2022/03/05 01:18:30.000  -2478003.1025  -4655348.8769   3577932.2676   2   9   0.0078   0.0034   0.0018  -0.0045  -0.0012  -0.0008   0.00    1.4
2022/03/05 01:19:00.000  -2478003.1037  -4655348.8762   3577932.2674   2   9   0.0078   0.0034   0.0017  -0.0044  -0.0012  -0.0007   0.00    1.4
2022/03/05 01:19:30.000  -2478003.1056  -4655348.8753   3577932.2671   2   9   0.0077   0.0034   0.0017  -0.0044  -0.0012  -0.0007   0.00    1.3
2022/03/05 01:20:00.000  -2478003.1071  -4655348.8745   3577932.2666   2   9   0.0077   0.0034   0.0017  -0.0044  -0.0012  -0.0007   0.00    1.3
2022/03/05 01:20:30.000  -2478003.1084  -4655348.8739   3577932.2661   2   9   0.0076   0.0033   0.0017  -0.0044  -0.0012  -0.0007   0.00    1.3
2022/03/05 01:21:00.000  -2478003.1097  -4655348.8736   3577932.2658   2   9   0.0076   0.0033   0.0017  -0.0044  -0.0012  -0.0006   0.00    1.2
2022/03/05 01:21:30.000  -2478003.1116  -4655348.8733   3577932.2652   2   9   0.0075   0.0033   0.0017  -0.0044  -0.0012  -0.0006   0.00    1.2
2022/03/05 01:22:00.000  -2478003.1135  -4655348.8732   3577932.2645   2   9   0.0075   0.0033   0.0017  -0.0043  -0.0012  -0.0006   0.00    1.2
2022/03/05 01:22:30.000  -2478003.1156  -4655348.8730   3577932.2639   2   9   0.0074   0.0033   0.0017  -0.0043  -0.0011  -0.0006   0.00    1.2
2022/03/05 01:23:00.000  -2478003.1176  -4655348.8729   3577932.2633   2   9   0.0074   0.0033   0.0017  -0.0043  -0.0011  -0.0005   0.00    1.2
2022/03/05 01:23:30.000  -2478003.1198  -4655348.8731   3577932.2628   2   9   0.0073   0.0033   0.0017  -0.0043  -0.0011  -0.0005   0.00    1.2
2022/03/05 01:24:00.000  -2478003.1223  -4655348.8733   3577932.2625   2   9   0.0073   0.0033   0.0016  -0.0043  -0.0011  -0.0005   0.00    1.2
2022/03/05 01:24:30.000  -2478003.1247  -4655348.8737   3577932.2620   2   9   0.0072   0.0033   0.0016  -0.0043  -0.0011  -0.0005   0.00    1.2
2022/03/05 01:25:00.000  -2478003.1274  -4655348.8740   3577932.2617   2   9   0.0072   0.0032   0.0016  -0.0042  -0.0011  -0.0004   0.00    1.3
2022/03/05 01:25:30.000  -2478003.1306  -4655348.8744   3577932.2615   2   9   0.0071   0.0032   0.0016  -0.0042  -0.0011  -0.0004   0.00    1.3
2022/03/05 01:26:00.000  -2478003.1340  -4655348.8747   3577932.2613   2   9   0.0071   0.0032   0.0016  -0.0042  -0.0011  -0.0003   0.00    1.4
2022/03/05 01:26:30.000  -2478003.1373  -4655348.8749   3577932.2611   2   9   0.0070   0.0032   0.0016  -0.0042  -0.0011  -0.0003   0.00    1.4
2022/03/05 01:27:00.000  -2478003.1405  -4655348.8750   3577932.2610   2   9   0.0070   0.0032   0.0016  -0.0042  -0.0011  -0.0002   0.00    1.5
2022/03/05 01:27:30.000  -2478003.1430  -4655348.8751   3577932.2607   2   9   0.0070   0.0032   0.0016  -0.0042  -0.0011  -0.0002   0.00    1.5
2022/03/05 01:28:00.000  -2478003.1458  -4655348.8749   3577932.2604   2   9   0.0069   0.0032   0.0016  -0.0041  -0.0011  -0.0001   0.00    1.5
2022/03/05 01:28:30.000  -2478003.1483  -4655348.8747   3577932.2600   2   9   0.0069   0.0032   0.0016  -0.0041  -0.0011   0.0001   0.00    1.6
2022/03/05 01:29:00.000  -2478003.1506  -4655348.8745   3577932.2594   2   9   0.0068   0.0032   0.0016  -0.0041  -0.0011   0.0002   0.00    1.6
2022/03/05 01:29:30.000  -2478003.1521  -4655348.8742   3577932.2588   2   9   0.0068   0.0031   0.0016  -0.0041  -0.0011   0.0003   0.00    1.6
2022/03/05 01:30:00.000  -2478003.1536  -4655348.8737   3577932.2582   2   9   0.0067   0.0031   0.0015  -0.0041  -0.0011   0.0003   0.00    1.7
2022/03/05 01:30:30.000  -2478003.1552  -4655348.8731   3577932.2577   2   9   0.0067   0.0031   0.0015  -0.0041  -0.0011   0.0004   0.00    1.7
2022/03/05 01:31:00.000  -2478003.1564  -4655348.8723   3577932.2569   2   9   0.0067   0.0031   0.0015  -0.0040  -0.0011   0.0004   0.00    1.7
2022/03/05 01:31:30.000  -2478003.1576  -4655348.8712   3577932.2559   2   9   0.0066   0.0031   0.0015  -0.0040  -0.0011   0.0004   0.00    1.7
2022/03/05 01:32:00.000  -2478003.1592  -4655348.8698   3577932.2549   2   9   0.0066   0.0031   0.0015  -0.0040  -0.0011   0.0004   0.00    1.7
2022/03/05 01:32:30.000  -2478003.1603  -4655348.8684   3577932.2537   2   9   0.0065   0.0031   0.0015  -0.0040  -0.0011   0.0005   0.00    1.6
2022/03/05 01:33:00.000  -2478003.1615  -4655348.8668   3577932.2524   2   9   0.0065   0.0031   0.0015  -0.0040  -0.0011   0.0005   0.00    1.6
2022/03/05 01:33:30.000  -2478003.1632  -4655348.8651   3577932.2511   2   9   0.0065   0.0031   0.0015  -0.0040  -0.0011   0.0005   0.00    1.6
2022/03/05 01:34:00.000  -2478003.1648  -4655348.8635   3577932.2497   2   9   0.0064   0.0031   0.0015  -0.0040  -0.0011   0.0005   0.00    1.6
2022/03/05 01:34:30.000  -2478003.1670  -4655348.8616   3577932.2483   2   9   0.0064   0.0031   0.0015  -0.0039  -0.0011   0.0006   0.00    1.5
2022/03/05 01:35:00.000  -2478003.1696  -4655348.8597   3577932.2469   2   9   0.0063   0.0030   0.0015  -0.0039  -0.0011   0.0006   0.00    1.5
2022/03/05 01:35:30.000  -2478003.1722  -4655348.8580   3577932.2456   2   9   0.0063   0.0030   0.0015  -0.0039  -0.0011   0.0006   0.00    1.5
2022/03/05 01:36:00.000  -2478003.1751  -4655348.8563   3577932.2444   2   9   0.0063   0.0030   0.0015  -0.0039  -0.0011   0.0006   0.00    1.4
2022/03/05 01:36:30.000  -2478003.1793  -4655348.8542   3577932.2433   2   9   0.0062   0.0030   0.0015  -0.0039  -0.0011   0.0006   0.00    1.4
2022/03/05 01:37:00.000  -2478003.1839  -4655348.8521   3577932.2421   2   9   0.0062   0.0030   0.0014  -0.0039  -0.0011   0.0006   0.00    1.4
2022/03/05 01:37:30.000  -2478003.1885  -4655348.8504   3577932.2410   2   9   0.0062   0.0030   0.0014  -0.0038  -0.0011   0.0007   0.00    1.4
2022/03/05 01:38:00.000  -2478003.1939  -4655348.8484   3577932.2400   2   9   0.0061   0.0030   0.0014  -0.0038  -0.0011   0.0007   0.00    1.4
2022/03/05 01:38:30.000  -2478003.1992  -4655348.8465   3577932.2389   2   9   0.0061   0.0030   0.0014  -0.0038  -0.0011   0.0007   0.00    1.4
2022/03/05 01:39:00.000  -2478003.2051  -4655348.8445   3577932.2378   2   9   0.0060   0.0030   0.0014  -0.0038  -0.0011   0.0007   0.00    1.4
2022/03/05 01:39:30.000  -2478003.2103  -4655348.8427   3577932.2368   2   9   0.0060   0.0030   0.0014  -0.0038  -0.0011   0.0007   0.00    1.4
2022/03/05 01:40:00.000  -2478003.2151  -4655348.8410   3577932.2357   2   9   0.0060   0.0030   0.0014  -0.0038  -0.0011   0.0007   0.00    1.4
2022/03/05 01:40:30.000  -2478003.2204  -4655348.8394   3577932.2348   2   9   0.0059   0.0030   0.0014  -0.0038  -0.0011   0.0007   0.00    1.5
2022/03/05 01:41:00.000  -2478003.2253  -4655348.8380   3577932.2340   2   9   0.0059   0.0029   0.0014  -0.0037  -0.0011   0.0007   0.00    1.5
2022/03/05 01:41:30.000  -2478003.2299  -4655348.8366   3577932.2332   2   9   0.0059   0.0029   0.0014  -0.0037  -0.0011   0.0008   0.00    1.6
2022/03/05 01:42:00.000  -2478003.2339  -4655348.8354   3577932.2323   2   9   0.0058   0.0029   0.0014  -0.0037  -0.0011   0.0008   0.00    1.6
2022/03/05 01:42:30.000  -2478003.2377  -4655348.8343   3577932.2315   2   9   0.0058   0.0029   0.0014  -0.0037  -0.0011   0.0008   0.00    1.6
2022/03/05 01:43:00.000  -2478003.2405  -4655348.8342   3577932.2316   2   8   0.0058   0.0029   0.0014  -0.0037  -0.0011   0.0008   0.00    1.7
2022/03/05 01:43:30.000  -2478003.2419  -4655348.8343   3577932.2316   2   8   0.0057   0.0029   0.0014  -0.0037  -0.0011   0.0008   0.00    1.8
2022/03/05 01:44:00.000  -2478003.2435  -4655348.8344   3577932.2316   2   8   0.0057   0.0029   0.0014  -0.0037  -0.0011   0.0008   0.00    1.9
2022/03/05 01:44:30.000  -2478003.2456  -4655348.8342   3577932.2317   2   8   0.0057   0.0029   0.0014  -0.0036  -0.0011   0.0008   0.00    1.9
2022/03/05 01:45:00.000  -2478003.2467  -4655348.8344   3577932.2319   2   8   0.0056   0.0029   0.0014  -0.0036  -0.0011   0.0008   0.00    1.0
2022/03/05 01:45:30.000  -2478003.2480  -4655348.8345   3577932.2320   2   8   0.0056   0.0029   0.0014  -0.0036  -0.0011   0.0008   0.00    1.0
2022/03/05 01:46:00.000  -2478003.2497  -4655348.8344   3577932.2322   2   8   0.0056   0.0029   0.0014  -0.0036  -0.0011   0.0009   0.00    1.0
2022/03/05 01:46:30.000  -2478003.2515  -4655348.8342   3577932.2325   2   8   0.0055   0.0029   0.0014  -0.0036  -0.0011   0.0009   0.00    1.1
2022/03/05 01:47:00.000  -2478003.2534  -4655348.8340   3577932.2328   2   8   0.0055   0.0029   0.0014  -0.0036  -0.0011   0.0009   0.00    1.1
2022/03/05 01:47:30.000  -2478003.2555  -4655348.8336   3577932.2330   2   7   0.0055   0.0029   0.0014  -0.0036  -0.0011   0.0009   0.00    2.2
2022/03/05 01:48:00.000  -2478003.2579  -4655348.8331   3577932.2332   2   7   0.0055   0.0029   0.0014  -0.0036  -0.0011   0.0009   0.00    2.2
2022/03/05 01:48:30.000  -2478003.2607  -4655348.8324   3577932.2335   2   7   0.0054   0.0029   0.0013  -0.0035  -0.0011   0.0009   0.00    2.3
2022/03/05 01:49:00.000  -2478003.2637  -4655348.8315   3577932.2337   2   7   0.0054   0.0028   0.0013  -0.0035  -0.0011   0.0009   0.00    2.3
2022/03/05 01:49:30.000  -2478003.2669  -4655348.8305   3577932.2339   2   7   0.0054   0.0028   0.0013  -0.0035  -0.0012   0.0009   0.00    2.3
2022/03/05 01:50:00.000  -2478003.2705  -4655348.8294   3577932.2340   2   7   0.0053   0.0028   0.0013  -0.0035  -0.0012   0.0009   0.00    2.2
2022/03/05 01:50:30.000  -2478003.2741  -4655348.8282   3577932.2340   2   7   0.0053   0.0028   0.0013  -0.0035  -0.0012   0.0009   0.00    2.2
2022/03/05 01:51:00.000  -2478003.2780  -4655348.8269   3577932.2339   2   7   0.0053   0.0028   0.0013  -0.0035  -0.0012   0.0009   0.00    2.1
2022/03/05 01:51:30.000  -2478003.2822  -4655348.8254   3577932.2338   2   7   0.0052   0.0028   0.0013  -0.0035  -0.0012   0.0009   0.00    2.1
2022/03/05 01:52:00.000  -2478003.2862  -4655348.8239   3577932.2336   2   7   0.0052   0.0028   0.0013  -0.0035  -0.0012   0.0009   0.00    2.0
2022/03/05 01:52:30.000  -2478003.2906  -4655348.8222   3577932.2333   2   7   0.0052   0.0028   0.0013  -0.0034  -0.0012   0.0009   0.00    2.0
2022/03/05 01:53:00.000  -2478003.2946  -4655348.8205   3577932.2329   2   7   0.0052   0.0028   0.0013  -0.0034  -0.0012   0.0010   0.00    1.9
2022/03/05 01:53:30.000  -2478003.2989  -4655348.8187   3577932.2325   2   7   0.0051   0.0028   0.0013  -0.0034  -0.0012   0.0010   0.00    1.8
2022/03/05 01:54:00.000  -2478003.3031  -4655348.8170   3577932.2320   2   7   0.0051   0.0028   0.0013  -0.0034  -0.0012   0.0010   0.00    1.7
2022/03/05 01:54:30.000  -2478003.3071  -4655348.8152   3577932.2314   2   7   0.0051   0.0028   0.0013  -0.0034  -0.0012   0.0010   0.00    1.7
2022/03/05 01:55:00.000  -2478003.3108  -4655348.8136   3577932.2309   2   7   0.0050   0.0028   0.0013  -0.0034  -0.0012   0.0010   0.00    1.6
2022/03/05 01:55:30.000  -2478003.3138  -4655348.8122   3577932.2304   2   7   0.0050   0.0028   0.0013  -0.0034  -0.0012   0.0010   0.00    1.5
2022/03/05 01:56:00.000  -2478003.3172  -4655348.8108   3577932.2298   2   7   0.0050   0.0028   0.0013  -0.0034  -0.0012   0.0010   0.00    1.5
2022/03/05 01:56:30.000  -2478003.3210  -4655348.8093   3577932.2293   2   7   0.0050   0.0028   0.0013  -0.0033  -0.0012   0.0010   0.00    1.4
2022/03/05 01:57:00.000  -2478003.3244  -4655348.8080   3577932.2287   2   7   0.0049   0.0028   0.0013  -0.0033  -0.0012   0.0010   0.00    1.4
2022/03/05 01:57:30.000  -2478003.3271  -4655348.8070   3577932.2282   2   7   0.0049   0.0027   0.0013  -0.0033  -0.0012   0.0010   0.00    1.4
2022/03/05 01:58:00.000  -2478003.3301  -4655348.8059   3577932.2278   2   7   0.0049   0.0027   0.0013  -0.0033  -0.0012   0.0010   0.00    1.3
2022/03/05 01:58:30.000  -2478003.3333  -4655348.8049   3577932.2275   2   7   0.0048   0.0027   0.0013  -0.0033  -0.0012   0.0010   0.00    1.3
2022/03/05 01:59:00.000  -2478003.3364  -4655348.8041   3577932.2272   2   7   0.0048   0.0027   0.0013  -0.0033  -0.0012   0.0010   0.00    1.3
2022/03/05 01:59:30.000  -2478003.3395  -4655348.8034   3577932.2269   2   7   0.0048   0.0027   0.0013  -0.0033  -0.0012   0.0010   0.00    1.3
2022/03/05 02:00:00.000  -2478003.3425  -4655348.8028   3577932.2268   2   7   0.0048   0.0027   0.0013  -0.0032  -0.0012   0.0010   0.00    1.3
2022/03/05 02:00:30.000  -2478003.3452  -4655348.8025   3577932.2267   2   7   0.0047   0.0027   0.0013  -0.0032  -0.0012   0.0010   0.00    1.3
2022/03/05 02:01:00.000  -2478003.3482  -4655348.8022   3577932.2268   2   7   0.0047   0.0027   0.0013  -0.0032  -0.0012   0.0010   0.00    1.3
2022/03/05 02:01:30.000  -2478003.3508  -4655348.8021   3577932.2268   2   7   0.0047   0.0027   0.0013  -0.0032  -0.0012   0.0010   0.00    1.3
2022/03/05 02:02:00.000  -2478003.3537  -4655348.8019   3577932.2268   2   7   0.0047   0.0027   0.0013  -0.0032  -0.0012   0.0010   0.00    1.3
2022/03/05 02:02:30.000  -2478003.3561  -4655348.8020   3577932.2269   2   7   0.0046   0.0027   0.0013  -0.0032  -0.0012   0.0010   0.00    1.3
2022/03/05 02:03:00.000  -2478003.3588  -4655348.8020   3577932.2271   2   7   0.0046   0.0027   0.0013  -0.0032  -0.0012   0.0010   0.00    1.4
2022/03/05 02:03:30.000  -2478003.3616  -4655348.8020   3577932.2273   2   7   0.0046   0.0027   0.0013  -0.0032  -0.0012   0.0010   0.00    1.4
2022/03/05 02:04:00.000  -2478003.3645  -4655348.8019   3577932.2275   2   7   0.0046   0.0027   0.0013  -0.0031  -0.0012   0.0010   0.00    1.4
2022/03/05 02:04:30.000  -2478003.3670  -4655348.8020   3577932.2277   2   7   0.0045   0.0027   0.0012  -0.0031  -0.0012   0.0010   0.00    1.5
2022/03/05 02:05:00.000  -2478003.3693  -4655348.8022   3577932.2280   2   7   0.0045   0.0026   0.0012  -0.0031  -0.0012   0.0010   0.00    1.5
2022/03/05 02:05:30.000  -2478003.3715  -4655348.8023   3577932.2282   2   7   0.0045   0.0026   0.0012  -0.0031  -0.0012   0.0010   0.00    1.5
2022/03/05 02:06:00.000  -2478003.3737  -4655348.8024   3577932.2284   2   7   0.0045   0.0026   0.0012  -0.0031  -0.0012   0.0010   0.00    1.6
2022/03/05 02:06:30.000  -2478003.3754  -4655348.8027   3577932.2287   2   7   0.0044   0.0026   0.0012  -0.0031  -0.0012   0.0010   0.00    1.6
2022/03/05 02:07:00.000  -2478003.3764  -4655348.8033   3577932.2289   2   7   0.0044   0.0026   0.0012  -0.0031  -0.0012   0.0010   0.00    1.6
2022/03/05 02:07:30.000  -2478003.3773  -4655348.8039   3577932.2292   2   7   0.0044   0.0026   0.0012  -0.0031  -0.0012   0.0010   0.00    1.7
2022/03/05 02:08:00.000  -2478003.3780  -4655348.8045   3577932.2295   2   7   0.0044   0.0026   0.0012  -0.0030  -0.0012   0.0010   0.00    1.7
2022/03/05 02:08:30.000  -2478003.3786  -4655348.8052   3577932.2299   2   7   0.0043   0.0026   0.0012  -0.0030  -0.0012   0.0010   0.00    1.8
2022/03/05 02:09:00.000  -2478003.3791  -4655348.8059   3577932.2302   2   7   0.0043   0.0026   0.0012  -0.0030  -0.0012   0.0010   0.00    1.8
2022/03/05 02:09:30.000  -2478003.3792  -4655348.8067   3577932.2307   2   7   0.0043   0.0026   0.0012  -0.0030  -0.0012   0.0010   0.00    1.9
2022/03/05 02:10:00.000  -2478003.3793  -4655348.8075   3577932.2311   2   7   0.0043   0.0026   0.0012  -0.0030  -0.0012   0.0010   0.00    2.0
2022/03/05 02:10:30.000  -2478003.3788  -4655348.8086   3577932.2315   2   7   0.0042   0.0026   0.0012  -0.0030  -0.0012   0.0010   0.00    2.0
2022/03/05 02:11:00.000  -2478003.3781  -4655348.8097   3577932.2320   2   7   0.0042   0.0026   0.0012  -0.0030  -0.0012   0.0010   0.00    2.1
2022/03/05 02:11:30.000  -2478003.3777  -4655348.8108   3577932.2325   2   7   0.0042   0.0025   0.0012  -0.0029  -0.0012   0.0010   0.00    2.2
2022/03/05 02:12:00.000  -2478003.3774  -4655348.8117   3577932.2331   2   7   0.0042   0.0025   0.0012  -0.0029  -0.0011   0.0010   0.00    2.2
2022/03/05 02:12:30.000  -2478003.3772  -4655348.8127   3577932.2335   2   7   0.0041   0.0025   0.0012  -0.0029  -0.0011   0.0010   0.00    2.3
2022/03/05 02:13:00.000  -2478003.3772  -4655348.8136   3577932.2341   2   7   0.0041   0.0025   0.0012  -0.0029  -0.0011   0.0010   0.00    2.4
2022/03/05 02:13:30.000  -2478003.3773  -4655348.8144   3577932.2346   2   7   0.0041   0.0025   0.0012  -0.0029  -0.0011   0.0010   0.00    2.4
2022/03/05 02:14:00.000  -2478003.3771  -4655348.8153   3577932.2351   2   7   0.0041   0.0025   0.0012  -0.0029  -0.0011   0.0010   0.00    2.5
2022/03/05 02:14:30.000  -2478003.3775  -4655348.8159   3577932.2355   2   7   0.0040   0.0025   0.0012  -0.0029  -0.0011   0.0010   0.00    2.5
2022/03/05 02:15:00.000  -2478003.3780  -4655348.8164   3577932.2359   2   7   0.0040   0.0025   0.0012  -0.0029  -0.0011   0.0010   0.00    2.6
2022/03/05 02:15:30.000  -2478003.3785  -4655348.8168   3577932.2362   2   7   0.0040   0.0025   0.0012  -0.0028  -0.0011   0.0010   0.00    2.6
2022/03/05 02:16:00.000  -2478003.3794  -4655348.8169   3577932.2364   2   7   0.0040   0.0025   0.0012  -0.0028  -0.0011   0.0010   0.00    2.6
2022/03/05 02:16:30.000  -2478003.3807  -4655348.8168   3577932.2367   2   7   0.0040   0.0025   0.0012  -0.0028  -0.0011   0.0010   0.00    2.6
2022/03/05 02:17:00.000  -2478003.3826  -4655348.8165   3577932.2369   2   7   0.0039   0.0025   0.0012  -0.0028  -0.0011   0.0010   0.00    2.6
2022/03/05 02:17:30.000  -2478003.3847  -4655348.8159   3577932.2369   2   7   0.0039   0.0025   0.0012  -0.0028  -0.0011   0.0010   0.00    2.6
2022/03/05 02:18:00.000  -2478003.3869  -4655348.8152   3577932.2370   2   7   0.0039   0.0024   0.0012  -0.0028  -0.0011   0.0010   0.00    2.6
2022/03/05 02:18:30.000  -2478003.3890  -4655348.8146   3577932.2371   2   7   0.0039   0.0024   0.0012  -0.0028  -0.0011   0.0010   0.00    2.6
2022/03/05 02:19:00.000  -2478003.3915  -4655348.8138   3577932.2372   2   7   0.0038   0.0024   0.0011  -0.0027  -0.0011   0.0009   0.00    2.6
2022/03/05 02:19:30.000  -2478003.3936  -4655348.8131   3577932.2373   2   7   0.0038   0.0024   0.0011  -0.0027  -0.0011   0.0009   0.00    2.6
2022/03/05 02:20:00.000  -2478003.3959  -4655348.8125   3577932.2375   2   7   0.0038   0.0024   0.0011  -0.0027  -0.0011   0.0009   0.00    2.6
2022/03/05 02:20:30.000  -2478003.3978  -4655348.8119   3577932.2376   2   7   0.0038   0.0024   0.0011  -0.0027  -0.0011   0.0009   0.00    2.6
2022/03/05 02:21:00.000  -2478003.3997  -4655348.8115   3577932.2379   2   7   0.0038   0.0024   0.0011  -0.0027  -0.0011   0.0009   0.00    2.6
2022/03/05 02:21:30.000  -2478003.4012  -4655348.8111   3577932.2380   2   7   0.0037   0.0024   0.0011  -0.0027  -0.0011   0.0009   0.00    2.6
2022/03/05 02:22:00.000  -2478003.4029  -4655348.8107   3577932.2383   2   8   0.0037   0.0024   0.0011  -0.0027  -0.0011   0.0009   0.00    1.0
2022/03/05 02:22:30.000  -2478003.4042  -4655348.8105   3577932.2387   2   8   0.0037   0.0024   0.0011  -0.0027  -0.0011   0.0009   0.00    1.0
2022/03/05 02:23:00.000  -2478003.4054  -4655348.8106   3577932.2392   2   8   0.0037   0.0024   0.0011  -0.0026  -0.0011   0.0009   0.00    1.0
2022/03/05 02:23:30.000  -2478003.4062  -4655348.8108   3577932.2397   2   8   0.0037   0.0024   0.0011  -0.0026  -0.0011   0.0009   0.00    1.1
2022/03/05 02:24:00.000  -2478003.4065  -4655348.8114   3577932.2404   2   8   0.0036   0.0023   0.0011  -0.0026  -0.0011   0.0009   0.00    1.1
2022/03/05 02:24:30.000  -2478003.4059  -4655348.8124   3577932.2410   2   8   0.0036   0.0023   0.0011  -0.0026  -0.0011   0.0009   0.00    1.1
2022/03/05 02:25:00.000  -2478003.4054  -4655348.8134   3577932.2418   2   8   0.0036   0.0023   0.0011  -0.0026  -0.0011   0.0009   0.00    1.1
2022/03/05 02:25:30.000  -2478003.4045  -4655348.8147   3577932.2425   2   8   0.0036   0.0023   0.0011  -0.0026  -0.0011   0.0009   0.00    1.1
2022/03/05 02:26:00.000  -2478003.4029  -4655348.8163   3577932.2434   2   8   0.0036   0.0023   0.0011  -0.0026  -0.0011   0.0009   0.00    1.1
2022/03/05 02:26:30.000  -2478003.4013  -4655348.8180   3577932.2443   2   8   0.0035   0.0023   0.0011  -0.0025  -0.0011   0.0009   0.00    1.1
2022/03/05 02:27:00.000  -2478003.3996  -4655348.8197   3577932.2452   2   8   0.0035   0.0023   0.0011  -0.0025  -0.0011   0.0009   0.00    1.1
2022/03/05 02:27:30.000  -2478003.3979  -4655348.8214   3577932.2461   2   8   0.0035   0.0023   0.0011  -0.0025  -0.0011   0.0009   0.00    1.1
2022/03/05 02:28:00.000  -2478003.3960  -4655348.8232   3577932.2469   2   8   0.0035   0.0023   0.0011  -0.0025  -0.0011   0.0009   0.00    1.1
2022/03/05 02:28:30.000  -2478003.3939  -4655348.8250   3577932.2477   2   8   0.0035   0.0023   0.0011  -0.0025  -0.0010   0.0009   0.00    1.1
2022/03/05 02:29:00.000  -2478003.3919  -4655348.8267   3577932.2486   2   8   0.0034   0.0023   0.0011  -0.0025  -0.0010   0.0009   0.00    1.2
2022/03/05 02:29:30.000  -2478003.3900  -4655348.8284   3577932.2493   2   8   0.0034   0.0022   0.0011  -0.0025  -0.0010   0.0009   0.00    1.2
2022/03/05 02:30:00.000  -2478003.3882  -4655348.8298   3577932.2500   2   8   0.0034   0.0022   0.0011  -0.0025  -0.0010   0.0008   0.00    1.2
2022/03/05 02:30:30.000  -2478003.3865  -4655348.8313   3577932.2507   2   8   0.0034   0.0022   0.0011  -0.0024  -0.0010   0.0008   0.00    1.2
2022/03/05 02:31:00.000  -2478003.3850  -4655348.8325   3577932.2514   2   8   0.0034   0.0022   0.0011  -0.0024  -0.0010   0.0008   0.00    1.3
2022/03/05 02:31:30.000  -2478003.3837  -4655348.8336   3577932.2521   2   8   0.0033   0.0022   0.0011  -0.0024  -0.0010   0.0008   0.00    1.3
2022/03/05 02:32:00.000  -2478003.3826  -4655348.8347   3577932.2526   2   8   0.0033   0.0022   0.0011  -0.0024  -0.0010   0.0008   0.00    1.4
2022/03/05 02:32:30.000  -2478003.3819  -4655348.8355   3577932.2532   2   8   0.0033   0.0022   0.0011  -0.0024  -0.0010   0.0008   0.00    1.4
2022/03/05 02:33:00.000  -2478003.3811  -4655348.8363   3577932.2537   2   8   0.0033   0.0022   0.0011  -0.0024  -0.0010   0.0008   0.00    1.5
2022/03/05 02:33:30.000  -2478003.3807  -4655348.8369   3577932.2541   2   8   0.0033   0.0022   0.0010  -0.0024  -0.0010   0.0008   0.00    1.6
2022/03/05 02:34:00.000  -2478003.3806  -4655348.8374   3577932.2544   2   8   0.0033   0.0022   0.0010  -0.0024  -0.0010   0.0008   0.00    1.7
2022/03/05 02:34:30.000  -2478003.3808  -4655348.8378   3577932.2547   2   8   0.0032   0.0022   0.0010  -0.0023  -0.0010   0.0008   0.00    1.8
2022/03/05 02:35:00.000  -2478003.3811  -4655348.8380   3577932.2548   2   8   0.0032   0.0022   0.0010  -0.0023  -0.0010   0.0008   0.00    1.8
2022/03/05 02:35:30.000  -2478003.3815  -4655348.8383   3577932.2550   2   8   0.0032   0.0021   0.0010  -0.0023  -0.0010   0.0008   0.00    1.9
2022/03/05 02:36:00.000  -2478003.3817  -4655348.8387   3577932.2552   2   8   0.0032   0.0021   0.0010  -0.0023  -0.0010   0.0008   0.00    2.0
2022/03/05 02:36:30.000  -2478003.3823  -4655348.8388   3577932.2553   2   8   0.0032   0.0021   0.0010  -0.0023  -0.0010   0.0008   0.00    2.0
2022/03/05 02:37:00.000  -2478003.3827  -4655348.8391   3577932.2553   2   8   0.0031   0.0021   0.0010  -0.0023  -0.0010   0.0008   0.00    1.9
2022/03/05 02:37:30.000  -2478003.3832  -4655348.8393   3577932.2554   2   8   0.0031   0.0021   0.0010  -0.0023  -0.0010   0.0008   0.00    1.8
2022/03/05 02:38:00.000  -2478003.3839  -4655348.8395   3577932.2554   2   8   0.0031   0.0021   0.0010  -0.0023  -0.0010   0.0008   0.00    1.7
2022/03/05 02:38:30.000  -2478003.3847  -4655348.8397   3577932.2555   2   8   0.0031   0.0021   0.0010  -0.0022  -0.0010   0.0008   0.00    1.6
2022/03/05 02:39:00.000  -2478003.3854  -4655348.8399   3577932.2555   2   8   0.0031   0.0021   0.0010  -0.0022  -0.0010   0.0007   0.00    1.6
2022/03/05 02:39:30.000  -2478003.3863  -4655348.8400   3577932.2556   2   8   0.0031   0.0021   0.0010  -0.0022  -0.0010   0.0007   0.00    1.5
2022/03/05 02:40:00.000  -2478003.3876  -4655348.8399   3577932.2557   2   8   0.0030   0.0021   0.0010  -0.0022  -0.0010   0.0007   0.00    1.5
2022/03/05 02:40:30.000  -2478003.3888  -4655348.8399   3577932.2557   2   8   0.0030   0.0021   0.0010  -0.0022  -0.0010   0.0007   0.00    1.5
2022/03/05 02:41:00.000  -2478003.3903  -4655348.8396   3577932.2558   2   8   0.0030   0.0020   0.0010  -0.0022  -0.0009   0.0007   0.00    1.5
2022/03/05 02:41:30.000  -2478003.3916  -4655348.8394   3577932.2558   2   8   0.0030   0.0020   0.0010  -0.0022  -0.0009   0.0007   0.00    1.5
2022/03/05 02:42:00.000  -2478003.3933  -4655348.8389   3577932.2558   2   8   0.0030   0.0020   0.0010  -0.0022  -0.0009   0.0007   0.00    1.5
2022/03/05 02:42:30.000  -2478003.3951  -4655348.8382   3577932.2557   2   8   0.0030   0.0020   0.0010  -0.0021  -0.0009   0.0007   0.00    1.5
2022/03/05 02:43:00.000  -2478003.3973  -4655348.8372   3577932.2555   2   8   0.0029   0.0020   0.0010  -0.0021  -0.0009   0.0007   0.00    1.6
2022/03/05 02:43:30.000  -2478003.3992  -4655348.8363   3577932.2554   2   8   0.0029   0.0020   0.0010  -0.0021  -0.0009   0.0007   0.00    1.6
2022/03/05 02:44:00.000  -2478003.4010  -4655348.8354   3577932.2553   2   8   0.0029   0.0020   0.0010  -0.0021  -0.0009   0.0007   0.00    1.7
2022/03/05 02:44:30.000  -2478003.4030  -4655348.8343   3577932.2551   2   8   0.0029   0.0020   0.0010  -0.0021  -0.0009   0.0007   0.00    1.7
2022/03/05 02:45:00.000  -2478003.4050  -4655348.8331   3577932.2549   2   8   0.0029   0.0020   0.0010  -0.0021  -0.0009   0.0007   0.00    1.8
2022/03/05 02:45:30.000  -2478003.4071  -4655348.8319   3577932.2548   2   8   0.0029   0.0020   0.0010  -0.0021  -0.0009   0.0007   0.00    1.8
2022/03/05 02:46:00.000  -2478003.4090  -4655348.8308   3577932.2546   2   8   0.0029   0.0020   0.0010  -0.0021  -0.0009   0.0007   0.00    1.9
2022/03/05 02:46:30.000  -2478003.4106  -4655348.8298   3577932.2544   2   8   0.0028   0.0020   0.0010  -0.0021  -0.0009   0.0007   0.00    1.9
2022/03/05 02:47:00.000  -2478003.4122  -4655348.8289   3577932.2543   2   8   0.0028   0.0019   0.0010  -0.0020  -0.0009   0.0007   0.00    1.9
2022/03/05 02:47:30.000  -2478003.4136  -4655348.8280   3577932.2540   2   8   0.0028   0.0019   0.0010  -0.0020  -0.0009   0.0007   0.00    1.9
2022/03/05 02:48:00.000  -2478003.4147  -4655348.8272   3577932.2538   2   8   0.0028   0.0019   0.0010  -0.0020  -0.0009   0.0006   0.00    2.0
2022/03/05 02:48:30.000  -2478003.4156  -4655348.8268   3577932.2538   2   8   0.0028   0.0019   0.0010  -0.0020  -0.0009   0.0006   0.00    1.9
2022/03/05 02:49:00.000  -2478003.4160  -4655348.8267   3577932.2538   2   8   0.0028   0.0019   0.0009  -0.0020  -0.0009   0.0006   0.00    1.9
2022/03/05 02:49:30.000  -2478003.4160  -4655348.8267   3577932.2539   2   8   0.0028   0.0019   0.0009  -0.0020  -0.0009   0.0006   0.00    1.9
2022/03/05 02:50:00.000  -2478003.4153  -4655348.8273   3577932.2542   2   8   0.0027   0.0019   0.0009  -0.0020  -0.0009   0.0006   0.00    1.8
2022/03/05 02:50:30.000  -2478003.4144  -4655348.8282   3577932.2545   2   8   0.0027   0.0019   0.0009  -0.0020  -0.0009   0.0006   0.00    1.8
2022/03/05 02:51:00.000  -2478003.4131  -4655348.8293   3577932.2549   2   8   0.0027   0.0019   0.0009  -0.0020  -0.0009   0.0006   0.00    1.8
2022/03/05 02:51:30.000  -2478003.4116  -4655348.8307   3577932.2554   2   8   0.0027   0.0019   0.0009  -0.0019  -0.0009   0.0006   0.00    1.7
2022/03/05 02:52:00.000  -2478003.4098  -4655348.8323   3577932.2559   2   8   0.0027   0.0019   0.0009  -0.0019  -0.0009   0.0006   0.00    1.7
2022/03/05 02:52:30.000  -2478003.4080  -4655348.8341   3577932.2565   2   8   0.0027   0.0019   0.0009  -0.0019  -0.0009   0.0006   0.00    1.6
2022/03/05 02:53:00.000  -2478003.4060  -4655348.8359   3577932.2572   2   8   0.0027   0.0019   0.0009  -0.0019  -0.0009   0.0006   0.00    1.6
2022/03/05 02:53:30.000  -2478003.4042  -4655348.8377   3577932.2579   2   8   0.0026   0.0018   0.0009  -0.0019  -0.0009   0.0006   0.00    1.6
2022/03/05 02:54:00.000  -2478003.4024  -4655348.8395   3577932.2586   2   8   0.0026   0.0018   0.0009  -0.0019  -0.0008   0.0006   0.00    1.6
2022/03/05 02:54:30.000  -2478003.4003  -4655348.8415   3577932.2594   2   8   0.0026   0.0018   0.0009  -0.0019  -0.0008   0.0006   0.00    1.6
2022/03/05 02:55:00.000  -2478003.3982  -4655348.8436   3577932.2602   2   8   0.0026   0.0018   0.0009  -0.0019  -0.0008   0.0006   0.00    1.5
2022/03/05 02:55:30.000  -2478003.3961  -4655348.8458   3577932.2610   2   8   0.0026   0.0018   0.0009  -0.0019  -0.0008   0.0006   0.00    1.5
2022/03/05 02:56:00.000  -2478003.3942  -4655348.8478   3577932.2617   2   8   0.0026   0.0018   0.0009  -0.0018  -0.0008   0.0006   0.00    1.5
2022/03/05 02:56:30.000  -2478003.3922  -4655348.8497   3577932.2624   2   8   0.0026   0.0018   0.0009  -0.0018  -0.0008   0.0006   0.00    1.6
2022/03/05 02:57:00.000  -2478003.3906  -4655348.8515   3577932.2631   2   8   0.0026   0.0018   0.0009  -0.0018  -0.0008   0.0006   0.00    1.6
2022/03/05 02:57:30.000  -2478003.3894  -4655348.8530   3577932.2636   2   8   0.0025   0.0018   0.0009  -0.0018  -0.0008   0.0005   0.00    1.6
2022/03/05 02:58:00.000  -2478003.3884  -4655348.8543   3577932.2642   2   8   0.0025   0.0018   0.0009  -0.0018  -0.0008   0.0005   0.00    1.6
2022/03/05 02:58:30.000  -2478003.3876  -4655348.8556   3577932.2646   2   8   0.0025   0.0018   0.0009  -0.0018  -0.0008   0.0005   0.00    1.6
2022/03/05 02:59:00.000  -2478003.3870  -4655348.8566   3577932.2651   2   8   0.0025   0.0018   0.0009  -0.0018  -0.0008   0.0005   0.00    1.7
2022/03/05 02:59:30.000  -2478003.3868  -4655348.8573   3577932.2654   2   8   0.0025   0.0018   0.0009  -0.0018  -0.0008   0.0005   0.00    1.7
2022/03/05 03:00:00.000  -2478003.3866  -4655348.8579   3577932.2656   2   8   0.0025   0.0017   0.0009  -0.0018  -0.0008   0.0005   0.00    1.7
2022/03/05 03:00:30.000  -2478003.3868  -4655348.8583   3577932.2658   2   8   0.0025   0.0017   0.0009  -0.0018  -0.0008   0.0005   0.00    1.8
2022/03/05 03:01:00.000  -2478003.3870  -4655348.8585   3577932.2661   2   8   0.0025   0.0017   0.0009  -0.0018  -0.0008   0.0005   0.00    1.8
2022/03/05 03:01:30.000  -2478003.3874  -4655348.8586   3577932.2662   2   8   0.0025   0.0017   0.0009  -0.0017  -0.0008   0.0005   0.00    1.9
2022/03/05 03:02:00.000  -2478003.3876  -4655348.8588   3577932.2664   2   8   0.0024   0.0017   0.0009  -0.0017  -0.0008   0.0005   0.00    1.9
2022/03/05 03:02:30.000  -2478003.3879  -4655348.8590   3577932.2666   2   8   0.0024   0.0017   0.0009  -0.0017  -0.0008   0.0005   0.00    2.0
2022/03/05 03:03:00.000  -2478003.3883  -4655348.8591   3577932.2667   2   8   0.0024   0.0017   0.0009  -0.0017  -0.0008   0.0005   0.00    2.0
2022/03/05 03:03:30.000  -2478003.3886  -4655348.8592   3577932.2668   2   8   0.0024   0.0017   0.0009  -0.0017  -0.0008   0.0005   0.00    2.1
2022/03/05 03:04:00.000  -2478003.3891  -4655348.8591   3577932.2669   2   8   0.0024   0.0017   0.0009  -0.0017  -0.0008   0.0005   0.00    2.1
2022/03/05 03:04:30.000  -2478003.3895  -4655348.8591   3577932.2670   2   8   0.0024   0.0017   0.0009  -0.0017  -0.0008   0.0005   0.00    2.1
2022/03/05 03:05:00.000  -2478003.3899  -4655348.8589   3577932.2671   2   8   0.0024   0.0017   0.0009  -0.0017  -0.0008   0.0005   0.00    2.2
2022/03/05 03:05:30.000  -2478003.3902  -4655348.8588   3577932.2671   2   8   0.0024   0.0017   0.0009  -0.0017  -0.0008   0.0005   0.00    2.2
2022/03/05 03:06:00.000  -2478003.3902  -4655348.8589   3577932.2672   2   8   0.0024   0.0017   0.0009  -0.0017  -0.0008   0.0005   0.00    2.2
2022/03/05 03:06:30.000  -2478003.3901  -4655348.8592   3577932.2672   2   8   0.0024   0.0017   0.0009  -0.0017  -0.0008   0.0005   0.00    2.2
2022/03/05 03:07:00.000  -2478003.3899  -4655348.8594   3577932.2672   2   8   0.0023   0.0017   0.0009  -0.0016  -0.0008   0.0004   0.00    2.2
2022/03/05 03:07:30.000  -2478003.3896  -4655348.8596   3577932.2672   2   8   0.0023   0.0016   0.0009  -0.0016  -0.0008   0.0004   0.00    2.2
2022/03/05 03:08:00.000  -2478003.3891  -4655348.8600   3577932.2673   2   8   0.0023   0.0016   0.0009  -0.0016  -0.0008   0.0004   0.00    2.1
2022/03/05 03:08:30.000  -2478003.3887  -4655348.8603   3577932.2673   2   8   0.0023   0.0016   0.0008  -0.0016  -0.0007   0.0004   0.00    2.1
2022/03/05 03:09:00.000  -2478003.3881  -4655348.8607   3577932.2674   2   8   0.0023   0.0016   0.0008  -0.0016  -0.0007   0.0004   0.00    2.1
2022/03/05 03:09:30.000  -2478003.3875  -4655348.8612   3577932.2676   2   8   0.0023   0.0016   0.0008  -0.0016  -0.0007   0.0004   0.00    2.0
2022/03/05 03:10:00.000  -2478003.3868  -4655348.8617   3577932.2677   2   8   0.0023   0.0016   0.0008  -0.0016  -0.0007   0.0004   0.00    2.0
2022/03/05 03:10:30.000  -2478003.3860  -4655348.8624   3577932.2678   2   8   0.0023   0.0016   0.0008  -0.0016  -0.0007   0.0004   0.00    1.9
2022/03/05 03:11:00.000  -2478003.3852  -4655348.8629   3577932.2680   2   8   0.0023   0.0016   0.0008  -0.0016  -0.0007   0.0004   0.00    1.9
2022/03/05 03:11:30.000  -2478003.3843  -4655348.8636   3577932.2682   2   8   0.0023   0.0016   0.0008  -0.0016  -0.0007   0.0004   0.00    1.9
2022/03/05 03:12:00.000  -2478003.3836  -4655348.8643   3577932.2684   2   8   0.0023   0.0016   0.0008  -0.0016  -0.0007   0.0004   0.00    1.8
2022/03/05 03:12:30.000  -2478003.3829  -4655348.8651   3577932.2686   2   8   0.0022   0.0016   0.0008  -0.0016  -0.0007   0.0004   0.00    1.8
2022/03/05 03:13:00.000  -2478003.3822  -4655348.8659   3577932.2688   2   8   0.0022   0.0016   0.0008  -0.0015  -0.0007   0.0004   0.00    1.8
2022/03/05 03:13:30.000  -2478003.3814  -4655348.8667   3577932.2690   2   8   0.0022   0.0016   0.0008  -0.0015  -0.0007   0.0004   0.00    1.7
2022/03/05 03:14:00.000  -2478003.3806  -4655348.8674   3577932.2692   2   8   0.0022   0.0016   0.0008  -0.0015  -0.0007   0.0004   0.00    1.7
2022/03/05 03:14:30.000  -2478003.3800  -4655348.8682   3577932.2695   2   8   0.0022   0.0016   0.0008  -0.0015  -0.0007   0.0004   0.00    1.7
2022/03/05 03:15:00.000  -2478003.3795  -4655348.8689   3577932.2698   2   8   0.0022   0.0016   0.0008  -0.0015  -0.0007   0.0004   0.00    1.7
2022/03/05 03:15:30.000  -2478003.3790  -4655348.8697   3577932.2700   2   8   0.0022   0.0015   0.0008  -0.0015  -0.0007   0.0004   0.00    1.7
2022/03/05 03:16:00.000  -2478003.3786  -4655348.8703   3577932.2703   2   8   0.0022   0.0015   0.0008  -0.0015  -0.0007   0.0004   0.00    1.7
2022/03/05 03:16:30.000  -2478003.3784  -4655348.8710   3577932.2706   2   8   0.0022   0.0015   0.0008  -0.0015  -0.0007   0.0004   0.00    1.7
2022/03/05 03:17:00.000  -2478003.3783  -4655348.8715   3577932.2709   2   8   0.0022   0.0015   0.0008  -0.0015  -0.0007   0.0004   0.00    1.8
2022/03/05 03:17:30.000  -2478003.3783  -4655348.8719   3577932.2713   2   8   0.0022   0.0015   0.0008  -0.0015  -0.0007   0.0003   0.00    1.8
2022/03/05 03:18:00.000  -2478003.3783  -4655348.8723   3577932.2716   2   8   0.0022   0.0015   0.0008  -0.0015  -0.0007   0.0003   0.00    1.8
2022/03/05 03:18:30.000  -2478003.3784  -4655348.8726   3577932.2719   2   8   0.0022   0.0015   0.0008  -0.0015  -0.0007   0.0003   0.00    1.9
2022/03/05 03:19:00.000  -2478003.3788  -4655348.8727   3577932.2721   2   8   0.0021   0.0015   0.0008  -0.0015  -0.0007   0.0003   0.00    1.9
2022/03/05 03:19:30.000  -2478003.3793  -4655348.8727   3577932.2723   2   8   0.0021   0.0015   0.0008  -0.0015  -0.0007   0.0003   0.00    2.0
2022/03/05 03:20:00.000  -2478003.3799  -4655348.8725   3577932.2725   2   8   0.0021   0.0015   0.0008  -0.0014  -0.0007   0.0003   0.00    2.1
2022/03/05 03:20:30.000  -2478003.3804  -4655348.8724   3577932.2728   2   8   0.0021   0.0015   0.0008  -0.0014  -0.0007   0.0003   0.00    2.1
2022/03/05 03:21:00.000  -2478003.3809  -4655348.8723   3577932.2730   2   8   0.0021   0.0015   0.0008  -0.0014  -0.0007   0.0003   0.00    2.2
2022/03/05 03:21:30.000  -2478003.3816  -4655348.8721   3577932.2732   2   8   0.0021   0.0015   0.0008  -0.0014  -0.0007   0.0003   0.00    2.3
2022/03/05 03:22:00.000  -2478003.3822  -4655348.8718   3577932.2734   2   8   0.0021   0.0015   0.0008  -0.0014  -0.0007   0.0003   0.00    2.4
