% program   : RTKPOST ver.2.4.3 b34
% inp file  : C:\Users\Danisimo\Desktop\????????\DHLG\dhlg0110.20o
% inp file  : C:\Users\Danisimo\Desktop\????????\brdc0110.20n
% inp file  : C:\Users\Danisimo\Desktop\????????\igs20876.sp3
% inp file  : C:\Users\Danisimo\Desktop\????????\igs20876.clk_30s
% obs start : 2020/01/11 00:00:00.0 GPST (week2087 518400.0s)
% obs end   : 2020/01/11 23:59:45.0 GPST (week2087 604785.0s)
% pos mode  : PPP Static
% solution  : Combined
% elev mask : 15.0 deg
% dynamics  : off
% tidecorr  : on
% tropo opt : Estimate ZTD+Grad
% ephemeris : Precise
% navi sys  : GPS
% antenna1  :                       ( 0.0000  0.0000  0.1224)
%
% (x/y/z-ecef=WGS84,Q=1:fix,2:float,3:sbas,4:dgps,5:single,6:ppp,ns=# of satellites)
%  GPST                      x-ecef(m)      y-ecef(m)      z-ecef(m)   Q  ns   sdx(m)   sdy(m)   sdz(m)  sdxy(m)  sdyz(m)  sdzx(m) age(s)  ratio
2020/01/10 23:59:59.981  -2319099.5660  -4799846.3564   3490090.4138   6   6   0.0033   0.0040   0.0027   0.0018  -0.0027  -0.0019   0.00    0.0
2020/01/11 00:00:14.981  -2319099.5660  -4799846.3564   3490090.4138   6   6   0.0033   0.0040   0.0027   0.0018  -0.0027  -0.0019   0.00    0.0
2020/01/11 00:00:29.981  -2319099.5660  -4799846.3564   3490090.4138   6   6   0.0033   0.0040   0.0027   0.0018  -0.0027  -0.0019   0.00    0.0
2020/01/11 00:00:44.981  -2319099.5660  -4799846.3564   3490090.4138   6   6   0.0033   0.0040   0.0027   0.0018  -0.0027  -0.0019   0.00    0.0
2020/01/11 00:00:59.981  -2319099.5659  -4799846.3564   3490090.4138   6   6   0.0033   0.0040   0.0027   0.0018  -0.0027  -0.0019   0.00    0.0
2020/01/11 00:01:14.981  -2319099.5659  -4799846.3564   3490090.4138   6   6   0.0033   0.0040   0.0027   0.0018  -0.0027  -0.0019   0.00    0.0
2020/01/11 00:01:29.981  -2319099.5659  -4799846.3565   3490090.4138   6   6   0.0033   0.0040   0.0027   0.0018  -0.0027  -0.0019   0.00    0.0
2020/01/11 00:01:44.981  -2319099.5659  -4799846.3565   3490090.4138   6   6   0.0033   0.0040   0.0027   0.0018  -0.0027  -0.0019   0.00    0.0
2020/01/11 00:01:59.981  -2319099.5659  -4799846.3565   3490090.4138   6   6   0.0033   0.0040   0.0027   0.0018  -0.0027  -0.0019   0.00    0.0
2020/01/11 00:02:14.981  -2319099.5658  -4799846.3565   3490090.4138   6   6   0.0033   0.0040   0.0027   0.0018  -0.0027  -0.0019   0.00    0.0
2020/01/11 00:02:29.981  -2319099.5658  -4799846.3565   3490090.4138   6   6   0.0033   0.0040   0.0027   0.0018  -0.0027  -0.0019   0.00    0.0
2020/01/11 00:02:44.981  -2319099.5658  -4799846.3565   3490090.4138   6   6   0.0033   0.0040   0.0027   0.0018  -0.0027  -0.0019   0.00    0.0
2020/01/11 00:02:59.981  -2319099.5658  -4799846.3565   3490090.4138   6   6   0.0033   0.0040   0.0027   0.0018  -0.0027  -0.0019   0.00    0.0
2020/01/11 00:03:14.981  -2319099.5657  -4799846.3565   3490090.4138   6   6   0.0033   0.0040   0.0027   0.0018  -0.0027  -0.0019   0.00    0.0
2020/01/11 00:03:29.981  -2319099.5657  -4799846.3566   3490090.4138   6   6   0.0033   0.0040   0.0027   0.0018  -0.0027  -0.0019   0.00    0.0
2020/01/11 00:03:44.981  -2319099.5657  -4799846.3566   3490090.4138   6   6   0.0033   0.0040   0.0027   0.0018  -0.0027  -0.0019   0.00    0.0
2020/01/11 00:03:59.981  -2319099.5656  -4799846.3566   3490090.4138   6   6   0.0033   0.0040   0.0027   0.0018  -0.0027  -0.0019   0.00    0.0
2020/01/11 00:04:14.980  -2319099.5656  -4799846.3566   3490090.4138   6   6   0.0033   0.0040   0.0027   0.0018  -0.0027  -0.0019   0.00    0.0
2020/01/11 00:04:29.980  -2319099.5656  -4799846.3566   3490090.4138   6   6   0.0033   0.0040   0.0027   0.0018  -0.0027  -0.0019   0.00    0.0
2020/01/11 00:04:44.980  -2319099.5656  -4799846.3566   3490090.4138   6   6   0.0033   0.0040   0.0027   0.0018  -0.0027  -0.0019   0.00    0.0
2020/01/11 00:04:59.980  -2319099.5656  -4799846.3566   3490090.4137   6   6   0.0033   0.0040   0.0027   0.0018  -0.0027  -0.0019   0.00    0.0
2020/01/11 00:05:14.980  -2319099.5655  -4799846.3566   3490090.4137   6   6   0.0033   0.0040   0.0027   0.0018  -0.0027  -0.0019   0.00    0.0
2020/01/11 00:05:29.980  -2319099.5655  -4799846.3566   3490090.4137   6   6   0.0033   0.0040   0.0027   0.0018  -0.0027  -0.0019   0.00    0.0
2020/01/11 00:05:44.981  -2319099.5655  -4799846.3566   3490090.4137   6   6   0.0033   0.0040   0.0027   0.0018  -0.0027  -0.0019   0.00    0.0
2020/01/11 00:05:59.981  -2319099.5655  -4799846.3566   3490090.4137   6   6   0.0033   0.0040   0.0027   0.0018  -0.0027  -0.0019   0.00    0.0
2020/01/11 00:06:14.981  -2319099.5655  -4799846.3566   3490090.4137   6   6   0.0033   0.0040   0.0027   0.0018  -0.0027  -0.0019   0.00    0.0
2020/01/11 00:06:29.981  -2319099.5654  -4799846.3566   3490090.4137   6   6   0.0033   0.0040   0.0027   0.0018  -0.0027  -0.0019   0.00    0.0
2020/01/11 00:06:44.981  -2319099.5654  -4799846.3566   3490090.4137   6   6   0.0033   0.0040   0.0027   0.0018  -0.0027  -0.0019   0.00    0.0
2020/01/11 00:06:59.981  -2319099.5654  -4799846.3566   3490090.4137   6   6   0.0033   0.0040   0.0027   0.0018  -0.0027  -0.0019   0.00    0.0
2020/01/11 00:07:14.981  -2319099.5653  -4799846.3566   3490090.4137   6   6   0.0033   0.0040   0.0027   0.0018  -0.0027  -0.0019   0.00    0.0
2020/01/11 00:07:29.981  -2319099.5653  -4799846.3567   3490090.4137   6   6   0.0033   0.0040   0.0027   0.0018  -0.0027  -0.0019   0.00    0.0
2020/01/11 00:07:44.981  -2319099.5653  -4799846.3567   3490090.4137   6   6   0.0033   0.0040   0.0027   0.0018  -0.0027  -0.0019   0.00    0.0
2020/01/11 00:07:59.981  -2319099.5653  -4799846.3567   3490090.4137   6   6   0.0033   0.0040   0.0027   0.0018  -0.0027  -0.0019   0.00    0.0
2020/01/11 00:08:14.981  -2319099.5652  -4799846.3567   3490090.4137   6   6   0.0033   0.0040   0.0027   0.0018  -0.0027  -0.0019   0.00    0.0
2020/01/11 00:08:29.981  -2319099.5652  -4799846.3567   3490090.4137   6   6   0.0033   0.0040   0.0027   0.0018  -0.0027  -0.0019   0.00    0.0
2020/01/11 00:08:44.981  -2319099.5652  -4799846.3567   3490090.4138   6   6   0.0033   0.0040   0.0027   0.0018  -0.0027  -0.0019   0.00    0.0
2020/01/11 00:08:59.981  -2319099.5652  -4799846.3567   3490090.4138   6   6   0.0033   0.0040   0.0027   0.0018  -0.0027  -0.0019   0.00    0.0
2020/01/11 00:09:14.981  -2319099.5651  -4799846.3567   3490090.4138   6   6   0.0033   0.0040   0.0027   0.0018  -0.0027  -0.0019   0.00    0.0
2020/01/11 00:09:29.981  -2319099.5651  -4799846.3568   3490090.4138   6   6   0.0033   0.0040   0.0027   0.0018  -0.0027  -0.0019   0.00    0.0
2020/01/11 00:09:44.981  -2319099.5651  -4799846.3568   3490090.4138   6   6   0.0033   0.0040   0.0027   0.0018  -0.0027  -0.0019   0.00    0.0
2020/01/11 00:09:59.981  -2319099.5651  -4799846.3568   3490090.4138   6   6   0.0033   0.0040   0.0027   0.0018  -0.0027  -0.0019   0.00    0.0
2020/01/11 00:10:14.981  -2319099.5651  -4799846.3568   3490090.4138   6   7   0.0033   0.0040   0.0027   0.0018  -0.0027  -0.0019   0.00    0.0
2020/01/11 00:10:29.979  -2319099.5650  -4799846.3568   3490090.4138   6   7   0.0033   0.0040   0.0027   0.0018  -0.0027  -0.0019   0.00    0.0
2020/01/11 00:10:44.980  -2319099.5650  -4799846.3568   3490090.4138   6   7   0.0033   0.0040   0.0027   0.0018  -0.0027  -0.0019   0.00    0.0
2020/01/11 00:10:59.980  -2319099.5650  -4799846.3568   3490090.4137   6   7   0.0033   0.0040   0.0027   0.0018  -0.0027  -0.0019   0.00    0.0
2020/01/11 00:11:14.980  -2319099.5649  -4799846.3568   3490090.4137   6   7   0.0033   0.0040   0.0027   0.0018  -0.0027  -0.0019   0.00    0.0
2020/01/11 00:11:29.980  -2319099.5649  -4799846.3568   3490090.4137   6   7   0.0033   0.0040   0.0027   0.0018  -0.0027  -0.0019   0.00    0.0
2020/01/11 00:11:44.980  -2319099.5649  -4799846.3568   3490090.4137   6   7   0.0033   0.0040   0.0027   0.0018  -0.0027  -0.0019   0.00    0.0
2020/01/11 00:11:59.980  -2319099.5648  -4799846.3569   3490090.4137   6   8   0.0033   0.0040   0.0027   0.0018  -0.0027  -0.0019   0.00    0.0
2020/01/11 00:12:14.980  -2319099.5648  -4799846.3569   3490090.4137   6   8   0.0033   0.0040   0.0027   0.0018  -0.0027  -0.0019   0.00    0.0
2020/01/11 00:12:29.980  -2319099.5648  -4799846.3569   3490090.4137   6   8   0.0033   0.0040   0.0027   0.0018  -0.0027  -0.0019   0.00    0.0
2020/01/11 00:12:44.980  -2319099.5648  -4799846.3569   3490090.4137   6   8   0.0033   0.0040   0.0027   0.0018  -0.0027  -0.0019   0.00    0.0
2020/01/11 00:12:59.980  -2319099.5648  -4799846.3569   3490090.4137   6   8   0.0033   0.0040   0.0027   0.0018  -0.0027  -0.0019   0.00    0.0
2020/01/11 00:13:14.980  -2319099.5647  -4799846.3570   3490090.4137   6   8   0.0033   0.0040   0.0027   0.0018  -0.0027  -0.0019   0.00    0.0
2020/01/11 00:13:29.980  -2319099.5647  -4799846.3570   3490090.4137   6   8   0.0033   0.0040   0.0027   0.0018  -0.0027  -0.0019   0.00    0.0
2020/01/11 00:13:44.980  -2319099.5647  -4799846.3570   3490090.4137   6   8   0.0033   0.0040   0.0027   0.0018  -0.0027  -0.0019   0.00    0.0
2020/01/11 00:13:59.980  -2319099.5647  -4799846.3570   3490090.4137   6   8   0.0033   0.0040   0.0027   0.0018  -0.0027  -0.0019   0.00    0.0
2020/01/11 00:14:14.980  -2319099.5647  -4799846.3570   3490090.4137   6   8   0.0033   0.0040   0.0027   0.0018  -0.0027  -0.0019   0.00    0.0
2020/01/11 00:14:29.980  -2319099.5646  -4799846.3570   3490090.4137   6   8   0.0033   0.0040   0.0027   0.0018  -0.0027  -0.0019   0.00    0.0
2020/01/11 00:14:44.980  -2319099.5646  -4799846.3570   3490090.4137   6   8   0.0033   0.0040   0.0027   0.0018  -0.0027  -0.0019   0.00    0.0
2020/01/11 00:14:59.980  -2319099.5645  -4799846.3570   3490090.4137   6   8   0.0033   0.0040   0.0027   0.0018  -0.0027  -0.0019   0.00    0.0
2020/01/11 00:15:14.980  -2319099.5645  -4799846.3570   3490090.4137   6   8   0.0033   0.0040   0.0027   0.0018  -0.0027  -0.0019   0.00    0.0
2020/01/11 00:15:29.980  -2319099.5645  -4799846.3570   3490090.4137   6   8   0.0033   0.0040   0.0027   0.0018  -0.0027  -0.0019   0.00    0.0
2020/01/11 00:15:44.980  -2319099.5644  -4799846.3570   3490090.4137   6   8   0.0033   0.0040   0.0027   0.0018  -0.0027  -0.0019   0.00    0.0
2020/01/11 00:15:59.980  -2319099.5644  -4799846.3570   3490090.4137   6   8   0.0033   0.0040   0.0027   0.0018  -0.0027  -0.0019   0.00    0.0
2020/01/11 00:16:14.980  -2319099.5644  -4799846.3570   3490090.4137   6   8   0.0033   0.0040   0.0027   0.0018  -0.0027  -0.0019   0.00    0.0
2020/01/11 00:16:29.980  -2319099.5644  -4799846.3570   3490090.4137   6   8   0.0033   0.0040   0.0027   0.0018  -0.0027  -0.0019   0.00    0.0
2020/01/11 00:16:44.980  -2319099.5643  -4799846.3570   3490090.4137   6   8   0.0033   0.0040   0.0027   0.0018  -0.0027  -0.0019   0.00    0.0
2020/01/11 00:16:59.980  -2319099.5643  -4799846.3570   3490090.4137   6   8   0.0033   0.0040   0.0027   0.0018  -0.0027  -0.0019   0.00    0.0
2020/01/11 00:17:14.980  -2319099.5643  -4799846.3571   3490090.4137   6   8   0.0033   0.0040   0.0027   0.0018  -0.0027  -0.0019   0.00    0.0
2020/01/11 00:17:29.980  -2319099.5643  -4799846.3571   3490090.4137   6   8   0.0033   0.0040   0.0027   0.0018  -0.0027  -0.0019   0.00    0.0
2020/01/11 00:17:44.980  -2319099.5643  -4799846.3571   3490090.4137   6   8   0.0033   0.0040   0.0027   0.0018  -0.0027  -0.0019   0.00    0.0
2020/01/11 00:17:59.980  -2319099.5642  -4799846.3571   3490090.4137   6   8   0.0033   0.0040   0.0027   0.0018  -0.0027  -0.0019   0.00    0.0
2020/01/11 00:18:14.980  -2319099.5642  -4799846.3572   3490090.4137   6   8   0.0033   0.0040   0.0027   0.0018  -0.0027  -0.0019   0.00    0.0
2020/01/11 00:18:29.979  -2319099.5642  -4799846.3572   3490090.4137   6   8   0.0033   0.0040   0.0027   0.0018  -0.0027  -0.0019   0.00    0.0
2020/01/11 00:18:44.980  -2319099.5641  -4799846.3572   3490090.4138   6   8   0.0033   0.0040   0.0027   0.0018  -0.0027  -0.0019   0.00    0.0
2020/01/11 00:18:59.979  -2319099.5641  -4799846.3572   3490090.4138   6   8   0.0033   0.0040   0.0027   0.0018  -0.0027  -0.0019   0.00    0.0
2020/01/11 00:19:14.979  -2319099.5641  -4799846.3573   3490090.4138   6   8   0.0033   0.0040   0.0027   0.0018  -0.0027  -0.0019   0.00    0.0
2020/01/11 00:19:29.979  -2319099.5641  -4799846.3573   3490090.4138   6   8   0.0033   0.0040   0.0027   0.0018  -0.0027  -0.0019   0.00    0.0
2020/01/11 00:19:44.979  -2319099.5640  -4799846.3573   3490090.4137   6   8   0.0033   0.0040   0.0027   0.0018  -0.0027  -0.0019   0.00    0.0
2020/01/11 00:19:59.979  -2319099.5640  -4799846.3573   3490090.4137   6   8   0.0033   0.0040   0.0027   0.0018  -0.0027  -0.0019   0.00    0.0
2020/01/11 00:20:14.980  -2319099.5639  -4799846.3573   3490090.4137   6   8   0.0033   0.0040   0.0027   0.0018  -0.0027  -0.0019   0.00    0.0
2020/01/11 00:20:29.979  -2319099.5639  -4799846.3573   3490090.4137   6   8   0.0033   0.0040   0.0027   0.0018  -0.0027  -0.0019   0.00    0.0
2020/01/11 00:20:44.979  -2319099.5639  -4799846.3573   3490090.4137   6   8   0.0033   0.0040   0.0027   0.0018  -0.0027  -0.0019   0.00    0.0
2020/01/11 00:20:59.979  -2319099.5638  -4799846.3573   3490090.4137   6   8   0.0033   0.0040   0.0027   0.0018  -0.0027  -0.0019   0.00    0.0
2020/01/11 00:21:14.981  -2319099.5638  -4799846.3574   3490090.4137   6   8   0.0033   0.0040   0.0027   0.0018  -0.0027  -0.0019   0.00    0.0
2020/01/11 00:21:29.980  -2319099.5637  -4799846.3574   3490090.4137   6   8   0.0033   0.0040   0.0027   0.0018  -0.0027  -0.0019   0.00    0.0
2020/01/11 00:21:44.980  -2319099.5637  -4799846.3574   3490090.4137   6   8   0.0033   0.0040   0.0027   0.0018  -0.0027  -0.0019   0.00    0.0
2020/01/11 00:21:59.980  -2319099.5637  -4799846.3574   3490090.4137   6   8   0.0033   0.0040   0.0027   0.0018  -0.0027  -0.0019   0.00    0.0
2020/01/11 00:22:14.980  -2319099.5637  -4799846.3574   3490090.4137   6   8   0.0033   0.0040   0.0027   0.0018  -0.0027  -0.0019   0.00    0.0
2020/01/11 00:22:29.979  -2319099.5637  -4799846.3574   3490090.4137   6   8   0.0033   0.0040   0.0027   0.0018  -0.0027  -0.0019   0.00    0.0
2020/01/11 00:22:44.980  -2319099.5636  -4799846.3574   3490090.4137   6   8   0.0033   0.0040   0.0027   0.0018  -0.0027  -0.0019   0.00    0.0
2020/01/11 00:22:59.980  -2319099.5636  -4799846.3574   3490090.4137   6   8   0.0033   0.0040   0.0027   0.0018  -0.0027  -0.0019   0.00    0.0
2020/01/11 00:23:14.980  -2319099.5636  -4799846.3574   3490090.4137   6   8   0.0033   0.0040   0.0027   0.0018  -0.0027  -0.0019   0.00    0.0
2020/01/11 00:23:29.980  -2319099.5636  -4799846.3574   3490090.4137   6   8   0.0033   0.0040   0.0027   0.0018  -0.0027  -0.0019   0.00    0.0
2020/01/11 00:23:44.980  -2319099.5635  -4799846.3575   3490090.4137   6   8   0.0033   0.0040   0.0027   0.0018  -0.0027  -0.0019   0.00    0.0
2020/01/11 00:23:59.980  -2319099.5635  -4799846.3575   3490090.4137   6   8   0.0033   0.0040   0.0027   0.0018  -0.0027  -0.0019   0.00    0.0
2020/01/11 00:24:14.980  -2319099.5634  -4799846.3575   3490090.4137   6   8   0.0033   0.0040   0.0027   0.0018  -0.0027  -0.0019   0.00    0.0
2020/01/11 00:24:29.980  -2319099.5634  -4799846.3575   3490090.4137   6   8   0.0033   0.0040   0.0027   0.0018  -0.0027  -0.0019   0.00    0.0
2020/01/11 00:24:44.980  -2319099.5634  -4799846.3575   3490090.4137   6   8   0.0033   0.0040   0.0027   0.0018  -0.0027  -0.0019   0.00    0.0
2020/01/11 00:24:59.980  -2319099.5633  -4799846.3575   3490090.4137   6   8   0.0033   0.0040   0.0027   0.0018  -0.0027  -0.0019   0.00    0.0
2020/01/11 00:25:14.980  -2319099.5633  -4799846.3576   3490090.4137   6   8   0.0033   0.0040   0.0027   0.0018  -0.0027  -0.0019   0.00    0.0
2020/01/11 00:25:29.980  -2319099.5633  -4799846.3576   3490090.4137   6   8   0.0033   0.0040   0.0027   0.0018  -0.0027  -0.0019   0.00    0.0
2020/01/11 00:25:44.980  -2319099.5633  -4799846.3576   3490090.4137   6   8   0.0033   0.0040   0.0027   0.0018  -0.0027  -0.0019   0.00    0.0
2020/01/11 00:25:59.980  -2319099.5632  -4799846.3576   3490090.4137   6   8   0.0033   0.0040   0.0027   0.0018  -0.0027  -0.0019   0.00    0.0
2020/01/11 00:26:14.980  -2319099.5632  -4799846.3576   3490090.4137   6   8   0.0033   0.0040   0.0027   0.0018  -0.0027  -0.0019   0.00    0.0
2020/01/11 00:26:29.980  -2319099.5632  -4799846.3577   3490090.4137   6   8   0.0033   0.0040   0.0027   0.0018  -0.0027  -0.0019   0.00    0.0
2020/01/11 00:26:44.980  -2319099.5631  -4799846.3577   3490090.4137   6   8   0.0033   0.0040   0.0027   0.0018  -0.0027  -0.0019   0.00    0.0
2020/01/11 00:26:59.980  -2319099.5631  -4799846.3577   3490090.4137   6   8   0.0033   0.0040   0.0027   0.0018  -0.0027  -0.0019   0.00    0.0
2020/01/11 00:27:14.980  -2319099.5631  -4799846.3577   3490090.4137   6   8   0.0033   0.0040   0.0027   0.0018  -0.0027  -0.0019   0.00    0.0
2020/01/11 00:27:29.980  -2319099.5631  -4799846.3577   3490090.4137   6   8   0.0033   0.0040   0.0027   0.0018  -0.0027  -0.0019   0.00    0.0
2020/01/11 00:27:44.980  -2319099.5631  -4799846.3577   3490090.4137   6   8   0.0033   0.0040   0.0027   0.0018  -0.0027  -0.0019   0.00    0.0
2020/01/11 00:27:59.980  -2319099.5631  -4799846.3578   3490090.4137   6   8   0.0033   0.0040   0.0027   0.0018  -0.0027  -0.0019   0.00    0.0
2020/01/11 00:28:14.980  -2319099.5630  -4799846.3578   3490090.4137   6   8   0.0033   0.0040   0.0027   0.0018  -0.0027  -0.0019   0.00    0.0
2020/01/11 00:28:29.980  -2319099.5630  -4799846.3578   3490090.4137   6   8   0.0033   0.0040   0.0027   0.0018  -0.0027  -0.0019   0.00    0.0
2020/01/11 00:28:44.980  -2319099.5630  -4799846.3579   3490090.4137   6   8   0.0033   0.0040   0.0027   0.0018  -0.0027  -0.0019   0.00    0.0
2020/01/11 00:28:59.980  -2319099.5630  -4799846.3579   3490090.4138   6   8   0.0033   0.0040   0.0027   0.0018  -0.0027  -0.0019   0.00    0.0
2020/01/11 00:29:14.980  -2319099.5630  -4799846.3579   3490090.4138   6   8   0.0033   0.0040   0.0027   0.0018  -0.0027  -0.0019   0.00    0.0
2020/01/11 00:29:29.980  -2319099.5630  -4799846.3579   3490090.4138   6   8   0.0033   0.0040   0.0027   0.0018  -0.0027  -0.0019   0.00    0.0
2020/01/11 00:29:44.980  -2319099.5629  -4799846.3579   3490090.4138   6   8   0.0033   0.0040   0.0027   0.0018  -0.0027  -0.0019   0.00    0.0
2020/01/11 00:29:59.980  -2319099.5629  -4799846.3580   3490090.4138   6   8   0.0033   0.0040   0.0027   0.0018  -0.0027  -0.0019   0.00    0.0
2020/01/11 00:30:14.980  -2319099.5629  -4799846.3580   3490090.4138   6   8   0.0033   0.0040   0.0027   0.0018  -0.0027  -0.0019   0.00    0.0
2020/01/11 00:30:29.980  -2319099.5629  -4799846.3580   3490090.4138   6   8   0.0033   0.0040   0.0027   0.0018  -0.0027  -0.0019   0.00    0.0
2020/01/11 00:30:44.980  -2319099.5628  -4799846.3580   3490090.4138   6   8   0.0033   0.0040   0.0027   0.0018  -0.0027  -0.0019   0.00    0.0
2020/01/11 00:30:59.980  -2319099.5628  -4799846.3580   3490090.4137   6   8   0.0033   0.0040   0.0027   0.0018  -0.0027  -0.0019   0.00    0.0
2020/01/11 00:31:14.981  -2319099.5628  -4799846.3580   3490090.4137   6   8   0.0033   0.0040   0.0027   0.0018  -0.0027  -0.0019   0.00    0.0
2020/01/11 00:31:29.981  -2319099.5628  -4799846.3580   3490090.4137   6   8   0.0033   0.0040   0.0027   0.0018  -0.0027  -0.0019   0.00    0.0
2020/01/11 00:31:44.981  -2319099.5628  -4799846.3580   3490090.4137   6   8   0.0033   0.0040   0.0027   0.0018  -0.0027  -0.0019   0.00    0.0
2020/01/11 00:31:59.981  -2319099.5628  -4799846.3581   3490090.4137   6   8   0.0033   0.0040   0.0027   0.0018  -0.0027  -0.0019   0.00    0.0
2020/01/11 00:32:14.981  -2319099.5627  -4799846.3581   3490090.4137   6   8   0.0033   0.0040   0.0027   0.0018  -0.0027  -0.0019   0.00    0.0
2020/01/11 00:32:29.981  -2319099.5627  -4799846.3581   3490090.4137   6   8   0.0033   0.0040   0.0027   0.0018  -0.0027  -0.0019   0.00    0.0
2020/01/11 00:32:44.981  -2319099.5627  -4799846.3581   3490090.4137   6   8   0.0033   0.0040   0.0027   0.0018  -0.0027  -0.0019   0.00    0.0
2020/01/11 00:32:59.981  -2319099.5627  -4799846.3581   3490090.4137   6   8   0.0033   0.0040   0.0027   0.0018  -0.0027  -0.0019   0.00    0.0
2020/01/11 00:33:14.981  -2319099.5627  -4799846.3581   3490090.4137   6   8   0.0033   0.0040   0.0027   0.0018  -0.0027  -0.0019   0.00    0.0
2020/01/11 00:33:29.981  -2319099.5626  -4799846.3581   3490090.4137   6   8   0.0033   0.0040   0.0027   0.0018  -0.0027  -0.0019   0.00    0.0
2020/01/11 00:33:44.980  -2319099.5626  -4799846.3581   3490090.4137   6   8   0.0033   0.0040   0.0027   0.0018  -0.0027  -0.0019   0.00    0.0
2020/01/11 00:33:59.980  -2319099.5626  -4799846.3581   3490090.4137   6   8   0.0033   0.0040   0.0027   0.0018  -0.0027  -0.0019   0.00    0.0
2020/01/11 00:34:14.980  -2319099.5626  -4799846.3581   3490090.4137   6   8   0.0033   0.0040   0.0027   0.0018  -0.0027  -0.0019   0.00    0.0
2020/01/11 00:34:29.980  -2319099.5626  -4799846.3582   3490090.4137   6   8   0.0033   0.0040   0.0027   0.0018  -0.0027  -0.0019   0.00    0.0
2020/01/11 00:34:44.981  -2319099.5625  -4799846.3582   3490090.4137   6   8   0.0033   0.0040   0.0027   0.0018  -0.0027  -0.0019   0.00    0.0
2020/01/11 00:34:59.981  -2319099.5625  -4799846.3582   3490090.4137   6   8   0.0033   0.0040   0.0027   0.0018  -0.0027  -0.0019   0.00    0.0
2020/01/11 00:35:14.981  -2319099.5625  -4799846.3582   3490090.4137   6   8   0.0033   0.0040   0.0027   0.0018  -0.0027  -0.0019   0.00    0.0
2020/01/11 00:35:29.982  -2319099.5624  -4799846.3582   3490090.4137   6   8   0.0033   0.0040   0.0027   0.0018  -0.0027  -0.0019   0.00    0.0
2020/01/11 00:35:44.982  -2319099.5624  -4799846.3582   3490090.4137   6   8   0.0033   0.0040   0.0027   0.0018  -0.0027  -0.0019   0.00    0.0
2020/01/11 00:35:59.982  -2319099.5624  -4799846.3582   3490090.4137   6   8   0.0033   0.0040   0.0027   0.0018  -0.0027  -0.0019   0.00    0.0
2020/01/11 00:36:14.982  -2319099.5623  -4799846.3583   3490090.4137   6   8   0.0033   0.0040   0.0027   0.0018  -0.0027  -0.0019   0.00    0.0
2020/01/11 00:36:29.982  -2319099.5623  -4799846.3583   3490090.4137   6   8   0.0033   0.0040   0.0027   0.0018  -0.0027  -0.0019   0.00    0.0
2020/01/11 00:36:44.982  -2319099.5622  -4799846.3583   3490090.4137   6   8   0.0033   0.0040   0.0027   0.0018  -0.0027  -0.0019   0.00    0.0
2020/01/11 00:36:59.982  -2319099.5622  -4799846.3583   3490090.4137   6   8   0.0033   0.0040   0.0027   0.0018  -0.0027  -0.0019   0.00    0.0
2020/01/11 00:37:14.982  -2319099.5622  -4799846.3583   3490090.4137   6   8   0.0033   0.0040   0.0027   0.0018  -0.0027  -0.0019   0.00    0.0
2020/01/11 00:37:29.982  -2319099.5621  -4799846.3583   3490090.4137   6   8   0.0033   0.0040   0.0027   0.0018  -0.0027  -0.0019   0.00    0.0
2020/01/11 00:37:44.982  -2319099.5621  -4799846.3583   3490090.4137   6   8   0.0033   0.0040   0.0027   0.0018  -0.0027  -0.0019   0.00    0.0
2020/01/11 00:37:59.982  -2319099.5621  -4799846.3584   3490090.4137   6   8   0.0033   0.0040   0.0027   0.0018  -0.0027  -0.0019   0.00    0.0
2020/01/11 00:38:14.982  -2319099.5621  -4799846.3584   3490090.4137   6   8   0.0033   0.0040   0.0027   0.0018  -0.0027  -0.0019   0.00    0.0
2020/01/11 00:38:29.982  -2319099.5620  -4799846.3584   3490090.4137   6   8   0.0033   0.0040   0.0027   0.0018  -0.0027  -0.0019   0.00    0.0
2020/01/11 00:38:44.982  -2319099.5620  -4799846.3584   3490090.4137   6   8   0.0034   0.0040   0.0027   0.0018  -0.0027  -0.0019   0.00    0.0
2020/01/11 00:38:59.982  -2319099.5620  -4799846.3584   3490090.4137   6   8   0.0034   0.0040   0.0027   0.0018  -0.0027  -0.0019   0.00    0.0
2020/01/11 00:39:14.982  -2319099.5620  -4799846.3584   3490090.4137   6   8   0.0034   0.0040   0.0027   0.0018  -0.0027  -0.0019   0.00    0.0
2020/01/11 00:39:29.982  -2319099.5620  -4799846.3584   3490090.4137   6   8   0.0034   0.0040   0.0027   0.0018  -0.0027  -0.0019   0.00    0.0
2020/01/11 00:39:44.982  -2319099.5619  -4799846.3584   3490090.4137   6   8   0.0034   0.0040   0.0027   0.0018  -0.0027  -0.0019   0.00    0.0
2020/01/11 00:39:59.982  -2319099.5619  -4799846.3584   3490090.4137   6   8   0.0034   0.0040   0.0027   0.0018  -0.0027  -0.0019   0.00    0.0
2020/01/11 00:40:14.982  -2319099.5619  -4799846.3584   3490090.4137   6   8   0.0034   0.0040   0.0027   0.0018  -0.0027  -0.0019   0.00    0.0
2020/01/11 00:40:29.982  -2319099.5619  -4799846.3584   3490090.4137   6   8   0.0034   0.0040   0.0027   0.0018  -0.0027  -0.0019   0.00    0.0
2020/01/11 00:40:44.982  -2319099.5619  -4799846.3584   3490090.4137   6   8   0.0034   0.0040   0.0027   0.0018  -0.0027  -0.0019   0.00    0.0
2020/01/11 00:40:59.982  -2319099.5619  -4799846.3584   3490090.4137   6   8   0.0034   0.0040   0.0027   0.0018  -0.0027  -0.0019   0.00    0.0
2020/01/11 00:41:14.982  -2319099.5619  -4799846.3585   3490090.4137   6   8   0.0034   0.0040   0.0027   0.0018  -0.0027  -0.0019   0.00    0.0
2020/01/11 00:41:29.982  -2319099.5619  -4799846.3585   3490090.4137   6   8   0.0034   0.0040   0.0027   0.0018  -0.0027  -0.0019   0.00    0.0
2020/01/11 00:41:44.982  -2319099.5619  -4799846.3585   3490090.4137   6   8   0.0034   0.0040   0.0027   0.0018  -0.0027  -0.0019   0.00    0.0
2020/01/11 00:41:59.982  -2319099.5619  -4799846.3585   3490090.4137   6   8   0.0034   0.0040   0.0027   0.0018  -0.0027  -0.0019   0.00    0.0
2020/01/11 00:42:14.982  -2319099.5618  -4799846.3585   3490090.4137   6   8   0.0034   0.0040   0.0027   0.0018  -0.0027  -0.0019   0.00    0.0
2020/01/11 00:42:29.982  -2319099.5618  -4799846.3585   3490090.4137   6   8   0.0034   0.0040   0.0027   0.0018  -0.0027  -0.0019   0.00    0.0
2020/01/11 00:42:44.982  -2319099.5618  -4799846.3585   3490090.4137   6   8   0.0034   0.0040   0.0027   0.0018  -0.0027  -0.0019   0.00    0.0
2020/01/11 00:42:59.982  -2319099.5617  -4799846.3585   3490090.4137   6   8   0.0034   0.0040   0.0027   0.0018  -0.0027  -0.0019   0.00    0.0
2020/01/11 00:43:14.982  -2319099.5617  -4799846.3585   3490090.4137   6   8   0.0034   0.0040   0.0027   0.0018  -0.0027  -0.0019   0.00    0.0
2020/01/11 00:43:29.982  -2319099.5617  -4799846.3585   3490090.4137   6   8   0.0034   0.0040   0.0027   0.0018  -0.0027  -0.0019   0.00    0.0
2020/01/11 00:43:44.982  -2319099.5617  -4799846.3585   3490090.4137   6   8   0.0034   0.0040   0.0027   0.0018  -0.0027  -0.0019   0.00    0.0
2020/01/11 00:43:59.982  -2319099.5616  -4799846.3585   3490090.4137   6   8   0.0034   0.0040   0.0027   0.0018  -0.0027  -0.0019   0.00    0.0
2020/01/11 00:44:14.982  -2319099.5616  -4799846.3585   3490090.4137   6   8   0.0034   0.0040   0.0027   0.0018  -0.0027  -0.0019   0.00    0.0
2020/01/11 00:44:29.982  -2319099.5616  -4799846.3585   3490090.4137   6   8   0.0034   0.0040   0.0027   0.0018  -0.0027  -0.0019   0.00    0.0
2020/01/11 00:44:44.982  -2319099.5615  -4799846.3585   3490090.4137   6   8   0.0034   0.0040   0.0027   0.0018  -0.0027  -0.0019   0.00    0.0
2020/01/11 00:44:59.982  -2319099.5615  -4799846.3585   3490090.4137   6   8   0.0034   0.0040   0.0027   0.0018  -0.0027  -0.0019   0.00    0.0
2020/01/11 00:45:14.982  -2319099.5615  -4799846.3585   3490090.4136   6   8   0.0034   0.0040   0.0027   0.0018  -0.0027  -0.0019   0.00    0.0
2020/01/11 00:45:29.982  -2319099.5614  -4799846.3585   3490090.4136   6   8   0.0034   0.0040   0.0027   0.0018  -0.0027  -0.0019   0.00    0.0
2020/01/11 00:45:44.982  -2319099.5614  -4799846.3585   3490090.4136   6   8   0.0034   0.0040   0.0027   0.0018  -0.0027  -0.0019   0.00    0.0
2020/01/11 00:45:59.982  -2319099.5614  -4799846.3585   3490090.4136   6   8   0.0034   0.0040   0.0027   0.0018  -0.0027  -0.0019   0.00    0.0
2020/01/11 00:46:14.982  -2319099.5613  -4799846.3585   3490090.4136   6   8   0.0034   0.0040   0.0027   0.0018  -0.0027  -0.0019   0.00    0.0
2020/01/11 00:46:29.982  -2319099.5613  -4799846.3585   3490090.4136   6   8   0.0034   0.0040   0.0027   0.0018  -0.0027  -0.0019   0.00    0.0
2020/01/11 00:46:44.982  -2319099.5613  -4799846.3585   3490090.4136   6   8   0.0034   0.0040   0.0027   0.0018  -0.0027  -0.0019   0.00    0.0
2020/01/11 00:46:59.982  -2319099.5612  -4799846.3585   3490090.4136   6   8   0.0034   0.0040   0.0027   0.0018  -0.0027  -0.0019   0.00    0.0
2020/01/11 00:47:14.982  -2319099.5612  -4799846.3585   3490090.4136   6   8   0.0034   0.0040   0.0027   0.0018  -0.0027  -0.0019   0.00    0.0
2020/01/11 00:47:29.982  -2319099.5612  -4799846.3585   3490090.4136   6   8   0.0034   0.0040   0.0027   0.0018  -0.0027  -0.0019   0.00    0.0
2020/01/11 00:47:44.982  -2319099.5611  -4799846.3585   3490090.4136   6   8   0.0034   0.0040   0.0027   0.0018  -0.0027  -0.0019   0.00    0.0
2020/01/11 00:47:59.982  -2319099.5611  -4799846.3585   3490090.4136   6   8   0.0034   0.0040   0.0027   0.0018  -0.0027  -0.0019   0.00    0.0
2020/01/11 00:48:14.982  -2319099.5611  -4799846.3585   3490090.4136   6   8   0.0034   0.0040   0.0027   0.0018  -0.0027  -0.0019   0.00    0.0
2020/01/11 00:48:29.982  -2319099.5611  -4799846.3586   3490090.4136   6   8   0.0034   0.0040   0.0027   0.0018  -0.0027  -0.0019   0.00    0.0
2020/01/11 00:48:44.982  -2319099.5611  -4799846.3586   3490090.4136   6   8   0.0034   0.0040   0.0027   0.0018  -0.0027  -0.0019   0.00    0.0
2020/01/11 00:48:59.982  -2319099.5610  -4799846.3586   3490090.4136   6   8   0.0034   0.0040   0.0027   0.0018  -0.0027  -0.0019   0.00    0.0
2020/01/11 00:49:14.982  -2319099.5610  -4799846.3586   3490090.4136   6   8   0.0034   0.0040   0.0027   0.0018  -0.0027  -0.0019   0.00    0.0
2020/01/11 00:49:29.982  -2319099.5610  -4799846.3586   3490090.4136   6   8   0.0034   0.0040   0.0027   0.0018  -0.0027  -0.0019   0.00    0.0
2020/01/11 00:49:44.982  -2319099.5610  -4799846.3586   3490090.4136   6   8   0.0034   0.0040   0.0027   0.0018  -0.0027  -0.0019   0.00    0.0
2020/01/11 00:49:59.982  -2319099.5610  -4799846.3586   3490090.4136   6   8   0.0034   0.0040   0.0027   0.0018  -0.0027  -0.0019   0.00    0.0
2020/01/11 00:50:14.982  -2319099.5610  -4799846.3586   3490090.4136   6   8   0.0034   0.0040   0.0027   0.0018  -0.0027  -0.0019   0.00    0.0
2020/01/11 00:50:29.982  -2319099.5610  -4799846.3586   3490090.4136   6   8   0.0034   0.0040   0.0027   0.0018  -0.0027  -0.0019   0.00    0.0
2020/01/11 00:50:44.982  -2319099.5609  -4799846.3586   3490090.4136   6   8   0.0034   0.0040   0.0027   0.0018  -0.0027  -0.0019   0.00    0.0
2020/01/11 00:50:59.982  -2319099.5609  -4799846.3586   3490090.4136   6   7   0.0034   0.0040   0.0027   0.0018  -0.0027  -0.0019   0.00    0.0
2020/01/11 00:51:14.982  -2319099.5610  -4799846.3586   3490090.4136   6   7   0.0034   0.0040   0.0027   0.0018  -0.0027  -0.0019   0.00    0.0
2020/01/11 00:51:29.982  -2319099.5610  -4799846.3587   3490090.4136   6   7   0.0034   0.0040   0.0027   0.0018  -0.0027  -0.0019   0.00    0.0
2020/01/11 00:51:44.982  -2319099.5609  -4799846.3587   3490090.4136   6   7   0.0034   0.0040   0.0027   0.0018  -0.0027  -0.0019   0.00    0.0
2020/01/11 00:51:59.982  -2319099.5609  -4799846.3587   3490090.4136   6   7   0.0034   0.0040   0.0027   0.0018  -0.0027  -0.0019   0.00    0.0
2020/01/11 00:52:14.982  -2319099.5609  -4799846.3587   3490090.4136   6   7   0.0034   0.0040   0.0027   0.0018  -0.0027  -0.0019   0.00    0.0
2020/01/11 00:52:29.982  -2319099.5609  -4799846.3587   3490090.4136   6   7   0.0034   0.0040   0.0027   0.0018  -0.0027  -0.0019   0.00    0.0
2020/01/11 00:52:44.982  -2319099.5609  -4799846.3587   3490090.4136   6   7   0.0034   0.0040   0.0027   0.0018  -0.0027  -0.0019   0.00    0.0
2020/01/11 00:52:59.982  -2319099.5608  -4799846.3587   3490090.4136   6   7   0.0034   0.0040   0.0027   0.0018  -0.0027  -0.0019   0.00    0.0
2020/01/11 00:53:14.982  -2319099.5608  -4799846.3587   3490090.4135   6   7   0.0034   0.0040   0.0027   0.0018  -0.0027  -0.0019   0.00    0.0
2020/01/11 00:53:29.982  -2319099.5608  -4799846.3587   3490090.4135   6   7   0.0034   0.0040   0.0027   0.0018  -0.0027  -0.0019   0.00    0.0
2020/01/11 00:53:44.982  -2319099.5607  -4799846.3587   3490090.4135   6   7   0.0034   0.0040   0.0027   0.0018  -0.0027  -0.0019   0.00    0.0
2020/01/11 00:53:59.982  -2319099.5607  -4799846.3587   3490090.4135   6   7   0.0034   0.0040   0.0027   0.0018  -0.0027  -0.0019   0.00    0.0
2020/01/11 00:54:14.982  -2319099.5607  -4799846.3587   3490090.4135   6   7   0.0034   0.0040   0.0027   0.0018  -0.0027  -0.0019   0.00    0.0
2020/01/11 00:54:29.982  -2319099.5606  -4799846.3587   3490090.4135   6   7   0.0034   0.0040   0.0027   0.0018  -0.0027  -0.0019   0.00    0.0
2020/01/11 00:54:44.982  -2319099.5606  -4799846.3587   3490090.4135   6   7   0.0034   0.0040   0.0027   0.0018  -0.0027  -0.0019   0.00    0.0
2020/01/11 00:54:59.982  -2319099.5606  -4799846.3586   3490090.4135   6   7   0.0034   0.0040   0.0027   0.0018  -0.0027  -0.0019   0.00    0.0
2020/01/11 00:55:14.982  -2319099.5606  -4799846.3586   3490090.4134   6   7   0.0034   0.0040   0.0027   0.0018  -0.0027  -0.0019   0.00    0.0
2020/01/11 00:55:29.982  -2319099.5606  -4799846.3586   3490090.4134   6   8   0.0034   0.0040   0.0027   0.0018  -0.0027  -0.0019   0.00    0.0
2020/01/11 00:55:44.982  -2319099.5605  -4799846.3587   3490090.4134   6   8   0.0034   0.0040   0.0027   0.0018  -0.0027  -0.0019   0.00    0.0
2020/01/11 00:55:59.982  -2319099.5605  -4799846.3587   3490090.4134   6   8   0.0034   0.0040   0.0027   0.0018  -0.0027  -0.0019   0.00    0.0
2020/01/11 00:56:14.982  -2319099.5605  -4799846.3587   3490090.4134   6   8   0.0034   0.0040   0.0027   0.0018  -0.0027  -0.0019   0.00    0.0
2020/01/11 00:56:29.982  -2319099.5604  -4799846.3587   3490090.4134   6   8   0.0034   0.0040   0.0027   0.0018  -0.0027  -0.0019   0.00    0.0
2020/01/11 00:56:44.982  -2319099.5604  -4799846.3587   3490090.4134   6   8   0.0034   0.0040   0.0027   0.0018  -0.0027  -0.0019   0.00    0.0
2020/01/11 00:56:59.982  -2319099.5604  -4799846.3587   3490090.4134   6   8   0.0034   0.0040   0.0027   0.0018  -0.0027  -0.0019   0.00    0.0
2020/01/11 00:57:14.982  -2319099.5604  -4799846.3587   3490090.4134   6   8   0.0034   0.0040   0.0027   0.0018  -0.0027  -0.0019   0.00    0.0
2020/01/11 00:57:29.982  -2319099.5603  -4799846.3587   3490090.4134   6   8   0.0034   0.0040   0.0027   0.0018  -0.0027  -0.0019   0.00    0.0
2020/01/11 00:57:44.982  -2319099.5603  -4799846.3587   3490090.4134   6   8   0.0034   0.0040   0.0027   0.0018  -0.0027  -0.0019   0.00    0.0
2020/01/11 00:57:59.982  -2319099.5603  -4799846.3587   3490090.4134   6   8   0.0034   0.0040   0.0027   0.0018  -0.0027  -0.0019   0.00    0.0
2020/01/11 00:58:14.982  -2319099.5603  -4799846.3587   3490090.4134   6   8   0.0034   0.0040   0.0027   0.0018  -0.0027  -0.0019   0.00    0.0
2020/01/11 00:58:29.982  -2319099.5603  -4799846.3587   3490090.4134   6   8   0.0034   0.0040   0.0027   0.0018  -0.0027  -0.0019   0.00    0.0
2020/01/11 00:58:44.982  -2319099.5603  -4799846.3587   3490090.4134   6   8   0.0034   0.0040   0.0027   0.0018  -0.0027  -0.0019   0.00    0.0
2020/01/11 00:58:59.982  -2319099.5603  -4799846.3588   3490090.4134   6   8   0.0034   0.0040   0.0027   0.0018  -0.0027  -0.0019   0.00    0.0
2020/01/11 00:59:14.982  -2319099.5603  -4799846.3588   3490090.4134   6   8   0.0034   0.0040   0.0027   0.0018  -0.0027  -0.0019   0.00    0.0
2020/01/11 00:59:29.982  -2319099.5603  -4799846.3588   3490090.4134   6   9   0.0034   0.0040   0.0027   0.0018  -0.0027  -0.0019   0.00    0.0
2020/01/11 00:59:44.982  -2319099.5603  -4799846.3588   3490090.4134   6   9   0.0034   0.0040   0.0027   0.0018  -0.0027  -0.0019   0.00    0.0
2020/01/11 00:59:59.982  -2319099.5603  -4799846.3588   3490090.4134   6   9   0.0034   0.0040   0.0027   0.0018  -0.0027  -0.0019   0.00    0.0
2020/01/11 01:00:14.982  -2319099.5603  -4799846.3588   3490090.4134   6   9   0.0034   0.0040   0.0027   0.0018  -0.0027  -0.0019   0.00    0.0
2020/01/11 01:00:29.982  -2319099.5603  -4799846.3588   3490090.4134   6   9   0.0034   0.0040   0.0027   0.0018  -0.0027  -0.0019   0.00    0.0
2020/01/11 01:00:44.982  -2319099.5602  -4799846.3588   3490090.4134   6   9   0.0034   0.0040   0.0027   0.0018  -0.0027  -0.0019   0.00    0.0
2020/01/11 01:00:59.982  -2319099.5602  -4799846.3588   3490090.4133   6   9   0.0034   0.0040   0.0027   0.0018  -0.0027  -0.0019   0.00    0.0
2020/01/11 01:01:14.982  -2319099.5602  -4799846.3588   3490090.4133   6   9   0.0034   0.0040   0.0027   0.0018  -0.0027  -0.0019   0.00    0.0
2020/01/11 01:01:29.982  -2319099.5601  -4799846.3588   3490090.4133   6   9   0.0034   0.0040   0.0027   0.0018  -0.0027  -0.0019   0.00    0.0
2020/01/11 01:01:44.982  -2319099.5601  -4799846.3588   3490090.4133   6   9   0.0034   0.0040   0.0027   0.0018  -0.0027  -0.0019   0.00    0.0
2020/01/11 01:01:59.982  -2319099.5601  -4799846.3588   3490090.4133   6   9   0.0034   0.0040   0.0027   0.0018  -0.0027  -0.0019   0.00    0.0
2020/01/11 01:02:14.982  -2319099.5600  -4799846.3588   3490090.4133   6   9   0.0034   0.0040   0.0027   0.0018  -0.0027  -0.0019   0.00    0.0
2020/01/11 01:02:29.982  -2319099.5600  -4799846.3588   3490090.4133   6   9   0.0034   0.0040   0.0027   0.0018  -0.0027  -0.0019   0.00    0.0
2020/01/11 01:02:44.982  -2319099.5600  -4799846.3588   3490090.4133   6   9   0.0034   0.0040   0.0027   0.0018  -0.0027  -0.0019   0.00    0.0
2020/01/11 01:02:59.982  -2319099.5599  -4799846.3587   3490090.4133   6   8   0.0034   0.0040   0.0027   0.0018  -0.0027  -0.0019   0.00    0.0
2020/01/11 01:03:14.982  -2319099.5599  -4799846.3587   3490090.4133   6   8   0.0034   0.0040   0.0027   0.0018  -0.0027  -0.0019   0.00    0.0
2020/01/11 01:03:29.982  -2319099.5599  -4799846.3587   3490090.4133   6   8   0.0034   0.0040   0.0027   0.0018  -0.0027  -0.0019   0.00    0.0
2020/01/11 01:03:44.982  -2319099.5598  -4799846.3587   3490090.4132   6   8   0.0034   0.0040   0.0027   0.0018  -0.0027  -0.0019   0.00    0.0
2020/01/11 01:03:59.982  -2319099.5598  -4799846.3587   3490090.4132   6   8   0.0034   0.0040   0.0027   0.0018  -0.0027  -0.0019   0.00    0.0
2020/01/11 01:04:14.982  -2319099.5597  -4799846.3587   3490090.4132   6   8   0.0034   0.0040   0.0027   0.0018  -0.0027  -0.0019   0.00    0.0
2020/01/11 01:04:29.982  -2319099.5597  -4799846.3587   3490090.4132   6   8   0.0034   0.0040   0.0027   0.0018  -0.0027  -0.0019   0.00    0.0
2020/01/11 01:04:44.982  -2319099.5597  -4799846.3587   3490090.4132   6   8   0.0034   0.0040   0.0027   0.0018  -0.0027  -0.0019   0.00    0.0
2020/01/11 01:04:59.982  -2319099.5597  -4799846.3587   3490090.4132   6   8   0.0034   0.0040   0.0027   0.0018  -0.0027  -0.0019   0.00    0.0
2020/01/11 01:05:14.982  -2319099.5597  -4799846.3587   3490090.4132   6   8   0.0034   0.0040   0.0027   0.0018  -0.0027  -0.0019   0.00    0.0
2020/01/11 01:05:29.982  -2319099.5597  -4799846.3587   3490090.4132   6   8   0.0034   0.0040   0.0027   0.0018  -0.0027  -0.0019   0.00    0.0
2020/01/11 01:05:44.982  -2319099.5596  -4799846.3587   3490090.4132   6   8   0.0034   0.0040   0.0027   0.0018  -0.0027  -0.0019   0.00    0.0
2020/01/11 01:05:59.982  -2319099.5597  -4799846.3587   3490090.4132   6   8   0.0034   0.0040   0.0027   0.0018  -0.0027  -0.0019   0.00    0.0
2020/01/11 01:06:14.982  -2319099.5597  -4799846.3588   3490090.4133   6   8   0.0034   0.0040   0.0027   0.0018  -0.0027  -0.0019   0.00    0.0
2020/01/11 01:06:29.982  -2319099.5597  -4799846.3588   3490090.4133   6   8   0.0034   0.0040   0.0027   0.0018  -0.0027  -0.0019   0.00    0.0
2020/01/11 01:06:44.982  -2319099.5597  -4799846.3588   3490090.4133   6   8   0.0034   0.0040   0.0027   0.0018  -0.0027  -0.0019   0.00    0.0
2020/01/11 01:06:59.982  -2319099.5597  -4799846.3588   3490090.4133   6   8   0.0034   0.0040   0.0027   0.0018  -0.0027  -0.0019   0.00    0.0
2020/01/11 01:07:14.982  -2319099.5596  -4799846.3588   3490090.4133   6   8   0.0034   0.0040   0.0027   0.0018  -0.0027  -0.0019   0.00    0.0
2020/01/11 01:07:29.982  -2319099.5596  -4799846.3588   3490090.4133   6   8   0.0034   0.0040   0.0027   0.0018  -0.0027  -0.0019   0.00    0.0
2020/01/11 01:07:44.982  -2319099.5596  -4799846.3588   3490090.4133   6   8   0.0034   0.0040   0.0027   0.0018  -0.0027  -0.0019   0.00    0.0
2020/01/11 01:07:59.982  -2319099.5596  -4799846.3589   3490090.4133   6   8   0.0034   0.0040   0.0027   0.0018  -0.0027  -0.0019   0.00    0.0
2020/01/11 01:08:14.982  -2319099.5596  -4799846.3589   3490090.4133   6   8   0.0034   0.0040   0.0027   0.0018  -0.0027  -0.0019   0.00    0.0
2020/01/11 01:08:29.982  -2319099.5596  -4799846.3589   3490090.4133   6   8   0.0034   0.0040   0.0027   0.0018  -0.0027  -0.0019   0.00    0.0
2020/01/11 01:08:44.982  -2319099.5596  -4799846.3589   3490090.4133   6   8   0.0034   0.0040   0.0027   0.0018  -0.0027  -0.0019   0.00    0.0
2020/01/11 01:08:59.982  -2319099.5596  -4799846.3589   3490090.4133   6   8   0.0034   0.0040   0.0027   0.0018  -0.0027  -0.0019   0.00    0.0
2020/01/11 01:09:14.982  -2319099.5596  -4799846.3589   3490090.4133   6   8   0.0034   0.0040   0.0027   0.0018  -0.0027  -0.0019   0.00    0.0
2020/01/11 01:09:29.982  -2319099.5596  -4799846.3590   3490090.4133   6   8   0.0034   0.0040   0.0027   0.0018  -0.0027  -0.0019   0.00    0.0
2020/01/11 01:09:44.982  -2319099.5595  -4799846.3590   3490090.4133   6   8   0.0034   0.0040   0.0027   0.0018  -0.0027  -0.0019   0.00    0.0
2020/01/11 01:09:59.982  -2319099.5595  -4799846.3590   3490090.4132   6   8   0.0034   0.0040   0.0027   0.0018  -0.0027  -0.0019   0.00    0.0
2020/01/11 01:10:14.982  -2319099.5595  -4799846.3590   3490090.4132   6   8   0.0034   0.0040   0.0027   0.0018  -0.0027  -0.0019   0.00    0.0
2020/01/11 01:10:29.982  -2319099.5595  -4799846.3590   3490090.4132   6   8   0.0034   0.0040   0.0027   0.0018  -0.0027  -0.0019   0.00    0.0
2020/01/11 01:10:44.982  -2319099.5595  -4799846.3590   3490090.4132   6   8   0.0034   0.0040   0.0027   0.0018  -0.0027  -0.0019   0.00    0.0
2020/01/11 01:10:59.982  -2319099.5594  -4799846.3590   3490090.4132   6   8   0.0034   0.0040   0.0027   0.0018  -0.0027  -0.0019   0.00    0.0
2020/01/11 01:11:14.982  -2319099.5594  -4799846.3590   3490090.4132   6   8   0.0034   0.0040   0.0027   0.0018  -0.0027  -0.0019   0.00    0.0
2020/01/11 01:11:29.982  -2319099.5594  -4799846.3590   3490090.4132   6   8   0.0034   0.0040   0.0027   0.0018  -0.0027  -0.0019   0.00    0.0
2020/01/11 01:11:44.981  -2319099.5594  -4799846.3591   3490090.4132   6   8   0.0034   0.0040   0.0027   0.0018  -0.0027  -0.0019   0.00    0.0
2020/01/11 01:11:59.981  -2319099.5594  -4799846.3591   3490090.4132   6   8   0.0034   0.0040   0.0027   0.0018  -0.0027  -0.0019   0.00    0.0
2020/01/11 01:12:14.981  -2319099.5593  -4799846.3591   3490090.4132   6   8   0.0034   0.0040   0.0027   0.0018  -0.0027  -0.0019   0.00    0.0
2020/01/11 01:12:29.981  -2319099.5593  -4799846.3591   3490090.4132   6   8   0.0034   0.0040   0.0027   0.0018  -0.0027  -0.0019   0.00    0.0
2020/01/11 01:12:44.981  -2319099.5593  -4799846.3591   3490090.4132   6   8   0.0034   0.0040   0.0027   0.0018  -0.0027  -0.0019   0.00    0.0
2020/01/11 01:12:59.981  -2319099.5593  -4799846.3591   3490090.4132   6   8   0.0034   0.0040   0.0027   0.0018  -0.0027  -0.0019   0.00    0.0
2020/01/11 01:13:14.981  -2319099.5593  -4799846.3591   3490090.4132   6   8   0.0034   0.0040   0.0027   0.0018  -0.0027  -0.0019   0.00    0.0
2020/01/11 01:13:29.981  -2319099.5593  -4799846.3592   3490090.4132   6   8   0.0034   0.0040   0.0027   0.0018  -0.0027  -0.0019   0.00    0.0
2020/01/11 01:13:44.981  -2319099.5593  -4799846.3592   3490090.4133   6   8   0.0034   0.0040   0.0027   0.0018  -0.0027  -0.0019   0.00    0.0
2020/01/11 01:13:59.981  -2319099.5592  -4799846.3592   3490090.4133   6   8   0.0034   0.0040   0.0027   0.0018  -0.0027  -0.0019   0.00    0.0
2020/01/11 01:14:14.981  -2319099.5593  -4799846.3592   3490090.4133   6   8   0.0034   0.0040   0.0027   0.0018  -0.0027  -0.0019   0.00    0.0
2020/01/11 01:14:29.981  -2319099.5592  -4799846.3593   3490090.4133   6   8   0.0034   0.0040   0.0027   0.0018  -0.0027  -0.0019   0.00    0.0
2020/01/11 01:14:44.981  -2319099.5592  -4799846.3592   3490090.4133   6   8   0.0034   0.0040   0.0027   0.0018  -0.0027  -0.0019   0.00    0.0
2020/01/11 01:14:59.981  -2319099.5592  -4799846.3592   3490090.4133   6   8   0.0034   0.0040   0.0027   0.0018  -0.0027  -0.0019   0.00    0.0
2020/01/11 01:15:14.981  -2319099.5592  -4799846.3592   3490090.4133   6   8   0.0034   0.0040   0.0027   0.0018  -0.0027  -0.0019   0.00    0.0
2020/01/11 01:15:29.981  -2319099.5592  -4799846.3593   3490090.4133   6   8   0.0034   0.0040   0.0027   0.0018  -0.0027  -0.0019   0.00    0.0
2020/01/11 01:15:44.981  -2319099.5592  -4799846.3593   3490090.4133   6   8   0.0034   0.0040   0.0027   0.0018  -0.0027  -0.0019   0.00    0.0
2020/01/11 01:15:59.981  -2319099.5591  -4799846.3593   3490090.4133   6   8   0.0034   0.0040   0.0027   0.0018  -0.0027  -0.0019   0.00    0.0
2020/01/11 01:16:14.981  -2319099.5591  -4799846.3593   3490090.4133   6   8   0.0034   0.0040   0.0027   0.0018  -0.0027  -0.0019   0.00    0.0
2020/01/11 01:16:29.981  -2319099.5591  -4799846.3593   3490090.4133   6   8   0.0034   0.0040   0.0027   0.0018  -0.0027  -0.0019   0.00    0.0
2020/01/11 01:16:44.981  -2319099.5591  -4799846.3593   3490090.4133   6   8   0.0034   0.0040   0.0027   0.0018  -0.0027  -0.0019   0.00    0.0
2020/01/11 01:16:59.981  -2319099.5591  -4799846.3593   3490090.4133   6   8   0.0034   0.0040   0.0027   0.0018  -0.0027  -0.0019   0.00    0.0
2020/01/11 01:17:14.981  -2319099.5591  -4799846.3593   3490090.4133   6   8   0.0034   0.0040   0.0027   0.0018  -0.0027  -0.0019   0.00    0.0
2020/01/11 01:17:29.981  -2319099.5591  -4799846.3594   3490090.4133   6   8   0.0034   0.0040   0.0027   0.0018  -0.0027  -0.0019   0.00    0.0
2020/01/11 01:17:44.981  -2319099.5590  -4799846.3594   3490090.4133   6   8   0.0034   0.0040   0.0027   0.0018  -0.0027  -0.0019   0.00    0.0
2020/01/11 01:17:59.981  -2319099.5590  -4799846.3594   3490090.4133   6   8   0.0034   0.0040   0.0027   0.0018  -0.0027  -0.0019   0.00    0.0
2020/01/11 01:18:14.981  -2319099.5590  -4799846.3594   3490090.4133   6   8   0.0034   0.0040   0.0027   0.0018  -0.0027  -0.0019   0.00    0.0
2020/01/11 01:18:29.981  -2319099.5590  -4799846.3594   3490090.4133   6   8   0.0034   0.0040   0.0027   0.0018  -0.0027  -0.0019   0.00    0.0
2020/01/11 01:18:44.981  -2319099.5590  -4799846.3594   3490090.4133   6   8   0.0034   0.0040   0.0027   0.0018  -0.0027  -0.0019   0.00    0.0
2020/01/11 01:18:59.981  -2319099.5590  -4799846.3594   3490090.4133   6   8   0.0034   0.0040   0.0027   0.0018  -0.0027  -0.0019   0.00    0.0
2020/01/11 01:19:14.981  -2319099.5589  -4799846.3594   3490090.4133   6   8   0.0034   0.0040   0.0027   0.0018  -0.0027  -0.0019   0.00    0.0
2020/01/11 01:19:29.981  -2319099.5589  -4799846.3594   3490090.4133   6   8   0.0034   0.0040   0.0027   0.0018  -0.0027  -0.0019   0.00    0.0
2020/01/11 01:19:44.981  -2319099.5589  -4799846.3594   3490090.4133   6   8   0.0034   0.0040   0.0027   0.0018  -0.0027  -0.0019   0.00    0.0
2020/01/11 01:19:59.981  -2319099.5589  -4799846.3594   3490090.4133   6   8   0.0034   0.0040   0.0027   0.0018  -0.0027  -0.0019   0.00    0.0
2020/01/11 01:20:14.980  -2319099.5589  -4799846.3594   3490090.4133   6   8   0.0034   0.0040   0.0027   0.0018  -0.0027  -0.0019   0.00    0.0
2020/01/11 01:20:29.980  -2319099.5589  -4799846.3594   3490090.4133   6   8   0.0034   0.0040   0.0027   0.0018  -0.0027  -0.0019   0.00    0.0
2020/01/11 01:20:44.980  -2319099.5589  -4799846.3594   3490090.4133   6   8   0.0034   0.0040   0.0027   0.0018  -0.0027  -0.0019   0.00    0.0
2020/01/11 01:20:59.980  -2319099.5589  -4799846.3594   3490090.4134   6   8   0.0034   0.0040   0.0027   0.0018  -0.0027  -0.0019   0.00    0.0
2020/01/11 01:21:14.980  -2319099.5589  -4799846.3595   3490090.4134   6   8   0.0034   0.0040   0.0027   0.0018  -0.0027  -0.0019   0.00    0.0
2020/01/11 01:21:29.980  -2319099.5589  -4799846.3595   3490090.4134   6   8   0.0034   0.0040   0.0027   0.0018  -0.0027  -0.0019   0.00    0.0
2020/01/11 01:21:44.980  -2319099.5588  -4799846.3594   3490090.4134   6   8   0.0034   0.0040   0.0027   0.0018  -0.0027  -0.0019   0.00    0.0
2020/01/11 01:21:59.980  -2319099.5588  -4799846.3594   3490090.4134   6   8   0.0034   0.0040   0.0027   0.0018  -0.0027  -0.0019   0.00    0.0
2020/01/11 01:22:14.980  -2319099.5588  -4799846.3594   3490090.4134   6   8   0.0034   0.0040   0.0027   0.0018  -0.0027  -0.0019   0.00    0.0
2020/01/11 01:22:29.980  -2319099.5588  -4799846.3594   3490090.4133   6   8   0.0034   0.0040   0.0027   0.0018  -0.0027  -0.0019   0.00    0.0
2020/01/11 01:22:44.980  -2319099.5588  -4799846.3594   3490090.4133   6   8   0.0034   0.0040   0.0027   0.0018  -0.0027  -0.0019   0.00    0.0
2020/01/11 01:22:59.980  -2319099.5587  -4799846.3594   3490090.4133   6   8   0.0034   0.0040   0.0027   0.0018  -0.0027  -0.0019   0.00    0.0
2020/01/11 01:23:14.980  -2319099.5587  -4799846.3594   3490090.4133   6   8   0.0034   0.0040   0.0027   0.0018  -0.0027  -0.0019   0.00    0.0
2020/01/11 01:23:29.980  -2319099.5587  -4799846.3594   3490090.4133   6   8   0.0034   0.0040   0.0027   0.0018  -0.0027  -0.0019   0.00    0.0
2020/01/11 01:23:44.979  -2319099.5586  -4799846.3594   3490090.4133   6   8   0.0034   0.0040   0.0027   0.0018  -0.0027  -0.0019   0.00    0.0
2020/01/11 01:23:59.979  -2319099.5586  -4799846.3594   3490090.4133   6   8   0.0034   0.0040   0.0027   0.0018  -0.0027  -0.0019   0.00    0.0
2020/01/11 01:24:14.979  -2319099.5586  -4799846.3594   3490090.4134   6   8   0.0034   0.0040   0.0027   0.0018  -0.0027  -0.0019   0.00    0.0
2020/01/11 01:24:29.979  -2319099.5587  -4799846.3594   3490090.4134   6   8   0.0034   0.0040   0.0027   0.0018  -0.0027  -0.0019   0.00    0.0
2020/01/11 01:24:44.979  -2319099.5586  -4799846.3594   3490090.4134   6   8   0.0034   0.0040   0.0027   0.0018  -0.0027  -0.0019   0.00    0.0
2020/01/11 01:24:59.979  -2319099.5586  -4799846.3594   3490090.4134   6   8   0.0034   0.0040   0.0027   0.0018  -0.0027  -0.0019   0.00    0.0
2020/01/11 01:25:14.980  -2319099.5586  -4799846.3594   3490090.4134   6   8   0.0034   0.0040   0.0027   0.0018  -0.0027  -0.0019   0.00    0.0
2020/01/11 01:25:29.980  -2319099.5586  -4799846.3594   3490090.4134   6   8   0.0034   0.0040   0.0027   0.0018  -0.0027  -0.0019   0.00    0.0
2020/01/11 01:25:44.980  -2319099.5585  -4799846.3594   3490090.4134   6   8   0.0034   0.0040   0.0027   0.0018  -0.0027  -0.0019   0.00    0.0
2020/01/11 01:25:59.980  -2319099.5585  -4799846.3594   3490090.4134   6   8   0.0034   0.0040   0.0027   0.0018  -0.0027  -0.0019   0.00    0.0
2020/01/11 01:26:14.980  -2319099.5585  -4799846.3594   3490090.4134   6   8   0.0034   0.0040   0.0027   0.0018  -0.0027  -0.0019   0.00    0.0
2020/01/11 01:26:29.980  -2319099.5585  -4799846.3594   3490090.4135   6   8   0.0034   0.0040   0.0027   0.0018  -0.0027  -0.0019   0.00    0.0
2020/01/11 01:26:44.980  -2319099.5585  -4799846.3594   3490090.4135   6   8   0.0034   0.0040   0.0027   0.0018  -0.0027  -0.0019   0.00    0.0
2020/01/11 01:26:59.980  -2319099.5584  -4799846.3594   3490090.4135   6   8   0.0034   0.0040   0.0027   0.0018  -0.0027  -0.0019   0.00    0.0
2020/01/11 01:27:14.980  -2319099.5585  -4799846.3594   3490090.4135   6   8   0.0034   0.0040   0.0027   0.0018  -0.0027  -0.0019   0.00    0.0
2020/01/11 01:27:29.980  -2319099.5585  -4799846.3595   3490090.4135   6   8   0.0034   0.0040   0.0027   0.0018  -0.0027  -0.0019   0.00    0.0
2020/01/11 01:27:44.980  -2319099.5585  -4799846.3595   3490090.4135   6   8   0.0034   0.0040   0.0027   0.0018  -0.0027  -0.0019   0.00    0.0
2020/01/11 01:27:59.980  -2319099.5585  -4799846.3595   3490090.4135   6   8   0.0034   0.0040   0.0027   0.0018  -0.0027  -0.0019   0.00    0.0
2020/01/11 01:28:14.980  -2319099.5585  -4799846.3595   3490090.4135   6   8   0.0034   0.0040   0.0027   0.0018  -0.0027  -0.0019   0.00    0.0
2020/01/11 01:28:29.980  -2319099.5584  -4799846.3595   3490090.4135   6   8   0.0034   0.0040   0.0027   0.0018  -0.0027  -0.0019   0.00    0.0
2020/01/11 01:28:44.980  -2319099.5584  -4799846.3595   3490090.4135   6   8   0.0034   0.0040   0.0027   0.0018  -0.0027  -0.0019   0.00    0.0
2020/01/11 01:28:59.980  -2319099.5584  -4799846.3595   3490090.4135   6   8   0.0034   0.0040   0.0027   0.0018  -0.0027  -0.0019   0.00    0.0
2020/01/11 01:29:14.980  -2319099.5583  -4799846.3595   3490090.4135   6   8   0.0034   0.0040   0.0027   0.0018  -0.0027  -0.0019   0.00    0.0
2020/01/11 01:29:29.980  -2319099.5583  -4799846.3595   3490090.4135   6   8   0.0034   0.0040   0.0027   0.0018  -0.0027  -0.0019   0.00    0.0
2020/01/11 01:29:44.979  -2319099.5583  -4799846.3596   3490090.4135   6   8   0.0034   0.0040   0.0027   0.0018  -0.0027  -0.0019   0.00    0.0
2020/01/11 01:29:59.979  -2319099.5583  -4799846.3596   3490090.4135   6   8   0.0034   0.0040   0.0027   0.0018  -0.0027  -0.0019   0.00    0.0
2020/01/11 01:30:14.979  -2319099.5583  -4799846.3596   3490090.4135   6   8   0.0034   0.0040   0.0027   0.0018  -0.0027  -0.0019   0.00    0.0
2020/01/11 01:30:29.979  -2319099.5583  -4799846.3596   3490090.4135   6   8   0.0034   0.0040   0.0027   0.0018  -0.0027  -0.0019   0.00    0.0
2020/01/11 01:30:44.979  -2319099.5582  -4799846.3596   3490090.4135   6   8   0.0034   0.0040   0.0027   0.0018  -0.0027  -0.0019   0.00    0.0
2020/01/11 01:30:59.979  -2319099.5582  -4799846.3596   3490090.4135   6   8   0.0034   0.0040   0.0027   0.0018  -0.0027  -0.0019   0.00    0.0
2020/01/11 01:31:14.979  -2319099.5582  -4799846.3596   3490090.4135   6   8   0.0034   0.0040   0.0027   0.0018  -0.0027  -0.0019   0.00    0.0
2020/01/11 01:31:29.979  -2319099.5582  -4799846.3596   3490090.4135   6   9   0.0034   0.0040   0.0027   0.0018  -0.0027  -0.0019   0.00    0.0
2020/01/11 01:31:44.979  -2319099.5582  -4799846.3596   3490090.4135   6   9   0.0034   0.0040   0.0027   0.0018  -0.0027  -0.0019   0.00    0.0
2020/01/11 01:31:59.979  -2319099.5582  -4799846.3596   3490090.4135   6   9   0.0034   0.0040   0.0027   0.0018  -0.0027  -0.0019   0.00    0.0
2020/01/11 01:32:14.979  -2319099.5582  -4799846.3597   3490090.4135   6   9   0.0034   0.0040   0.0027   0.0018  -0.0027  -0.0019   0.00    0.0
2020/01/11 01:32:29.979  -2319099.5582  -4799846.3597   3490090.4135   6   9   0.0034   0.0040   0.0027   0.0018  -0.0027  -0.0019   0.00    0.0
2020/01/11 01:32:44.979  -2319099.5582  -4799846.3597   3490090.4136   6   9   0.0034   0.0040   0.0027   0.0018  -0.0027  -0.0019   0.00    0.0
2020/01/11 01:32:59.979  -2319099.5582  -4799846.3597   3490090.4136   6   9   0.0034   0.0040   0.0027   0.0018  -0.0027  -0.0019   0.00    0.0
2020/01/11 01:33:14.979  -2319099.5582  -4799846.3597   3490090.4136   6   9   0.0034   0.0040   0.0027   0.0018  -0.0027  -0.0019   0.00    0.0
2020/01/11 01:33:29.979  -2319099.5582  -4799846.3598   3490090.4136   6   9   0.0034   0.0040   0.0027   0.0018  -0.0027  -0.0019   0.00    0.0
2020/01/11 01:33:44.979  -2319099.5582  -4799846.3598   3490090.4136   6   9   0.0034   0.0040   0.0027   0.0018  -0.0027  -0.0019   0.00    0.0
2020/01/11 01:33:59.979  -2319099.5582  -4799846.3598   3490090.4136   6   9   0.0034   0.0040   0.0027   0.0018  -0.0027  -0.0019   0.00    0.0
2020/01/11 01:34:14.979  -2319099.5582  -4799846.3598   3490090.4136   6   9   0.0034   0.0040   0.0027   0.0018  -0.0027  -0.0019   0.00    0.0
2020/01/11 01:34:29.979  -2319099.5581  -4799846.3598   3490090.4136   6   9   0.0034   0.0040   0.0027   0.0018  -0.0027  -0.0019   0.00    0.0
2020/01/11 01:34:44.979  -2319099.5581  -4799846.3598   3490090.4136   6   9   0.0034   0.0040   0.0027   0.0018  -0.0027  -0.0019   0.00    0.0
2020/01/11 01:34:59.979  -2319099.5581  -4799846.3598   3490090.4136   6   9   0.0034   0.0040   0.0027   0.0018  -0.0027  -0.0019   0.00    0.0
2020/01/11 01:35:14.979  -2319099.5581  -4799846.3599   3490090.4136   6   9   0.0034   0.0040   0.0027   0.0018  -0.0027  -0.0019   0.00    0.0
2020/01/11 01:35:29.979  -2319099.5581  -4799846.3599   3490090.4136   6   9   0.0034   0.0040   0.0027   0.0018  -0.0027  -0.0019   0.00    0.0
2020/01/11 01:35:44.979  -2319099.5581  -4799846.3599   3490090.4136   6   9   0.0034   0.0040   0.0027   0.0018  -0.0027  -0.0019   0.00    0.0
2020/01/11 01:35:59.979  -2319099.5580  -4799846.3599   3490090.4136   6   9   0.0034   0.0040   0.0027   0.0018  -0.0027  -0.0019   0.00    0.0
2020/01/11 01:36:14.979  -2319099.5581  -4799846.3599   3490090.4136   6   9   0.0034   0.0040   0.0027   0.0018  -0.0027  -0.0019   0.00    0.0
2020/01/11 01:36:29.979  -2319099.5581  -4799846.3599   3490090.4136   6   9   0.0034   0.0040   0.0027   0.0018  -0.0027  -0.0019   0.00    0.0
2020/01/11 01:36:44.979  -2319099.5581  -4799846.3599   3490090.4136   6   9   0.0034   0.0040   0.0027   0.0018  -0.0027  -0.0019   0.00    0.0
2020/01/11 01:36:59.979  -2319099.5581  -4799846.3599   3490090.4136   6   9   0.0034   0.0040   0.0027   0.0018  -0.0027  -0.0019   0.00    0.0
2020/01/11 01:37:14.979  -2319099.5580  -4799846.3599   3490090.4136   6   9   0.0034   0.0040   0.0027   0.0018  -0.0027  -0.0019   0.00    0.0
2020/01/11 01:37:29.979  -2319099.5580  -4799846.3599   3490090.4136   6   9   0.0034   0.0040   0.0027   0.0018  -0.0027  -0.0019   0.00    0.0
2020/01/11 01:37:44.979  -2319099.5580  -4799846.3599   3490090.4136   6   9   0.0034   0.0040   0.0027   0.0018  -0.0027  -0.0019   0.00    0.0
2020/01/11 01:37:59.979  -2319099.5580  -4799846.3599   3490090.4136   6   9   0.0034   0.0040   0.0027   0.0018  -0.0027  -0.0019   0.00    0.0
2020/01/11 01:38:14.979  -2319099.5580  -4799846.3600   3490090.4137   6   9   0.0034   0.0040   0.0027   0.0018  -0.0027  -0.0019   0.00    0.0
2020/01/11 01:38:29.979  -2319099.5579  -4799846.3600   3490090.4137   6   9   0.0034   0.0040   0.0027   0.0018  -0.0027  -0.0019   0.00    0.0
2020/01/11 01:38:44.979  -2319099.5579  -4799846.3600   3490090.4137   6   9   0.0034   0.0040   0.0027   0.0018  -0.0027  -0.0019   0.00    0.0
2020/01/11 01:38:59.979  -2319099.5580  -4799846.3600   3490090.4137   6   9   0.0034   0.0040   0.0027   0.0018  -0.0027  -0.0019   0.00    0.0
2020/01/11 01:39:14.979  -2319099.5580  -4799846.3600   3490090.4137   6   9   0.0034   0.0040   0.0027   0.0018  -0.0027  -0.0019   0.00    0.0
2020/01/11 01:39:29.979  -2319099.5580  -4799846.3600   3490090.4137   6   9   0.0034   0.0040   0.0027   0.0018  -0.0027  -0.0019   0.00    0.0
2020/01/11 01:39:44.979  -2319099.5579  -4799846.3600   3490090.4137   6   9   0.0034   0.0040   0.0027   0.0018  -0.0027  -0.0019   0.00    0.0
2020/01/11 01:39:59.979  -2319099.5579  -4799846.3600   3490090.4137   6   9   0.0034   0.0040   0.0027   0.0018  -0.0027  -0.0019   0.00    0.0
2020/01/11 01:40:14.979  -2319099.5579  -4799846.3601   3490090.4137   6   9   0.0034   0.0040   0.0027   0.0018  -0.0027  -0.0019   0.00    0.0
2020/01/11 01:40:29.979  -2319099.5579  -4799846.3601   3490090.4137   6   9   0.0034   0.0040   0.0027   0.0018  -0.0027  -0.0019   0.00    0.0
2020/01/11 01:40:44.979  -2319099.5579  -4799846.3601   3490090.4137   6   9   0.0034   0.0040   0.0027   0.0018  -0.0027  -0.0019   0.00    0.0
2020/01/11 01:40:59.979  -2319099.5579  -4799846.3601   3490090.4136   6   9   0.0034   0.0040   0.0027   0.0018  -0.0027  -0.0019   0.00    0.0
2020/01/11 01:41:14.979  -2319099.5579  -4799846.3601   3490090.4137   6   9   0.0034   0.0040   0.0027   0.0018  -0.0027  -0.0019   0.00    0.0
2020/01/11 01:41:29.979  -2319099.5579  -4799846.3601   3490090.4137   6   9   0.0034   0.0040   0.0027   0.0018  -0.0027  -0.0019   0.00    0.0
