% program   : RTKPOST ver.2.4.3 b34
% inp file  : C:\Users\Danisimo\Desktop\????????\DHLG\dhlg0110.20o
% inp file  : C:\Users\Danisimo\Desktop\????????\MONP\monp0110.20o
% inp file  : C:\Users\Danisimo\Desktop\????????\brdc0110.20n
% inp file  : C:\Users\Danisimo\Desktop\????????\igs20876.sp3
% inp file  : C:\Users\Danisimo\Desktop\????????\igs20876.clk_30s
% obs start : 2020/01/11 00:00:00.0 GPST (week2087 518400.0s)
% obs end   : 2020/01/11 23:59:45.0 GPST (week2087 604785.0s)
% pos mode  : Static
% freqs     : L1+2
% solution  : Combined
% elev mask : 15.0 deg
% dynamics  : off
% tidecorr  : off
% ionos opt : Broadcast
% tropo opt : Saastamoinen
% ephemeris : Precise
% navi sys  : GPS
% amb res   : Continuous
% val thres : 3.0
% antenna1  :                       ( 0.0000  0.0000  0.1224)
% antenna2  :                       ( 0.0000  0.0000  0.1176)
% ref pos   : -2386247.4004  -4802359.1258   3444902.3817
%
% (x/y/z-ecef=WGS84,Q=1:fix,2:float,3:sbas,4:dgps,5:single,6:ppp,ns=# of satellites)
%  GPST                      x-ecef(m)      y-ecef(m)      z-ecef(m)   Q  ns   sdx(m)   sdy(m)   sdz(m)  sdxy(m)  sdyz(m)  sdzx(m) age(s)  ratio
2020/01/10 23:59:59.981  -2319099.4734  -4799846.6221   3490090.4116   1   6   0.0003   0.0004   0.0002  -0.0001  -0.0002  -0.0001   0.00   30.5
2020/01/11 00:00:14.981  -2319099.4733  -4799846.6222   3490090.4116   1   6   0.0003   0.0004   0.0002  -0.0001  -0.0002  -0.0001   0.00   30.1
2020/01/11 00:00:29.981  -2319099.4733  -4799846.6222   3490090.4116   1   6   0.0003   0.0004   0.0002  -0.0001  -0.0002  -0.0001   0.00   29.9
2020/01/11 00:00:44.981  -2319099.4732  -4799846.6222   3490090.4116   1   6   0.0003   0.0004   0.0002  -0.0001  -0.0002  -0.0001   0.00   29.6
2020/01/11 00:00:59.981  -2319099.4731  -4799846.6222   3490090.4116   1   6   0.0003   0.0004   0.0002  -0.0001  -0.0002  -0.0001   0.00   29.3
2020/01/11 00:01:14.981  -2319099.4731  -4799846.6223   3490090.4116   1   6   0.0003   0.0004   0.0002  -0.0001  -0.0002  -0.0001   0.00   29.0
2020/01/11 00:01:29.981  -2319099.4730  -4799846.6223   3490090.4116   1   6   0.0003   0.0004   0.0002  -0.0001  -0.0002  -0.0001   0.00   28.9
2020/01/11 00:01:44.981  -2319099.4729  -4799846.6223   3490090.4116   1   6   0.0003   0.0004   0.0002  -0.0001  -0.0002  -0.0001   0.00   28.6
2020/01/11 00:01:59.981  -2319099.4728  -4799846.6224   3490090.4116   1   6   0.0003   0.0004   0.0002  -0.0001  -0.0002  -0.0001   0.00   28.5
2020/01/11 00:02:14.981  -2319099.4733  -4799846.6220   3490090.4116   1   6   0.0003   0.0004   0.0002  -0.0000  -0.0002  -0.0001   0.00    3.1
2020/01/11 00:02:29.981  -2319099.4733  -4799846.6220   3490090.4116   1   6   0.0003   0.0004   0.0002  -0.0000  -0.0002  -0.0001   0.00    3.2
2020/01/11 00:02:44.981  -2319099.4733  -4799846.6220   3490090.4116   1   6   0.0003   0.0004   0.0002  -0.0000  -0.0002  -0.0001   0.00    3.3
2020/01/11 00:02:59.981  -2319099.4733  -4799846.6220   3490090.4116   1   6   0.0003   0.0004   0.0002  -0.0000  -0.0002  -0.0001   0.00    3.4
2020/01/11 00:03:14.981  -2319099.4732  -4799846.6220   3490090.4116   1   6   0.0003   0.0004   0.0002  -0.0000  -0.0002  -0.0001   0.00    3.6
2020/01/11 00:03:29.981  -2319099.4732  -4799846.6219   3490090.4116   1   6   0.0003   0.0004   0.0002  -0.0000  -0.0002  -0.0001   0.00    3.8
2020/01/11 00:03:44.981  -2319099.4732  -4799846.6219   3490090.4116   1   6   0.0003   0.0004   0.0002  -0.0000  -0.0002  -0.0001   0.00    4.1
2020/01/11 00:03:59.981  -2319099.4731  -4799846.6219   3490090.4117   1   6   0.0003   0.0004   0.0002  -0.0000  -0.0002  -0.0001   0.00    4.4
2020/01/11 00:04:14.980  -2319099.4731  -4799846.6219   3490090.4117   1   6   0.0003   0.0004   0.0002  -0.0000  -0.0002  -0.0001   0.00    4.7
2020/01/11 00:04:29.980  -2319099.4731  -4799846.6219   3490090.4117   1   6   0.0003   0.0004   0.0002  -0.0000  -0.0002  -0.0001   0.00    5.0
2020/01/11 00:04:44.980  -2319099.4730  -4799846.6219   3490090.4117   1   6   0.0003   0.0004   0.0002  -0.0000  -0.0002  -0.0001   0.00    5.3
2020/01/11 00:04:59.980  -2319099.4730  -4799846.6219   3490090.4117   1   6   0.0003   0.0004   0.0002  -0.0000  -0.0002  -0.0001   0.00    5.8
2020/01/11 00:05:14.980  -2319099.4730  -4799846.6219   3490090.4117   1   6   0.0003   0.0004   0.0002  -0.0000  -0.0002  -0.0001   0.00    6.2
2020/01/11 00:05:29.980  -2319099.4729  -4799846.6219   3490090.4117   1   6   0.0003   0.0004   0.0002   0.0000  -0.0002  -0.0001   0.00    6.6
2020/01/11 00:05:44.981  -2319099.4729  -4799846.6219   3490090.4117   1   6   0.0003   0.0004   0.0002   0.0000  -0.0002  -0.0001   0.00    7.1
2020/01/11 00:05:59.981  -2319099.4728  -4799846.6219   3490090.4117   1   6   0.0003   0.0004   0.0002   0.0000  -0.0002  -0.0001   0.00    7.7
2020/01/11 00:06:14.981  -2319099.4728  -4799846.6219   3490090.4117   1   6   0.0003   0.0004   0.0002   0.0000  -0.0002  -0.0001   0.00    8.3
2020/01/11 00:06:29.981  -2319099.4728  -4799846.6219   3490090.4117   1   6   0.0003   0.0004   0.0002   0.0000  -0.0002  -0.0001   0.00    8.9
2020/01/11 00:06:44.981  -2319099.4727  -4799846.6219   3490090.4117   1   6   0.0003   0.0004   0.0002   0.0000  -0.0002  -0.0001   0.00    9.4
2020/01/11 00:06:59.981  -2319099.4727  -4799846.6220   3490090.4117   1   6   0.0003   0.0004   0.0002   0.0000  -0.0002  -0.0001   0.00    9.6
2020/01/11 00:07:14.981  -2319099.4726  -4799846.6220   3490090.4117   1   6   0.0003   0.0004   0.0002   0.0000  -0.0002  -0.0001   0.00    9.9
2020/01/11 00:07:29.981  -2319099.4726  -4799846.6220   3490090.4117   1   6   0.0003   0.0004   0.0002   0.0000  -0.0002  -0.0001   0.00   10.2
2020/01/11 00:07:44.981  -2319099.4725  -4799846.6220   3490090.4117   1   6   0.0003   0.0004   0.0002   0.0000  -0.0002  -0.0001   0.00   10.3
2020/01/11 00:07:59.981  -2319099.4725  -4799846.6220   3490090.4117   1   6   0.0003   0.0004   0.0002   0.0000  -0.0002  -0.0001   0.00   10.4
2020/01/11 00:08:14.981  -2319099.4725  -4799846.6220   3490090.4117   1   6   0.0003   0.0004   0.0002   0.0000  -0.0002  -0.0001   0.00   10.5
2020/01/11 00:08:29.981  -2319099.4724  -4799846.6220   3490090.4117   1   6   0.0003   0.0004   0.0002   0.0000  -0.0002  -0.0001   0.00   10.6
2020/01/11 00:08:44.981  -2319099.4724  -4799846.6220   3490090.4118   1   6   0.0003   0.0004   0.0002   0.0000  -0.0002  -0.0001   0.00   10.8
2020/01/11 00:08:59.981  -2319099.4723  -4799846.6220   3490090.4118   1   6   0.0003   0.0004   0.0002   0.0000  -0.0002  -0.0001   0.00   10.8
2020/01/11 00:09:14.981  -2319099.4722  -4799846.6221   3490090.4118   1   6   0.0003   0.0004   0.0002   0.0000  -0.0002  -0.0001   0.00   10.9
2020/01/11 00:09:29.981  -2319099.4722  -4799846.6221   3490090.4118   1   6   0.0003   0.0004   0.0002   0.0000  -0.0002  -0.0001   0.00   10.8
2020/01/11 00:09:44.981  -2319099.4722  -4799846.6221   3490090.4118   1   6   0.0003   0.0004   0.0002   0.0000  -0.0002  -0.0001   0.00   10.8
2020/01/11 00:09:59.981  -2319099.4721  -4799846.6221   3490090.4118   1   6   0.0003   0.0004   0.0002   0.0000  -0.0002  -0.0001   0.00   10.8
2020/01/11 00:10:14.981  -2319099.4697  -4799846.6240   3490090.4127   1   7   0.0003   0.0004   0.0002  -0.0001  -0.0002  -0.0001   0.00   21.1
2020/01/11 00:10:29.979  -2319099.4697  -4799846.6240   3490090.4127   1   7   0.0003   0.0004   0.0002  -0.0001  -0.0002  -0.0001   0.00   20.9
2020/01/11 00:10:44.980  -2319099.4697  -4799846.6240   3490090.4127   1   7   0.0003   0.0004   0.0002  -0.0001  -0.0002  -0.0001   0.00   20.7
2020/01/11 00:10:59.980  -2319099.4697  -4799846.6239   3490090.4127   1   7   0.0003   0.0004   0.0002  -0.0001  -0.0002  -0.0001   0.00   20.5
2020/01/11 00:11:14.980  -2319099.4698  -4799846.6239   3490090.4127   1   7   0.0003   0.0004   0.0002  -0.0001  -0.0002  -0.0001   0.00   20.3
2020/01/11 00:11:29.980  -2319099.4698  -4799846.6239   3490090.4127   1   7   0.0003   0.0004   0.0002  -0.0001  -0.0002  -0.0001   0.00   20.1
2020/01/11 00:11:44.980  -2319099.4698  -4799846.6239   3490090.4127   1   7   0.0003   0.0004   0.0002  -0.0001  -0.0002  -0.0001   0.00   19.9
2020/01/11 00:11:59.980  -2319099.4709  -4799846.6221   3490090.4126   1   8   0.0003   0.0004   0.0002   0.0001  -0.0002  -0.0001   0.00   18.0
2020/01/11 00:12:14.980  -2319099.4709  -4799846.6220   3490090.4126   1   8   0.0003   0.0004   0.0002   0.0001  -0.0002  -0.0001   0.00   17.7
2020/01/11 00:12:29.980  -2319099.4710  -4799846.6220   3490090.4126   1   8   0.0003   0.0004   0.0002   0.0001  -0.0002  -0.0001   0.00   17.4
2020/01/11 00:12:44.980  -2319099.4710  -4799846.6219   3490090.4126   1   8   0.0003   0.0004   0.0002   0.0001  -0.0002  -0.0001   0.00   17.1
2020/01/11 00:12:59.980  -2319099.4711  -4799846.6218   3490090.4125   1   8   0.0003   0.0004   0.0002   0.0001  -0.0002  -0.0001   0.00   16.9
2020/01/11 00:13:14.980  -2319099.4711  -4799846.6217   3490090.4125   1   8   0.0003   0.0004   0.0002   0.0001  -0.0002  -0.0001   0.00   16.5
2020/01/11 00:13:29.980  -2319099.4711  -4799846.6216   3490090.4125   1   8   0.0003   0.0004   0.0002   0.0001  -0.0002  -0.0001   0.00   16.2
2020/01/11 00:13:44.980  -2319099.4712  -4799846.6216   3490090.4125   1   8   0.0003   0.0004   0.0002   0.0001  -0.0002  -0.0001   0.00   16.0
2020/01/11 00:13:59.980  -2319099.4712  -4799846.6215   3490090.4125   1   8   0.0003   0.0004   0.0002   0.0001  -0.0002  -0.0001   0.00   15.6
2020/01/11 00:14:14.980  -2319099.4712  -4799846.6214   3490090.4125   1   8   0.0003   0.0004   0.0002   0.0001  -0.0002  -0.0001   0.00   15.3
2020/01/11 00:14:29.980  -2319099.4712  -4799846.6213   3490090.4125   1   8   0.0003   0.0004   0.0002   0.0001  -0.0002  -0.0001   0.00   15.0
2020/01/11 00:14:44.980  -2319099.4713  -4799846.6213   3490090.4125   1   8   0.0003   0.0004   0.0002   0.0001  -0.0002  -0.0001   0.00   14.7
2020/01/11 00:14:59.980  -2319099.4713  -4799846.6212   3490090.4125   1   8   0.0003   0.0004   0.0002   0.0001  -0.0002  -0.0001   0.00   14.4
2020/01/11 00:15:14.980  -2319099.4713  -4799846.6211   3490090.4125   1   8   0.0003   0.0004   0.0002   0.0001  -0.0002  -0.0001   0.00   14.1
2020/01/11 00:15:29.980  -2319099.4713  -4799846.6211   3490090.4125   1   8   0.0003   0.0004   0.0002   0.0001  -0.0002  -0.0001   0.00   13.8
2020/01/11 00:15:44.980  -2319099.4713  -4799846.6210   3490090.4125   1   8   0.0003   0.0004   0.0002   0.0001  -0.0002  -0.0001   0.00   13.5
2020/01/11 00:15:59.980  -2319099.4713  -4799846.6210   3490090.4125   1   8   0.0003   0.0004   0.0002   0.0001  -0.0002  -0.0001   0.00   13.1
2020/01/11 00:16:14.980  -2319099.4713  -4799846.6209   3490090.4125   1   8   0.0003   0.0004   0.0002   0.0001  -0.0002  -0.0001   0.00   12.8
2020/01/11 00:16:29.980  -2319099.4713  -4799846.6209   3490090.4125   1   8   0.0003   0.0004   0.0002   0.0001  -0.0002  -0.0001   0.00   12.6
2020/01/11 00:16:44.980  -2319099.4713  -4799846.6208   3490090.4125   1   8   0.0003   0.0004   0.0002   0.0001  -0.0002  -0.0001   0.00   12.3
2020/01/11 00:16:59.980  -2319099.4713  -4799846.6208   3490090.4125   1   8   0.0003   0.0004   0.0002   0.0001  -0.0002  -0.0001   0.00   12.0
2020/01/11 00:17:14.980  -2319099.4713  -4799846.6208   3490090.4125   1   8   0.0003   0.0004   0.0002   0.0001  -0.0002  -0.0001   0.00   11.8
2020/01/11 00:17:29.980  -2319099.4713  -4799846.6207   3490090.4125   1   8   0.0003   0.0004   0.0002   0.0001  -0.0002  -0.0001   0.00   11.5
2020/01/11 00:17:44.980  -2319099.4713  -4799846.6207   3490090.4125   1   8   0.0003   0.0004   0.0002   0.0001  -0.0002  -0.0001   0.00   11.3
2020/01/11 00:17:59.980  -2319099.4713  -4799846.6207   3490090.4125   1   8   0.0003   0.0004   0.0002   0.0001  -0.0002  -0.0001   0.00   11.1
2020/01/11 00:18:14.980  -2319099.4713  -4799846.6206   3490090.4125   1   8   0.0003   0.0004   0.0002   0.0001  -0.0002  -0.0001   0.00   10.9
2020/01/11 00:18:29.979  -2319099.4713  -4799846.6206   3490090.4125   1   8   0.0003   0.0004   0.0002   0.0001  -0.0002  -0.0001   0.00   10.7
2020/01/11 00:18:44.980  -2319099.4713  -4799846.6206   3490090.4125   1   8   0.0003   0.0004   0.0002   0.0001  -0.0002  -0.0001   0.00   10.5
2020/01/11 00:18:59.979  -2319099.4714  -4799846.6206   3490090.4125   1   8   0.0003   0.0004   0.0002   0.0001  -0.0002  -0.0001   0.00   10.4
2020/01/11 00:19:14.979  -2319099.4714  -4799846.6205   3490090.4125   1   8   0.0003   0.0004   0.0002   0.0001  -0.0002  -0.0001   0.00   10.3
2020/01/11 00:19:29.979  -2319099.4714  -4799846.6205   3490090.4125   1   8   0.0003   0.0004   0.0002   0.0001  -0.0002  -0.0001   0.00   10.2
2020/01/11 00:19:44.979  -2319099.4707  -4799846.6208   3490090.4128   1   8   0.0003   0.0004   0.0002   0.0001  -0.0002  -0.0001   0.00    3.1
2020/01/11 00:19:59.979  -2319099.4706  -4799846.6208   3490090.4128   1   8   0.0003   0.0004   0.0002   0.0001  -0.0002  -0.0001   0.00    3.3
2020/01/11 00:20:14.980  -2319099.4706  -4799846.6208   3490090.4128   1   8   0.0003   0.0004   0.0002   0.0001  -0.0002  -0.0001   0.00    3.4
2020/01/11 00:20:29.979  -2319099.4706  -4799846.6208   3490090.4128   1   8   0.0003   0.0004   0.0002   0.0001  -0.0002  -0.0001   0.00    3.5
2020/01/11 00:20:44.979  -2319099.4706  -4799846.6208   3490090.4128   1   8   0.0003   0.0004   0.0002   0.0001  -0.0002  -0.0001   0.00    3.6
2020/01/11 00:20:59.979  -2319099.4705  -4799846.6208   3490090.4128   1   8   0.0003   0.0004   0.0002   0.0001  -0.0002  -0.0001   0.00    3.8
2020/01/11 00:21:14.981  -2319099.4705  -4799846.6208   3490090.4128   1   8   0.0003   0.0004   0.0002   0.0001  -0.0002  -0.0001   0.00    3.9
2020/01/11 00:21:29.980  -2319099.4705  -4799846.6208   3490090.4128   1   8   0.0003   0.0004   0.0002   0.0001  -0.0002  -0.0001   0.00    4.0
2020/01/11 00:21:44.980  -2319099.4705  -4799846.6208   3490090.4128   1   8   0.0003   0.0004   0.0002   0.0001  -0.0002  -0.0001   0.00    4.1
2020/01/11 00:21:59.980  -2319099.4705  -4799846.6207   3490090.4128   1   8   0.0003   0.0004   0.0002   0.0001  -0.0002  -0.0001   0.00    4.3
2020/01/11 00:22:14.980  -2319099.4704  -4799846.6207   3490090.4128   1   8   0.0003   0.0004   0.0002   0.0001  -0.0002  -0.0001   0.00    4.4
2020/01/11 00:22:29.979  -2319099.4704  -4799846.6207   3490090.4128   1   8   0.0003   0.0004   0.0002   0.0001  -0.0002  -0.0001   0.00    4.5
2020/01/11 00:22:44.980  -2319099.4704  -4799846.6207   3490090.4128   1   8   0.0003   0.0004   0.0002   0.0001  -0.0002  -0.0001   0.00    4.7
2020/01/11 00:22:59.980  -2319099.4704  -4799846.6207   3490090.4128   1   8   0.0003   0.0004   0.0002   0.0001  -0.0002  -0.0001   0.00    4.8
2020/01/11 00:23:14.980  -2319099.4704  -4799846.6207   3490090.4129   1   8   0.0003   0.0004   0.0002   0.0001  -0.0002  -0.0001   0.00    5.0
2020/01/11 00:23:29.980  -2319099.4704  -4799846.6207   3490090.4129   1   8   0.0003   0.0004   0.0002   0.0001  -0.0002  -0.0001   0.00    5.2
2020/01/11 00:23:44.980  -2319099.4704  -4799846.6207   3490090.4129   1   8   0.0003   0.0004   0.0002   0.0001  -0.0002  -0.0001   0.00    5.3
2020/01/11 00:23:59.980  -2319099.4703  -4799846.6207   3490090.4129   1   8   0.0003   0.0004   0.0002   0.0001  -0.0002  -0.0001   0.00    5.5
2020/01/11 00:24:14.980  -2319099.4703  -4799846.6207   3490090.4128   1   8   0.0003   0.0004   0.0002   0.0001  -0.0002  -0.0001   0.00    5.7
2020/01/11 00:24:29.980  -2319099.4703  -4799846.6207   3490090.4128   1   8   0.0003   0.0004   0.0002   0.0001  -0.0002  -0.0001   0.00    5.8
2020/01/11 00:24:44.980  -2319099.4703  -4799846.6206   3490090.4129   1   8   0.0003   0.0004   0.0002   0.0001  -0.0002  -0.0001   0.00    6.1
2020/01/11 00:24:59.980  -2319099.4703  -4799846.6206   3490090.4129   1   8   0.0003   0.0004   0.0002   0.0001  -0.0002  -0.0001   0.00    6.3
2020/01/11 00:25:14.980  -2319099.4703  -4799846.6206   3490090.4128   1   8   0.0003   0.0004   0.0002   0.0001  -0.0002  -0.0001   0.00    6.5
2020/01/11 00:25:29.980  -2319099.4703  -4799846.6206   3490090.4128   1   8   0.0003   0.0004   0.0002   0.0001  -0.0002  -0.0001   0.00    6.7
2020/01/11 00:25:44.980  -2319099.4703  -4799846.6206   3490090.4128   1   8   0.0003   0.0004   0.0002   0.0001  -0.0002  -0.0001   0.00    6.9
2020/01/11 00:25:59.980  -2319099.4703  -4799846.6206   3490090.4128   1   8   0.0003   0.0004   0.0002   0.0001  -0.0002  -0.0001   0.00    7.1
2020/01/11 00:26:14.980  -2319099.4703  -4799846.6206   3490090.4129   1   8   0.0003   0.0004   0.0002   0.0001  -0.0002  -0.0001   0.00    7.3
2020/01/11 00:26:29.980  -2319099.4703  -4799846.6206   3490090.4128   1   8   0.0003   0.0004   0.0002   0.0001  -0.0002  -0.0001   0.00    7.5
2020/01/11 00:26:44.980  -2319099.4703  -4799846.6206   3490090.4128   1   8   0.0003   0.0004   0.0002   0.0001  -0.0002  -0.0001   0.00    7.8
2020/01/11 00:26:59.980  -2319099.4703  -4799846.6205   3490090.4128   1   8   0.0003   0.0004   0.0002   0.0001  -0.0002  -0.0001   0.00    8.0
2020/01/11 00:27:14.980  -2319099.4703  -4799846.6205   3490090.4128   1   8   0.0003   0.0004   0.0002   0.0001  -0.0002  -0.0001   0.00    8.2
2020/01/11 00:27:29.980  -2319099.4703  -4799846.6205   3490090.4128   1   8   0.0003   0.0004   0.0002   0.0001  -0.0002  -0.0001   0.00    8.4
2020/01/11 00:27:44.980  -2319099.4703  -4799846.6205   3490090.4128   1   8   0.0003   0.0004   0.0002   0.0001  -0.0002  -0.0001   0.00    8.5
2020/01/11 00:27:59.980  -2319099.4703  -4799846.6205   3490090.4128   1   8   0.0003   0.0004   0.0002   0.0001  -0.0002  -0.0001   0.00    8.7
2020/01/11 00:28:14.980  -2319099.4703  -4799846.6205   3490090.4128   1   8   0.0003   0.0003   0.0002   0.0001  -0.0002  -0.0001   0.00    8.8
2020/01/11 00:28:29.980  -2319099.4703  -4799846.6204   3490090.4129   1   8   0.0003   0.0003   0.0002   0.0001  -0.0002  -0.0001   0.00    9.0
2020/01/11 00:28:44.980  -2319099.4703  -4799846.6204   3490090.4129   1   8   0.0003   0.0003   0.0002   0.0001  -0.0002  -0.0001   0.00    9.1
2020/01/11 00:28:59.980  -2319099.4704  -4799846.6204   3490090.4129   1   8   0.0003   0.0003   0.0002   0.0001  -0.0002  -0.0001   0.00    9.3
2020/01/11 00:29:14.980  -2319099.4704  -4799846.6204   3490090.4129   1   8   0.0003   0.0003   0.0002   0.0001  -0.0002  -0.0001   0.00    9.5
2020/01/11 00:29:29.980  -2319099.4704  -4799846.6204   3490090.4129   1   8   0.0003   0.0003   0.0002   0.0001  -0.0002  -0.0001   0.00    9.6
2020/01/11 00:29:44.980  -2319099.4704  -4799846.6204   3490090.4129   1   8   0.0003   0.0003   0.0002   0.0001  -0.0002  -0.0001   0.00    9.8
2020/01/11 00:29:59.980  -2319099.4704  -4799846.6203   3490090.4129   1   8   0.0003   0.0003   0.0002   0.0001  -0.0002  -0.0001   0.00   10.0
2020/01/11 00:30:14.980  -2319099.4704  -4799846.6203   3490090.4129   1   8   0.0003   0.0003   0.0002   0.0001  -0.0002  -0.0001   0.00   10.2
2020/01/11 00:30:29.980  -2319099.4704  -4799846.6203   3490090.4129   1   8   0.0003   0.0003   0.0002   0.0001  -0.0002  -0.0001   0.00   10.4
2020/01/11 00:30:44.980  -2319099.4704  -4799846.6203   3490090.4129   1   8   0.0003   0.0003   0.0002   0.0001  -0.0002  -0.0001   0.00   10.7
2020/01/11 00:30:59.980  -2319099.4704  -4799846.6203   3490090.4129   1   8   0.0003   0.0003   0.0002   0.0001  -0.0002  -0.0001   0.00   11.0
2020/01/11 00:31:14.981  -2319099.4705  -4799846.6203   3490090.4129   1   8   0.0003   0.0003   0.0002   0.0001  -0.0002  -0.0001   0.00   11.3
2020/01/11 00:31:29.981  -2319099.4705  -4799846.6202   3490090.4129   1   8   0.0003   0.0003   0.0002   0.0001  -0.0002  -0.0001   0.00   11.7
2020/01/11 00:31:44.981  -2319099.4705  -4799846.6202   3490090.4129   1   8   0.0003   0.0003   0.0002   0.0001  -0.0002  -0.0001   0.00   12.2
2020/01/11 00:31:59.981  -2319099.4705  -4799846.6202   3490090.4129   1   8   0.0003   0.0003   0.0002   0.0001  -0.0002  -0.0001   0.00   12.7
2020/01/11 00:32:14.981  -2319099.4705  -4799846.6202   3490090.4129   1   8   0.0003   0.0003   0.0002   0.0001  -0.0002  -0.0001   0.00   13.1
2020/01/11 00:32:29.981  -2319099.4705  -4799846.6202   3490090.4129   1   8   0.0003   0.0003   0.0002   0.0001  -0.0002  -0.0001   0.00   13.6
2020/01/11 00:32:44.981  -2319099.4705  -4799846.6201   3490090.4129   1   8   0.0003   0.0003   0.0002   0.0001  -0.0002  -0.0001   0.00   14.1
2020/01/11 00:32:59.981  -2319099.4706  -4799846.6201   3490090.4129   1   8   0.0003   0.0003   0.0002   0.0001  -0.0002  -0.0001   0.00   14.5
2020/01/11 00:33:14.981  -2319099.4706  -4799846.6201   3490090.4129   1   8   0.0003   0.0003   0.0002   0.0001  -0.0002  -0.0001   0.00   15.0
2020/01/11 00:33:29.981  -2319099.4706  -4799846.6201   3490090.4129   1   8   0.0003   0.0003   0.0002   0.0001  -0.0002  -0.0001   0.00   15.4
2020/01/11 00:33:44.980  -2319099.4706  -4799846.6201   3490090.4129   1   8   0.0003   0.0003   0.0002   0.0001  -0.0002  -0.0001   0.00   15.7
2020/01/11 00:33:59.980  -2319099.4706  -4799846.6200   3490090.4129   1   8   0.0003   0.0003   0.0002   0.0001  -0.0002  -0.0001   0.00   16.2
2020/01/11 00:34:14.980  -2319099.4706  -4799846.6200   3490090.4129   1   8   0.0003   0.0003   0.0002   0.0001  -0.0002  -0.0001   0.00   16.6
2020/01/11 00:34:29.980  -2319099.4706  -4799846.6200   3490090.4129   1   8   0.0003   0.0003   0.0002   0.0001  -0.0002  -0.0001   0.00   17.0
2020/01/11 00:34:44.981  -2319099.4707  -4799846.6200   3490090.4129   1   8   0.0003   0.0003   0.0002   0.0001  -0.0002  -0.0001   0.00   17.4
2020/01/11 00:34:59.981  -2319099.4707  -4799846.6200   3490090.4129   1   8   0.0003   0.0003   0.0002   0.0001  -0.0002  -0.0001   0.00   17.8
2020/01/11 00:35:14.981  -2319099.4707  -4799846.6200   3490090.4129   1   8   0.0003   0.0003   0.0002   0.0001  -0.0002  -0.0001   0.00   18.2
2020/01/11 00:35:29.982  -2319099.4707  -4799846.6199   3490090.4129   1   8   0.0003   0.0003   0.0002   0.0001  -0.0002  -0.0001   0.00   18.6
2020/01/11 00:35:44.982  -2319099.4707  -4799846.6199   3490090.4128   1   8   0.0003   0.0003   0.0002   0.0001  -0.0002  -0.0001   0.00   19.0
2020/01/11 00:35:59.982  -2319099.4708  -4799846.6199   3490090.4128   1   8   0.0003   0.0003   0.0002   0.0001  -0.0002  -0.0001   0.00   19.4
2020/01/11 00:36:14.982  -2319099.4708  -4799846.6198   3490090.4128   1   8   0.0003   0.0003   0.0002   0.0001  -0.0002  -0.0001   0.00   19.8
2020/01/11 00:36:29.982  -2319099.4708  -4799846.6198   3490090.4128   1   8   0.0003   0.0003   0.0002   0.0001  -0.0002  -0.0001   0.00   20.2
2020/01/11 00:36:44.982  -2319099.4708  -4799846.6198   3490090.4128   1   8   0.0003   0.0003   0.0002   0.0001  -0.0002  -0.0001   0.00   20.6
2020/01/11 00:36:59.982  -2319099.4708  -4799846.6198   3490090.4128   1   8   0.0003   0.0003   0.0002   0.0001  -0.0002  -0.0001   0.00   21.0
2020/01/11 00:37:14.982  -2319099.4709  -4799846.6197   3490090.4128   1   8   0.0003   0.0003   0.0002   0.0001  -0.0002  -0.0001   0.00   21.4
2020/01/11 00:37:29.982  -2319099.4709  -4799846.6197   3490090.4128   1   8   0.0003   0.0003   0.0002   0.0001  -0.0002  -0.0001   0.00   21.8
2020/01/11 00:37:44.982  -2319099.4709  -4799846.6197   3490090.4128   1   8   0.0003   0.0003   0.0002   0.0001  -0.0002  -0.0001   0.00   22.3
2020/01/11 00:37:59.982  -2319099.4709  -4799846.6197   3490090.4127   1   8   0.0003   0.0003   0.0002   0.0001  -0.0002  -0.0001   0.00   22.8
2020/01/11 00:38:14.982  -2319099.4709  -4799846.6197   3490090.4127   1   8   0.0003   0.0003   0.0002   0.0001  -0.0002  -0.0001   0.00   23.3
2020/01/11 00:38:29.982  -2319099.4709  -4799846.6196   3490090.4127   1   8   0.0003   0.0003   0.0002   0.0001  -0.0002  -0.0001   0.00   23.8
2020/01/11 00:38:44.982  -2319099.4709  -4799846.6196   3490090.4127   1   8   0.0003   0.0003   0.0002   0.0001  -0.0002  -0.0001   0.00   24.4
2020/01/11 00:38:59.982  -2319099.4710  -4799846.6196   3490090.4127   1   8   0.0003   0.0003   0.0002   0.0001  -0.0002  -0.0001   0.00   25.0
2020/01/11 00:39:14.982  -2319099.4710  -4799846.6195   3490090.4127   1   8   0.0003   0.0003   0.0002   0.0001  -0.0002  -0.0001   0.00   25.6
2020/01/11 00:39:29.982  -2319099.4710  -4799846.6195   3490090.4127   1   8   0.0003   0.0003   0.0002   0.0001  -0.0002  -0.0001   0.00   26.1
2020/01/11 00:39:44.982  -2319099.4710  -4799846.6195   3490090.4127   1   8   0.0003   0.0003   0.0002   0.0001  -0.0002  -0.0001   0.00   26.7
2020/01/11 00:39:59.982  -2319099.4621  -4799846.6188   3490090.4214   1   8   0.0006   0.0011   0.0006   0.0006  -0.0007  -0.0004   0.00   27.2
2020/01/11 00:40:14.982  -2319099.4622  -4799846.6188   3490090.4213   1   8   0.0006   0.0011   0.0006   0.0006  -0.0007  -0.0004   0.00   27.7
2020/01/11 00:40:29.982  -2319099.4623  -4799846.6188   3490090.4212   1   8   0.0006   0.0011   0.0006   0.0006  -0.0007  -0.0004   0.00   28.1
2020/01/11 00:40:44.982  -2319099.4624  -4799846.6189   3490090.4211   1   8   0.0006   0.0011   0.0006   0.0006  -0.0007  -0.0004   0.00   28.5
2020/01/11 00:40:59.982  -2319099.4625  -4799846.6188   3490090.4210   1   8   0.0006   0.0011   0.0006   0.0006  -0.0007  -0.0004   0.00   28.9
2020/01/11 00:41:14.982  -2319099.4625  -4799846.6189   3490090.4209   1   8   0.0006   0.0011   0.0006   0.0006  -0.0007  -0.0004   0.00   29.2
2020/01/11 00:41:29.982  -2319099.4626  -4799846.6189   3490090.4209   1   8   0.0006   0.0011   0.0006   0.0006  -0.0006  -0.0004   0.00   29.5
2020/01/11 00:41:44.982  -2319099.4627  -4799846.6190   3490090.4208   1   8   0.0006   0.0011   0.0006   0.0006  -0.0006  -0.0004   0.00   29.9
2020/01/11 00:41:59.982  -2319099.4628  -4799846.6191   3490090.4208   1   8   0.0006   0.0010   0.0006   0.0006  -0.0006  -0.0004   0.00   30.2
2020/01/11 00:42:14.982  -2319099.4628  -4799846.6190   3490090.4207   1   8   0.0006   0.0010   0.0006   0.0006  -0.0006  -0.0004   0.00   30.4
2020/01/11 00:42:29.982  -2319099.4629  -4799846.6190   3490090.4206   1   8   0.0006   0.0010   0.0006   0.0006  -0.0006  -0.0004   0.00   30.7
2020/01/11 00:42:44.982  -2319099.4630  -4799846.6191   3490090.4206   1   8   0.0006   0.0010   0.0006   0.0006  -0.0006  -0.0004   0.00   30.9
2020/01/11 00:42:59.982  -2319099.4631  -4799846.6190   3490090.4205   1   8   0.0006   0.0010   0.0006   0.0006  -0.0006  -0.0004   0.00   31.1
2020/01/11 00:43:14.982  -2319099.4631  -4799846.6190   3490090.4205   1   8   0.0006   0.0010   0.0006   0.0006  -0.0006  -0.0004   0.00   31.3
2020/01/11 00:43:29.982  -2319099.4633  -4799846.6190   3490090.4204   1   8   0.0006   0.0010   0.0006   0.0006  -0.0006  -0.0004   0.00   31.4
2020/01/11 00:43:44.982  -2319099.4634  -4799846.6190   3490090.4204   1   8   0.0006   0.0010   0.0006   0.0006  -0.0006  -0.0004   0.00   31.6
2020/01/11 00:43:59.982  -2319099.4635  -4799846.6190   3490090.4204   1   8   0.0006   0.0010   0.0006   0.0006  -0.0006  -0.0004   0.00   31.9
2020/01/11 00:44:14.982  -2319099.4635  -4799846.6190   3490090.4203   1   8   0.0006   0.0010   0.0006   0.0006  -0.0006  -0.0004   0.00   32.2
2020/01/11 00:44:29.982  -2319099.4636  -4799846.6191   3490090.4203   1   8   0.0006   0.0010   0.0006   0.0006  -0.0006  -0.0004   0.00   32.5
2020/01/11 00:44:44.982  -2319099.4637  -4799846.6191   3490090.4203   1   8   0.0006   0.0010   0.0006   0.0006  -0.0006  -0.0004   0.00   32.7
2020/01/11 00:44:59.982  -2319099.4638  -4799846.6191   3490090.4203   1   8   0.0006   0.0010   0.0006   0.0006  -0.0006  -0.0004   0.00   33.0
2020/01/11 00:45:14.982  -2319099.4639  -4799846.6192   3490090.4203   1   8   0.0006   0.0010   0.0006   0.0006  -0.0006  -0.0004   0.00   33.2
2020/01/11 00:45:29.982  -2319099.4641  -4799846.6193   3490090.4203   1   8   0.0006   0.0010   0.0006   0.0006  -0.0006  -0.0004   0.00   33.4
2020/01/11 00:45:44.982  -2319099.4642  -4799846.6194   3490090.4203   1   8   0.0006   0.0010   0.0006   0.0006  -0.0006  -0.0004   0.00   33.6
2020/01/11 00:45:59.982  -2319099.4643  -4799846.6194   3490090.4203   1   8   0.0006   0.0010   0.0006   0.0006  -0.0006  -0.0004   0.00   33.6
2020/01/11 00:46:14.982  -2319099.4644  -4799846.6194   3490090.4203   1   8   0.0006   0.0010   0.0006   0.0006  -0.0006  -0.0004   0.00   33.7
2020/01/11 00:46:29.982  -2319099.4645  -4799846.6194   3490090.4203   1   8   0.0006   0.0010   0.0006   0.0006  -0.0006  -0.0004   0.00   33.7
2020/01/11 00:46:44.982  -2319099.4646  -4799846.6194   3490090.4203   1   8   0.0006   0.0010   0.0006   0.0006  -0.0006  -0.0004   0.00   33.6
2020/01/11 00:46:59.982  -2319099.4647  -4799846.6193   3490090.4203   1   8   0.0006   0.0010   0.0006   0.0006  -0.0006  -0.0004   0.00   33.4
2020/01/11 00:47:14.982  -2319099.4649  -4799846.6193   3490090.4203   1   8   0.0006   0.0010   0.0006   0.0006  -0.0006  -0.0004   0.00   33.3
2020/01/11 00:47:29.982  -2319099.4650  -4799846.6193   3490090.4203   1   8   0.0006   0.0010   0.0006   0.0006  -0.0006  -0.0004   0.00   32.9
2020/01/11 00:47:44.982  -2319099.4651  -4799846.6193   3490090.4203   1   8   0.0006   0.0010   0.0006   0.0006  -0.0006  -0.0004   0.00   32.6
2020/01/11 00:47:59.982  -2319099.4652  -4799846.6192   3490090.4203   1   8   0.0006   0.0010   0.0006   0.0006  -0.0006  -0.0004   0.00   32.0
2020/01/11 00:48:14.982  -2319099.4654  -4799846.6192   3490090.4203   1   8   0.0006   0.0010   0.0006   0.0006  -0.0006  -0.0004   0.00   31.6
2020/01/11 00:48:29.982  -2319099.4655  -4799846.6192   3490090.4203   1   8   0.0006   0.0010   0.0006   0.0006  -0.0006  -0.0004   0.00   31.2
2020/01/11 00:48:44.982  -2319099.4657  -4799846.6191   3490090.4203   1   8   0.0006   0.0010   0.0006   0.0005  -0.0006  -0.0004   0.00   30.8
2020/01/11 00:48:59.982  -2319099.4658  -4799846.6191   3490090.4203   1   8   0.0006   0.0010   0.0006   0.0005  -0.0006  -0.0004   0.00   30.3
2020/01/11 00:49:14.982  -2319099.4660  -4799846.6191   3490090.4203   1   8   0.0006   0.0010   0.0006   0.0005  -0.0006  -0.0004   0.00   29.7
2020/01/11 00:49:29.982  -2319099.4661  -4799846.6190   3490090.4203   1   8   0.0006   0.0010   0.0006   0.0005  -0.0006  -0.0004   0.00   29.0
2020/01/11 00:49:44.982  -2319099.4663  -4799846.6190   3490090.4204   1   8   0.0006   0.0010   0.0006   0.0005  -0.0006  -0.0004   0.00   28.5
2020/01/11 00:49:59.982  -2319099.4664  -4799846.6190   3490090.4204   1   8   0.0006   0.0010   0.0006   0.0005  -0.0006  -0.0004   0.00   28.0
2020/01/11 00:50:14.982  -2319099.4665  -4799846.6189   3490090.4204   1   8   0.0006   0.0010   0.0006   0.0005  -0.0006  -0.0004   0.00   27.5
2020/01/11 00:50:29.982  -2319099.4667  -4799846.6190   3490090.4205   1   8   0.0006   0.0010   0.0006   0.0005  -0.0006  -0.0004   0.00   27.0
2020/01/11 00:50:44.982  -2319099.4669  -4799846.6190   3490090.4205   1   8   0.0006   0.0010   0.0006   0.0005  -0.0006  -0.0004   0.00   26.4
2020/01/11 00:50:59.982  -2319099.4668  -4799846.6190   3490090.4180   1   7   0.0006   0.0010   0.0007   0.0005  -0.0006  -0.0004   0.00   28.5
2020/01/11 00:51:14.982  -2319099.4669  -4799846.6188   3490090.4179   1   7   0.0006   0.0010   0.0007   0.0005  -0.0006  -0.0004   0.00   28.1
2020/01/11 00:51:29.982  -2319099.4670  -4799846.6187   3490090.4179   1   7   0.0006   0.0010   0.0007   0.0005  -0.0006  -0.0004   0.00   27.7
2020/01/11 00:51:44.982  -2319099.4672  -4799846.6187   3490090.4178   1   7   0.0006   0.0010   0.0007   0.0005  -0.0006  -0.0004   0.00   27.4
2020/01/11 00:51:59.982  -2319099.4673  -4799846.6187   3490090.4178   1   7   0.0006   0.0010   0.0007   0.0005  -0.0006  -0.0004   0.00   27.2
2020/01/11 00:52:14.982  -2319099.4675  -4799846.6187   3490090.4178   1   7   0.0006   0.0010   0.0007   0.0005  -0.0006  -0.0004   0.00   26.9
2020/01/11 00:52:29.982  -2319099.4676  -4799846.6186   3490090.4177   1   7   0.0006   0.0010   0.0007   0.0005  -0.0006  -0.0004   0.00   26.7
2020/01/11 00:52:44.982  -2319099.4678  -4799846.6186   3490090.4177   1   7   0.0006   0.0010   0.0007   0.0005  -0.0006  -0.0004   0.00   26.5
2020/01/11 00:52:59.982  -2319099.4679  -4799846.6186   3490090.4176   1   7   0.0006   0.0010   0.0007   0.0005  -0.0006  -0.0004   0.00   26.2
2020/01/11 00:53:14.982  -2319099.4680  -4799846.6186   3490090.4176   1   7   0.0006   0.0010   0.0007   0.0005  -0.0006  -0.0004   0.00   25.9
2020/01/11 00:53:29.982  -2319099.4681  -4799846.6185   3490090.4176   1   7   0.0006   0.0010   0.0007   0.0005  -0.0006  -0.0004   0.00   25.7
2020/01/11 00:53:44.982  -2319099.4682  -4799846.6185   3490090.4176   1   7   0.0006   0.0010   0.0007   0.0005  -0.0006  -0.0004   0.00   25.5
2020/01/11 00:53:59.982  -2319099.4683  -4799846.6184   3490090.4175   1   7   0.0006   0.0010   0.0007   0.0005  -0.0006  -0.0004   0.00   25.2
2020/01/11 00:54:14.982  -2319099.4683  -4799846.6183   3490090.4175   1   7   0.0006   0.0010   0.0007   0.0005  -0.0006  -0.0004   0.00   24.9
2020/01/11 00:54:29.982  -2319099.4684  -4799846.6182   3490090.4175   1   7   0.0006   0.0010   0.0007   0.0005  -0.0006  -0.0004   0.00   24.7
2020/01/11 00:54:44.982  -2319099.4684  -4799846.6182   3490090.4175   1   7   0.0006   0.0009   0.0007   0.0005  -0.0006  -0.0004   0.00   24.5
2020/01/11 00:54:59.982  -2319099.4685  -4799846.6181   3490090.4175   1   7   0.0006   0.0009   0.0007   0.0005  -0.0006  -0.0004   0.00   24.4
2020/01/11 00:55:14.982  -2319099.4685  -4799846.6180   3490090.4176   1   7   0.0006   0.0009   0.0007   0.0005  -0.0006  -0.0004   0.00   24.3
2020/01/11 00:55:29.982  -2319099.4686  -4799846.6179   3490090.4176   1   7   0.0006   0.0009   0.0007   0.0005  -0.0006  -0.0004   0.00   24.2
2020/01/11 00:55:44.982  -2319099.4686  -4799846.6178   3490090.4176   1   7   0.0006   0.0009   0.0007   0.0005  -0.0006  -0.0004   0.00   24.2
2020/01/11 00:55:59.982  -2319099.4686  -4799846.6176   3490090.4177   1   7   0.0005   0.0009   0.0007   0.0005  -0.0006  -0.0004   0.00   24.1
2020/01/11 00:56:14.982  -2319099.4686  -4799846.6175   3490090.4178   1   7   0.0005   0.0009   0.0007   0.0005  -0.0006  -0.0004   0.00   24.1
2020/01/11 00:56:29.982  -2319099.4685  -4799846.6174   3490090.4178   1   7   0.0005   0.0009   0.0007   0.0005  -0.0006  -0.0004   0.00   23.9
2020/01/11 00:56:44.982  -2319099.4685  -4799846.6172   3490090.4178   1   7   0.0005   0.0009   0.0007   0.0005  -0.0006  -0.0004   0.00   23.9
2020/01/11 00:56:59.982  -2319099.4684  -4799846.6171   3490090.4179   1   7   0.0005   0.0009   0.0007   0.0005  -0.0006  -0.0004   0.00   23.8
2020/01/11 00:57:14.982  -2319099.4769  -4799846.6230   3490090.4112   2   8   0.0005   0.0004   0.0002  -0.0002  -0.0002  -0.0001   0.00    1.0
2020/01/11 00:57:29.982  -2319099.4769  -4799846.6230   3490090.4112   2   8   0.0005   0.0004   0.0002  -0.0002  -0.0002  -0.0001   0.00    1.1
2020/01/11 00:57:44.982  -2319099.4769  -4799846.6231   3490090.4112   2   8   0.0005   0.0004   0.0002  -0.0002  -0.0002  -0.0001   0.00    1.1
2020/01/11 00:57:59.982  -2319099.4768  -4799846.6231   3490090.4112   2   8   0.0005   0.0004   0.0002  -0.0002  -0.0002  -0.0001   0.00    1.1
2020/01/11 00:58:14.982  -2319099.4768  -4799846.6231   3490090.4111   2   8   0.0005   0.0004   0.0002  -0.0002  -0.0002  -0.0001   0.00    1.2
2020/01/11 00:58:29.982  -2319099.4768  -4799846.6231   3490090.4111   2   8   0.0005   0.0004   0.0002  -0.0002  -0.0002  -0.0001   0.00    1.2
2020/01/11 00:58:44.982  -2319099.4768  -4799846.6231   3490090.4111   2   8   0.0005   0.0004   0.0002  -0.0002  -0.0002  -0.0001   0.00    1.2
2020/01/11 00:58:59.982  -2319099.4768  -4799846.6231   3490090.4111   2   8   0.0005   0.0004   0.0002  -0.0002  -0.0002  -0.0001   0.00    1.2
2020/01/11 00:59:14.982  -2319099.4767  -4799846.6231   3490090.4111   2   8   0.0005   0.0004   0.0002  -0.0002  -0.0002  -0.0001   0.00    1.3
2020/01/11 00:59:29.982  -2319099.4767  -4799846.6232   3490090.4111   2   9   0.0005   0.0004   0.0002  -0.0002  -0.0002  -0.0001   0.00    1.0
2020/01/11 00:59:44.982  -2319099.4767  -4799846.6232   3490090.4111   2   9   0.0005   0.0004   0.0002  -0.0002  -0.0002  -0.0001   0.00    1.0
2020/01/11 00:59:59.982  -2319099.4767  -4799846.6232   3490090.4111   2   9   0.0005   0.0004   0.0002  -0.0002  -0.0002  -0.0001   0.00    1.1
2020/01/11 01:00:14.982  -2319099.4766  -4799846.6232   3490090.4111   2   9   0.0005   0.0004   0.0002  -0.0002  -0.0002  -0.0001   0.00    1.1
2020/01/11 01:00:29.982  -2319099.4766  -4799846.6232   3490090.4111   2   9   0.0005   0.0004   0.0002  -0.0002  -0.0002  -0.0001   0.00    1.1
2020/01/11 01:00:44.982  -2319099.4766  -4799846.6232   3490090.4110   2   9   0.0005   0.0004   0.0002  -0.0002  -0.0002  -0.0001   0.00    1.1
2020/01/11 01:00:59.982  -2319099.4710  -4799846.6174   3490090.4116   1   8   0.0003   0.0004   0.0002   0.0001  -0.0002  -0.0001   0.00    7.6
2020/01/11 01:01:14.982  -2319099.4710  -4799846.6174   3490090.4115   1   8   0.0003   0.0004   0.0002   0.0001  -0.0002  -0.0001   0.00    7.7
2020/01/11 01:01:29.982  -2319099.4709  -4799846.6174   3490090.4114   1   8   0.0003   0.0004   0.0002   0.0001  -0.0002  -0.0001   0.00    7.8
2020/01/11 01:01:44.982  -2319099.4709  -4799846.6174   3490090.4114   1   8   0.0003   0.0004   0.0002   0.0001  -0.0002  -0.0001   0.00    7.9
2020/01/11 01:01:59.982  -2319099.4708  -4799846.6174   3490090.4113   1   8   0.0003   0.0004   0.0002   0.0001  -0.0002  -0.0001   0.00    8.0
2020/01/11 01:02:14.982  -2319099.4708  -4799846.6173   3490090.4112   1   8   0.0003   0.0004   0.0002   0.0001  -0.0002  -0.0001   0.00    8.0
2020/01/11 01:02:29.982  -2319099.4708  -4799846.6173   3490090.4112   1   8   0.0003   0.0004   0.0002   0.0001  -0.0002  -0.0001   0.00    8.1
2020/01/11 01:02:44.982  -2319099.4707  -4799846.6173   3490090.4111   1   8   0.0003   0.0004   0.0002   0.0001  -0.0002  -0.0001   0.00    8.2
2020/01/11 01:02:59.982  -2319099.4707  -4799846.6173   3490090.4110   1   8   0.0003   0.0004   0.0002   0.0001  -0.0002  -0.0001   0.00    8.2
2020/01/11 01:03:14.982  -2319099.4707  -4799846.6173   3490090.4109   1   8   0.0003   0.0004   0.0002   0.0001  -0.0002  -0.0001   0.00    8.3
2020/01/11 01:03:29.982  -2319099.4706  -4799846.6173   3490090.4109   1   8   0.0003   0.0004   0.0002   0.0001  -0.0002  -0.0001   0.00    8.3
2020/01/11 01:03:44.982  -2319099.4706  -4799846.6172   3490090.4108   1   8   0.0003   0.0004   0.0002   0.0001  -0.0002  -0.0001   0.00    8.4
2020/01/11 01:03:59.982  -2319099.4706  -4799846.6172   3490090.4107   1   8   0.0003   0.0004   0.0002   0.0001  -0.0002  -0.0001   0.00    8.4
2020/01/11 01:04:14.982  -2319099.4706  -4799846.6172   3490090.4107   1   8   0.0003   0.0004   0.0002   0.0001  -0.0002  -0.0001   0.00    8.4
2020/01/11 01:04:29.982  -2319099.4705  -4799846.6171   3490090.4106   1   8   0.0003   0.0004   0.0002   0.0001  -0.0002  -0.0001   0.00    8.5
2020/01/11 01:04:44.982  -2319099.4705  -4799846.6171   3490090.4106   1   8   0.0003   0.0004   0.0002   0.0001  -0.0002  -0.0001   0.00    8.5
2020/01/11 01:04:59.982  -2319099.4705  -4799846.6171   3490090.4105   1   8   0.0003   0.0004   0.0002   0.0001  -0.0002  -0.0001   0.00    8.5
2020/01/11 01:05:14.982  -2319099.4705  -4799846.6171   3490090.4105   1   8   0.0003   0.0004   0.0002   0.0001  -0.0002  -0.0001   0.00    8.5
2020/01/11 01:05:29.982  -2319099.4705  -4799846.6170   3490090.4104   1   8   0.0003   0.0004   0.0002   0.0001  -0.0002  -0.0001   0.00    8.5
2020/01/11 01:05:44.982  -2319099.4705  -4799846.6170   3490090.4104   1   8   0.0003   0.0004   0.0002   0.0001  -0.0002  -0.0001   0.00    8.5
2020/01/11 01:05:59.982  -2319099.4704  -4799846.6170   3490090.4104   1   8   0.0003   0.0004   0.0002   0.0001  -0.0002  -0.0001   0.00    8.5
2020/01/11 01:06:14.982  -2319099.4704  -4799846.6170   3490090.4103   1   8   0.0003   0.0004   0.0002   0.0001  -0.0002  -0.0001   0.00    8.6
2020/01/11 01:06:29.982  -2319099.4704  -4799846.6170   3490090.4103   1   8   0.0003   0.0004   0.0002   0.0001  -0.0002  -0.0001   0.00    8.6
2020/01/11 01:06:44.982  -2319099.4704  -4799846.6169   3490090.4103   1   8   0.0003   0.0004   0.0002   0.0001  -0.0002  -0.0001   0.00    8.5
2020/01/11 01:06:59.982  -2319099.4704  -4799846.6169   3490090.4103   1   8   0.0003   0.0004   0.0002   0.0001  -0.0002  -0.0001   0.00    8.5
2020/01/11 01:07:14.982  -2319099.4704  -4799846.6169   3490090.4102   1   8   0.0003   0.0004   0.0002   0.0001  -0.0002  -0.0001   0.00    8.5
2020/01/11 01:07:29.982  -2319099.4704  -4799846.6169   3490090.4102   1   8   0.0003   0.0004   0.0002   0.0001  -0.0002  -0.0001   0.00    8.5
2020/01/11 01:07:44.982  -2319099.4703  -4799846.6169   3490090.4102   1   8   0.0003   0.0004   0.0002   0.0001  -0.0002  -0.0001   0.00    8.5
2020/01/11 01:07:59.982  -2319099.4703  -4799846.6168   3490090.4102   1   8   0.0003   0.0004   0.0002   0.0001  -0.0002  -0.0001   0.00    8.4
2020/01/11 01:08:14.982  -2319099.4703  -4799846.6168   3490090.4102   1   8   0.0003   0.0004   0.0002   0.0001  -0.0002  -0.0001   0.00    8.4
2020/01/11 01:08:29.982  -2319099.4703  -4799846.6168   3490090.4102   1   8   0.0003   0.0004   0.0002   0.0001  -0.0002  -0.0001   0.00    8.4
2020/01/11 01:08:44.982  -2319099.4703  -4799846.6168   3490090.4102   1   8   0.0003   0.0004   0.0002   0.0001  -0.0002  -0.0001   0.00    8.3
2020/01/11 01:08:59.982  -2319099.4703  -4799846.6168   3490090.4102   1   8   0.0003   0.0004   0.0002   0.0001  -0.0002  -0.0001   0.00    8.3
2020/01/11 01:09:14.982  -2319099.4702  -4799846.6167   3490090.4102   1   8   0.0003   0.0004   0.0002   0.0001  -0.0002  -0.0001   0.00    8.2
2020/01/11 01:09:29.982  -2319099.4702  -4799846.6167   3490090.4102   1   8   0.0003   0.0004   0.0002   0.0001  -0.0002  -0.0001   0.00    8.2
2020/01/11 01:09:44.982  -2319099.4702  -4799846.6167   3490090.4102   1   8   0.0003   0.0004   0.0002   0.0001  -0.0002  -0.0001   0.00    8.1
2020/01/11 01:09:59.982  -2319099.4702  -4799846.6167   3490090.4102   1   8   0.0003   0.0004   0.0002   0.0001  -0.0002  -0.0001   0.00    8.0
2020/01/11 01:10:14.982  -2319099.4701  -4799846.6167   3490090.4102   1   8   0.0003   0.0004   0.0002   0.0001  -0.0002  -0.0001   0.00    8.0
2020/01/11 01:10:29.982  -2319099.4701  -4799846.6166   3490090.4102   1   8   0.0003   0.0004   0.0002   0.0001  -0.0002  -0.0001   0.00    7.9
2020/01/11 01:10:44.982  -2319099.4701  -4799846.6166   3490090.4102   1   8   0.0003   0.0004   0.0002   0.0001  -0.0002  -0.0001   0.00    7.9
2020/01/11 01:10:59.982  -2319099.4701  -4799846.6166   3490090.4103   1   8   0.0003   0.0004   0.0002   0.0001  -0.0002  -0.0001   0.00    7.8
2020/01/11 01:11:14.982  -2319099.4700  -4799846.6165   3490090.4103   1   8   0.0003   0.0004   0.0002   0.0001  -0.0002  -0.0001   0.00    7.7
2020/01/11 01:11:29.982  -2319099.4700  -4799846.6165   3490090.4103   1   8   0.0003   0.0004   0.0002   0.0001  -0.0002  -0.0001   0.00    7.6
2020/01/11 01:11:44.981  -2319099.4700  -4799846.6165   3490090.4103   1   8   0.0003   0.0004   0.0002   0.0001  -0.0002  -0.0001   0.00    7.6
2020/01/11 01:11:59.981  -2319099.4699  -4799846.6165   3490090.4103   1   8   0.0003   0.0004   0.0002   0.0001  -0.0002  -0.0001   0.00    7.5
2020/01/11 01:12:14.981  -2319099.4699  -4799846.6165   3490090.4103   1   8   0.0003   0.0004   0.0002   0.0001  -0.0002  -0.0001   0.00    7.5
2020/01/11 01:12:29.981  -2319099.4702  -4799846.6155   3490090.4124   1   8   0.0003   0.0003   0.0002   0.0001  -0.0002  -0.0001   0.00    3.0
2020/01/11 01:12:44.981  -2319099.4702  -4799846.6155   3490090.4124   1   8   0.0003   0.0003   0.0002   0.0001  -0.0002  -0.0001   0.00    3.1
2020/01/11 01:12:59.981  -2319099.4702  -4799846.6154   3490090.4124   1   8   0.0003   0.0003   0.0002   0.0001  -0.0002  -0.0001   0.00    3.2
2020/01/11 01:13:14.981  -2319099.4702  -4799846.6154   3490090.4124   1   8   0.0003   0.0003   0.0002   0.0001  -0.0002  -0.0001   0.00    3.2
2020/01/11 01:13:29.981  -2319099.4702  -4799846.6154   3490090.4124   1   8   0.0003   0.0003   0.0002   0.0001  -0.0002  -0.0001   0.00    3.3
2020/01/11 01:13:44.981  -2319099.4702  -4799846.6153   3490090.4124   1   8   0.0003   0.0003   0.0002   0.0001  -0.0002  -0.0001   0.00    3.3
2020/01/11 01:13:59.981  -2319099.4701  -4799846.6153   3490090.4124   1   8   0.0003   0.0003   0.0002   0.0001  -0.0002  -0.0001   0.00    3.3
2020/01/11 01:14:14.981  -2319099.4701  -4799846.6153   3490090.4124   1   8   0.0003   0.0003   0.0002   0.0001  -0.0002  -0.0001   0.00    3.4
2020/01/11 01:14:29.981  -2319099.4701  -4799846.6152   3490090.4124   1   8   0.0003   0.0003   0.0002   0.0001  -0.0002  -0.0001   0.00    3.4
2020/01/11 01:14:44.981  -2319099.4701  -4799846.6152   3490090.4124   1   8   0.0003   0.0003   0.0002   0.0001  -0.0002  -0.0001   0.00    3.4
2020/01/11 01:14:59.981  -2319099.4701  -4799846.6151   3490090.4124   1   8   0.0003   0.0003   0.0002   0.0001  -0.0002  -0.0001   0.00    3.5
2020/01/11 01:15:14.981  -2319099.4700  -4799846.6151   3490090.4124   1   8   0.0003   0.0003   0.0002   0.0001  -0.0002  -0.0001   0.00    3.5
2020/01/11 01:15:29.981  -2319099.4700  -4799846.6151   3490090.4124   1   8   0.0003   0.0003   0.0002   0.0001  -0.0002  -0.0001   0.00    3.5
2020/01/11 01:15:44.981  -2319099.4700  -4799846.6150   3490090.4123   1   8   0.0003   0.0003   0.0002   0.0001  -0.0002  -0.0001   0.00    3.6
2020/01/11 01:15:59.981  -2319099.4700  -4799846.6150   3490090.4123   1   8   0.0003   0.0003   0.0002   0.0001  -0.0002  -0.0001   0.00    3.6
2020/01/11 01:16:14.981  -2319099.4699  -4799846.6149   3490090.4123   1   8   0.0003   0.0003   0.0002   0.0001  -0.0002  -0.0001   0.00    3.6
2020/01/11 01:16:29.981  -2319099.4699  -4799846.6149   3490090.4123   1   8   0.0003   0.0003   0.0002   0.0001  -0.0002  -0.0001   0.00    3.7
2020/01/11 01:16:44.981  -2319099.4699  -4799846.6149   3490090.4123   1   8   0.0003   0.0003   0.0002   0.0001  -0.0002  -0.0001   0.00    3.7
2020/01/11 01:16:59.981  -2319099.4699  -4799846.6148   3490090.4123   1   8   0.0003   0.0003   0.0002   0.0001  -0.0002  -0.0001   0.00    3.7
2020/01/11 01:17:14.981  -2319099.4698  -4799846.6148   3490090.4123   1   8   0.0003   0.0003   0.0002   0.0001  -0.0002  -0.0001   0.00    3.8
2020/01/11 01:17:29.981  -2319099.4698  -4799846.6147   3490090.4123   1   8   0.0003   0.0003   0.0002   0.0001  -0.0002  -0.0001   0.00    3.8
2020/01/11 01:17:44.981  -2319099.4698  -4799846.6147   3490090.4123   1   8   0.0003   0.0003   0.0002   0.0001  -0.0002  -0.0001   0.00    3.8
2020/01/11 01:17:59.981  -2319099.4698  -4799846.6146   3490090.4123   1   8   0.0003   0.0003   0.0002   0.0001  -0.0002  -0.0001   0.00    3.9
2020/01/11 01:18:14.981  -2319099.4698  -4799846.6146   3490090.4123   1   8   0.0003   0.0003   0.0002   0.0001  -0.0002  -0.0001   0.00    3.9
2020/01/11 01:18:29.981  -2319099.4697  -4799846.6146   3490090.4123   1   8   0.0003   0.0003   0.0002   0.0001  -0.0002  -0.0001   0.00    3.9
2020/01/11 01:18:44.981  -2319099.4697  -4799846.6145   3490090.4122   1   8   0.0003   0.0003   0.0002   0.0001  -0.0002  -0.0001   0.00    4.0
2020/01/11 01:18:59.981  -2319099.4697  -4799846.6145   3490090.4122   1   8   0.0003   0.0003   0.0002   0.0001  -0.0002  -0.0001   0.00    4.0
2020/01/11 01:19:14.981  -2319099.4697  -4799846.6144   3490090.4122   1   8   0.0003   0.0003   0.0002   0.0001  -0.0002  -0.0001   0.00    4.1
2020/01/11 01:19:29.981  -2319099.4696  -4799846.6144   3490090.4122   1   8   0.0003   0.0003   0.0002   0.0001  -0.0002  -0.0001   0.00    4.1
2020/01/11 01:19:44.981  -2319099.4696  -4799846.6143   3490090.4122   1   8   0.0003   0.0003   0.0002   0.0001  -0.0002  -0.0001   0.00    4.2
2020/01/11 01:19:59.981  -2319099.4696  -4799846.6143   3490090.4122   1   8   0.0003   0.0003   0.0002   0.0001  -0.0002  -0.0001   0.00    4.2
2020/01/11 01:20:14.980  -2319099.4696  -4799846.6142   3490090.4122   1   8   0.0003   0.0003   0.0002   0.0001  -0.0002  -0.0001   0.00    4.3
2020/01/11 01:20:29.980  -2319099.4696  -4799846.6142   3490090.4122   1   8   0.0003   0.0003   0.0002   0.0001  -0.0002  -0.0001   0.00    4.3
2020/01/11 01:20:44.980  -2319099.4695  -4799846.6142   3490090.4122   1   8   0.0003   0.0003   0.0002   0.0001  -0.0002  -0.0001   0.00    4.4
2020/01/11 01:20:59.980  -2319099.4695  -4799846.6141   3490090.4121   1   8   0.0003   0.0003   0.0002   0.0001  -0.0002  -0.0001   0.00    4.4
2020/01/11 01:21:14.980  -2319099.4695  -4799846.6141   3490090.4121   1   8   0.0003   0.0003   0.0002   0.0001  -0.0002  -0.0001   0.00    4.5
2020/01/11 01:21:29.980  -2319099.4695  -4799846.6140   3490090.4121   1   8   0.0003   0.0003   0.0002   0.0001  -0.0002  -0.0001   0.00    4.5
2020/01/11 01:21:44.980  -2319099.4695  -4799846.6140   3490090.4121   1   8   0.0003   0.0003   0.0002   0.0001  -0.0002  -0.0001   0.00    4.6
2020/01/11 01:21:59.980  -2319099.4695  -4799846.6139   3490090.4121   1   8   0.0003   0.0003   0.0002   0.0001  -0.0002  -0.0001   0.00    4.6
2020/01/11 01:22:14.980  -2319099.4694  -4799846.6139   3490090.4121   1   8   0.0003   0.0003   0.0002   0.0001  -0.0002  -0.0001   0.00    4.7
2020/01/11 01:22:29.980  -2319099.4694  -4799846.6138   3490090.4121   1   8   0.0003   0.0003   0.0002   0.0001  -0.0002  -0.0001   0.00    4.7
2020/01/11 01:22:44.980  -2319099.4694  -4799846.6138   3490090.4120   1   8   0.0003   0.0003   0.0002   0.0001  -0.0002  -0.0001   0.00    4.8
2020/01/11 01:22:59.980  -2319099.4694  -4799846.6138   3490090.4120   1   8   0.0003   0.0003   0.0002   0.0001  -0.0002  -0.0001   0.00    4.8
2020/01/11 01:23:14.980  -2319099.4694  -4799846.6137   3490090.4120   1   8   0.0003   0.0003   0.0002   0.0001  -0.0002  -0.0001   0.00    4.9
2020/01/11 01:23:29.980  -2319099.4694  -4799846.6137   3490090.4120   1   8   0.0003   0.0003   0.0002   0.0001  -0.0002  -0.0001   0.00    4.9
2020/01/11 01:23:44.979  -2319099.4694  -4799846.6136   3490090.4120   1   8   0.0003   0.0003   0.0002   0.0001  -0.0002  -0.0001   0.00    5.0
2020/01/11 01:23:59.979  -2319099.4693  -4799846.6136   3490090.4119   1   8   0.0003   0.0003   0.0002   0.0001  -0.0002  -0.0001   0.00    5.0
2020/01/11 01:24:14.979  -2319099.4693  -4799846.6135   3490090.4119   1   8   0.0003   0.0003   0.0002   0.0001  -0.0002  -0.0001   0.00    5.1
2020/01/11 01:24:29.979  -2319099.4693  -4799846.6135   3490090.4119   1   8   0.0003   0.0003   0.0002   0.0001  -0.0002  -0.0001   0.00    5.1
2020/01/11 01:24:44.979  -2319099.4693  -4799846.6134   3490090.4119   1   8   0.0003   0.0003   0.0002   0.0001  -0.0002  -0.0001   0.00    5.2
2020/01/11 01:24:59.979  -2319099.4693  -4799846.6134   3490090.4118   1   8   0.0003   0.0003   0.0002   0.0001  -0.0002  -0.0001   0.00    5.2
2020/01/11 01:25:14.980  -2319099.4693  -4799846.6133   3490090.4118   1   8   0.0003   0.0003   0.0002   0.0001  -0.0002  -0.0001   0.00    5.3
2020/01/11 01:25:29.980  -2319099.4692  -4799846.6133   3490090.4118   1   8   0.0003   0.0003   0.0002   0.0001  -0.0002  -0.0001   0.00    5.3
2020/01/11 01:25:44.980  -2319099.4692  -4799846.6133   3490090.4118   1   8   0.0003   0.0003   0.0002   0.0001  -0.0002  -0.0001   0.00    5.4
2020/01/11 01:25:59.980  -2319099.4692  -4799846.6132   3490090.4118   1   8   0.0003   0.0003   0.0002   0.0001  -0.0002  -0.0001   0.00    5.4
2020/01/11 01:26:14.980  -2319099.4692  -4799846.6132   3490090.4117   1   8   0.0003   0.0003   0.0002   0.0001  -0.0002  -0.0001   0.00    5.4
2020/01/11 01:26:29.980  -2319099.4692  -4799846.6131   3490090.4117   1   8   0.0003   0.0003   0.0002   0.0001  -0.0002  -0.0001   0.00    5.5
2020/01/11 01:26:44.980  -2319099.4692  -4799846.6131   3490090.4117   1   8   0.0003   0.0003   0.0002   0.0001  -0.0002  -0.0001   0.00    5.5
2020/01/11 01:26:59.980  -2319099.4692  -4799846.6130   3490090.4117   1   8   0.0003   0.0003   0.0002   0.0001  -0.0002  -0.0001   0.00    5.5
2020/01/11 01:27:14.980  -2319099.4692  -4799846.6130   3490090.4116   1   8   0.0003   0.0003   0.0002   0.0001  -0.0002  -0.0001   0.00    5.6
2020/01/11 01:27:29.980  -2319099.4692  -4799846.6130   3490090.4116   1   8   0.0003   0.0003   0.0002   0.0001  -0.0002  -0.0001   0.00    5.6
2020/01/11 01:27:44.980  -2319099.4691  -4799846.6129   3490090.4116   1   8   0.0003   0.0003   0.0002   0.0001  -0.0002  -0.0001   0.00    5.6
2020/01/11 01:27:59.980  -2319099.4691  -4799846.6129   3490090.4116   1   8   0.0003   0.0003   0.0002   0.0001  -0.0002  -0.0001   0.00    5.7
2020/01/11 01:28:14.980  -2319099.4691  -4799846.6128   3490090.4115   1   8   0.0003   0.0003   0.0002   0.0001  -0.0002  -0.0001   0.00    5.7
2020/01/11 01:28:29.980  -2319099.4691  -4799846.6128   3490090.4115   1   8   0.0003   0.0003   0.0002   0.0001  -0.0002  -0.0001   0.00    5.7
2020/01/11 01:28:44.980  -2319099.4691  -4799846.6127   3490090.4115   1   8   0.0003   0.0003   0.0002   0.0001  -0.0002  -0.0001   0.00    5.8
2020/01/11 01:28:59.980  -2319099.4691  -4799846.6127   3490090.4114   1   8   0.0003   0.0003   0.0002   0.0001  -0.0002  -0.0001   0.00    5.8
2020/01/11 01:29:14.980  -2319099.4691  -4799846.6127   3490090.4114   1   8   0.0003   0.0003   0.0002   0.0001  -0.0002  -0.0001   0.00    5.8
2020/01/11 01:29:29.980  -2319099.4691  -4799846.6126   3490090.4114   1   8   0.0003   0.0003   0.0002   0.0001  -0.0002  -0.0001   0.00    5.8
2020/01/11 01:29:44.979  -2319099.4691  -4799846.6126   3490090.4114   1   8   0.0003   0.0003   0.0002   0.0001  -0.0002  -0.0001   0.00    5.9
2020/01/11 01:29:59.979  -2319099.4691  -4799846.6125   3490090.4113   1   8   0.0003   0.0003   0.0002   0.0001  -0.0002  -0.0001   0.00    5.9
2020/01/11 01:30:14.979  -2319099.4691  -4799846.6125   3490090.4113   1   8   0.0003   0.0003   0.0002   0.0001  -0.0002  -0.0001   0.00    5.9
2020/01/11 01:30:29.979  -2319099.4690  -4799846.6124   3490090.4113   1   8   0.0003   0.0003   0.0002   0.0001  -0.0002  -0.0001   0.00    6.0
2020/01/11 01:30:44.979  -2319099.4690  -4799846.6124   3490090.4112   1   8   0.0003   0.0003   0.0002   0.0001  -0.0002  -0.0001   0.00    6.0
2020/01/11 01:30:59.979  -2319099.4690  -4799846.6123   3490090.4112   1   8   0.0003   0.0003   0.0002   0.0001  -0.0002  -0.0001   0.00    6.0
2020/01/11 01:31:14.979  -2319099.4690  -4799846.6123   3490090.4112   1   8   0.0003   0.0003   0.0002   0.0001  -0.0002  -0.0001   0.00    6.1
2020/01/11 01:31:29.979  -2319099.4680  -4799846.6165   3490090.4087   1   9   0.0003   0.0004   0.0002   0.0001  -0.0002  -0.0001   0.00    5.1
2020/01/11 01:31:44.979  -2319099.4680  -4799846.6165   3490090.4086   1   9   0.0003   0.0004   0.0002   0.0001  -0.0002  -0.0001   0.00    5.1
2020/01/11 01:31:59.979  -2319099.4680  -4799846.6164   3490090.4086   1   9   0.0003   0.0004   0.0002   0.0001  -0.0002  -0.0001   0.00    5.2
2020/01/11 01:32:14.979  -2319099.4679  -4799846.6164   3490090.4086   1   9   0.0003   0.0004   0.0002   0.0001  -0.0002  -0.0001   0.00    5.2
2020/01/11 01:32:29.979  -2319099.4679  -4799846.6163   3490090.4086   1   9   0.0003   0.0004   0.0002   0.0001  -0.0002  -0.0001   0.00    5.2
2020/01/11 01:32:44.979  -2319099.4679  -4799846.6163   3490090.4086   1   9   0.0003   0.0004   0.0002   0.0001  -0.0002  -0.0001   0.00    5.2
2020/01/11 01:32:59.979  -2319099.4679  -4799846.6162   3490090.4086   1   9   0.0003   0.0004   0.0002   0.0001  -0.0002  -0.0001   0.00    5.3
2020/01/11 01:33:14.979  -2319099.4679  -4799846.6161   3490090.4086   1   9   0.0003   0.0004   0.0002   0.0001  -0.0002  -0.0001   0.00    5.3
2020/01/11 01:33:29.979  -2319099.4679  -4799846.6161   3490090.4086   1   9   0.0003   0.0004   0.0002   0.0001  -0.0002  -0.0001   0.00    5.3
2020/01/11 01:33:44.979  -2319099.4679  -4799846.6160   3490090.4086   1   9   0.0003   0.0004   0.0002   0.0001  -0.0002  -0.0001   0.00    5.3
2020/01/11 01:33:59.979  -2319099.4679  -4799846.6159   3490090.4086   1   9   0.0003   0.0004   0.0002   0.0001  -0.0002  -0.0001   0.00    5.3
2020/01/11 01:34:14.979  -2319099.4679  -4799846.6159   3490090.4086   1   9   0.0003   0.0004   0.0002   0.0001  -0.0002  -0.0001   0.00    5.4
2020/01/11 01:34:29.979  -2319099.4679  -4799846.6158   3490090.4086   1   9   0.0003   0.0004   0.0002   0.0001  -0.0002  -0.0001   0.00    5.4
2020/01/11 01:34:44.979  -2319099.4679  -4799846.6158   3490090.4086   1   9   0.0003   0.0004   0.0002   0.0001  -0.0002  -0.0001   0.00    5.4
2020/01/11 01:34:59.979  -2319099.4679  -4799846.6157   3490090.4086   1   9   0.0003   0.0004   0.0002   0.0001  -0.0002  -0.0001   0.00    5.4
2020/01/11 01:35:14.979  -2319099.4679  -4799846.6157   3490090.4086   1   9   0.0003   0.0004   0.0002   0.0001  -0.0002  -0.0001   0.00    5.4
2020/01/11 01:35:29.979  -2319099.4679  -4799846.6156   3490090.4086   1   9   0.0003   0.0004   0.0002   0.0001  -0.0002  -0.0001   0.00    5.5
2020/01/11 01:35:44.979  -2319099.4679  -4799846.6156   3490090.4086   1   9   0.0003   0.0004   0.0002   0.0001  -0.0002  -0.0001   0.00    5.5
2020/01/11 01:35:59.979  -2319099.4679  -4799846.6155   3490090.4086   1   9   0.0003   0.0004   0.0002   0.0001  -0.0002  -0.0001   0.00    5.5
2020/01/11 01:36:14.979  -2319099.4679  -4799846.6155   3490090.4086   1   9   0.0003   0.0004   0.0002   0.0001  -0.0002  -0.0001   0.00    5.5
2020/01/11 01:36:29.979  -2319099.4679  -4799846.6154   3490090.4086   1   9   0.0003   0.0004   0.0002   0.0001  -0.0002  -0.0001   0.00    5.5
2020/01/11 01:36:44.979  -2319099.4679  -4799846.6154   3490090.4086   1   9   0.0003   0.0004   0.0002   0.0001  -0.0002  -0.0001   0.00    5.5
2020/01/11 01:36:59.979  -2319099.4679  -4799846.6153   3490090.4086   1   9   0.0003   0.0004   0.0002   0.0001  -0.0002  -0.0001   0.00    5.5
2020/01/11 01:37:14.979  -2319099.4679  -4799846.6153   3490090.4086   1   9   0.0003   0.0004   0.0002   0.0001  -0.0002  -0.0001   0.00    5.5
2020/01/11 01:37:29.979  -2319099.4679  -4799846.6153   3490090.4087   1   9   0.0003   0.0004   0.0002   0.0001  -0.0002  -0.0001   0.00    5.5
2020/01/11 01:37:44.979  -2319099.4679  -4799846.6152   3490090.4087   1   9   0.0003   0.0004   0.0002   0.0001  -0.0002  -0.0001   0.00    5.5
2020/01/11 01:37:59.979  -2319099.4679  -4799846.6152   3490090.4087   1   9   0.0003   0.0004   0.0002   0.0001  -0.0002  -0.0001   0.00    5.5
2020/01/11 01:38:14.979  -2319099.4679  -4799846.6152   3490090.4087   1   9   0.0003   0.0004   0.0002   0.0001  -0.0002  -0.0001   0.00    5.5
2020/01/11 01:38:29.979  -2319099.4679  -4799846.6152   3490090.4087   1   9   0.0003   0.0004   0.0002   0.0001  -0.0002  -0.0001   0.00    5.5
2020/01/11 01:38:44.979  -2319099.4679  -4799846.6151   3490090.4087   1   9   0.0003   0.0004   0.0002   0.0001  -0.0002  -0.0001   0.00    5.5
2020/01/11 01:38:59.979  -2319099.4679  -4799846.6151   3490090.4087   1   9   0.0003   0.0004   0.0002   0.0001  -0.0002  -0.0001   0.00    5.5
2020/01/11 01:39:14.979  -2319099.4679  -4799846.6150   3490090.4087   1   9   0.0003   0.0004   0.0002   0.0001  -0.0002  -0.0001   0.00    5.5
2020/01/11 01:39:29.979  -2319099.4679  -4799846.6150   3490090.4087   1   9   0.0003   0.0004   0.0002   0.0001  -0.0002  -0.0001   0.00    5.5
2020/01/11 01:39:44.979  -2319099.4679  -4799846.6150   3490090.4087   1   9   0.0003   0.0004   0.0002   0.0001  -0.0002  -0.0001   0.00    5.5
2020/01/11 01:39:59.979  -2319099.4679  -4799846.6149   3490090.4087   1   9   0.0003   0.0004   0.0002   0.0001  -0.0002  -0.0001   0.00    5.5
2020/01/11 01:40:14.979  -2319099.4679  -4799846.6149   3490090.4087   1   9   0.0003   0.0004   0.0002   0.0001  -0.0002  -0.0001   0.00    5.4
2020/01/11 01:40:29.979  -2319099.4679  -4799846.6149   3490090.4087   1   9   0.0003   0.0004   0.0002   0.0001  -0.0002  -0.0001   0.00    5.4
2020/01/11 01:40:44.979  -2319099.4679  -4799846.6148   3490090.4087   1   9   0.0003   0.0004   0.0002   0.0001  -0.0002  -0.0001   0.00    5.4
2020/01/11 01:40:59.979  -2319099.4679  -4799846.6148   3490090.4087   1   9   0.0003   0.0004   0.0002   0.0001  -0.0002  -0.0001   0.00    5.4
