% program   : RTKPOST ver.2.4.3 b34
% inp file  : C:\Users\Danisimo\Desktop\??????? ???????\ESCU\escu0010.17o
% inp file  : C:\Users\Danisimo\Desktop\??????? ???????\SHE2\she20010.17o
% inp file  : C:\Users\Danisimo\Desktop\??????? ???????\BRDC00IGS_R_20170010000_01D_MN.rnx
% inp file  : C:\Users\Danisimo\Desktop\??????? ???????\igs19300.sp3
% inp file  : C:\Users\Danisimo\Desktop\??????? ???????\igs19300.clk_30s
% obs start : 2017/01/01 00:00:00.0 GPST (week1930      0.0s)
% obs end   : 2017/01/01 23:59:30.0 GPST (week1930  86370.0s)
% pos mode  : Static
% freqs     : L1+2
% solution  : Forward
% elev mask : 15.0 deg
% dynamics  : off
% tidecorr  : off
% ionos opt : Broadcast
% tropo opt : Saastamoinen
% ephemeris : Precise
% navi sys  : GPS
% amb res   : Continuous
% val thres : 3.0
% antenna1  :                       ( 0.0000  0.0000  0.1000)
% antenna2  :                       ( 0.0000  0.0000  0.1000)
% ref pos   :  1899507.9077  -3991722.3591   4582242.8633
%
% (x/y/z-ecef=WGS84,Q=1:fix,2:float,3:sbas,4:dgps,5:single,6:ppp,ns=# of satellites)
%  GPST                      x-ecef(m)      y-ecef(m)      z-ecef(m)   Q  ns   sdx(m)   sdy(m)   sdz(m)  sdxy(m)  sdyz(m)  sdzx(m) age(s)  ratio
2017/01/01 00:00:00.000   1852954.3556  -3937498.2080   4647314.4550   2   8   0.5786   0.7698   0.7150  -0.5059  -0.5107   0.4037   0.00    1.1
2017/01/01 00:00:30.000   1852954.6384  -3937498.6605   4647314.7626   2   8   0.3934   0.5059   0.4655  -0.3254  -0.3279   0.2575   0.00    1.2
2017/01/01 00:01:00.000   1852954.5548  -3937498.6656   4647314.6097   2   8   0.3036   0.3716   0.3376  -0.2305  -0.2348   0.1811   0.00    1.2
2017/01/01 00:01:30.000   1852954.5718  -3937498.7136   4647314.6935   2   8   0.2479   0.2863   0.2569  -0.1689  -0.1769   0.1326   0.00    1.3
2017/01/01 00:02:00.000   1852954.4997  -3937498.7138   4647314.6921   2   8   0.2098   0.2278   0.2023  -0.1259  -0.1383   0.0997   0.00    1.6
2017/01/01 00:02:30.000   1852954.5218  -3937498.7071   4647314.7051   2   8   0.1819   0.1860   0.1637  -0.0949  -0.1116   0.0764   0.00    1.6
2017/01/01 00:03:00.000   1852954.5186  -3937498.7654   4647314.7122   2   8   0.1606   0.1551   0.1355  -0.0717  -0.0923   0.0594   0.00    1.5
2017/01/01 00:03:30.000   1852954.5071  -3937498.8204   4647314.7734   2   7   0.1446   0.1318   0.1156  -0.0541  -0.0783   0.0489   0.00    1.9
2017/01/01 00:04:00.000   1852954.5405  -3937498.9212   4647314.8254   2   7   0.1312   0.1137   0.0998  -0.0398  -0.0674   0.0402   0.00    1.9
2017/01/01 00:04:30.000   1852954.5309  -3937498.9573   4647314.8269   2   7   0.1198   0.0993   0.0872  -0.0279  -0.0588   0.0331   0.00    1.9
2017/01/01 00:05:00.000   1852954.5152  -3937498.9704   4647314.8913   2   7   0.1099   0.0877   0.0769  -0.0169  -0.0519   0.0272   0.00    1.9
2017/01/01 00:05:30.000   1852954.4964  -3937498.9741   4647314.8927   2   7   0.1014   0.0782   0.0684   0.0036  -0.0462   0.0223   0.00    2.0
2017/01/01 00:06:00.000   1852954.4672  -3937498.9508   4647314.8687   2   7   0.0938   0.0703   0.0613   0.0138  -0.0416   0.0182   0.00    2.2
2017/01/01 00:06:30.000   1852954.4372  -3937498.9004   4647314.8398   2   8   0.0869   0.0636   0.0554   0.0173  -0.0376   0.0146   0.00    1.2
2017/01/01 00:07:00.000   1852954.4253  -3937498.8653   4647314.8065   2   8   0.0809   0.0579   0.0503   0.0188  -0.0343   0.0114   0.00    1.5
2017/01/01 00:07:30.000   1852954.4166  -3937498.8265   4647314.7793   2   8   0.0755   0.0530   0.0460   0.0194  -0.0314   0.0086   0.00    1.8
2017/01/01 00:08:00.000   1852954.4259  -3937498.7881   4647314.7635   2   8   0.0712   0.0488   0.0428   0.0187  -0.0293   0.0099   0.00    1.4
2017/01/01 00:08:30.000   1852954.4279  -3937498.7630   4647314.7523   2   8   0.0673   0.0451   0.0399   0.0181  -0.0273   0.0104   0.00    1.8
2017/01/01 00:09:00.000   1852954.4369  -3937498.7438   4647314.7527   2   8   0.0638   0.0418   0.0373   0.0174  -0.0255   0.0105   0.00    2.2
2017/01/01 00:09:30.000   1852954.4447  -3937498.7322   4647314.7334   2   8   0.0605   0.0389   0.0349   0.0168  -0.0239   0.0103   0.00    2.6
2017/01/01 00:10:00.000   1852954.4384  -3937498.7319   4647314.7245   2   8   0.0574   0.0363   0.0328   0.0161  -0.0224   0.0101   0.00    2.9
2017/01/01 00:10:30.000   1852954.4363  -3937498.7973   4647314.7013   1   8   0.0013   0.0016   0.0020  -0.0011  -0.0012   0.0011   0.00    3.2
2017/01/01 00:11:00.000   1852954.4368  -3937498.7978   4647314.7021   1   8   0.0013   0.0016   0.0019  -0.0011  -0.0012   0.0011   0.00    3.5
2017/01/01 00:11:30.000   1852954.4377  -3937498.7987   4647314.7028   1   8   0.0013   0.0016   0.0018  -0.0010  -0.0011   0.0010   0.00    3.8
2017/01/01 00:12:00.000   1852954.4384  -3937498.7995   4647314.7035   1   8   0.0013   0.0015   0.0018  -0.0010  -0.0011   0.0010   0.00    3.9
2017/01/01 00:12:30.000   1852954.4389  -3937498.8001   4647314.7041   1   8   0.0012   0.0015   0.0017  -0.0010  -0.0011   0.0010   0.00    4.0
2017/01/01 00:13:00.000   1852954.4393  -3937498.8007   4647314.7047   1   8   0.0012   0.0015   0.0017  -0.0010  -0.0010   0.0010   0.00    4.1
2017/01/01 00:13:30.000   1852954.4395  -3937498.8010   4647314.7053   1   8   0.0012   0.0014   0.0017  -0.0009  -0.0010   0.0009   0.00    4.2
2017/01/01 00:14:00.000   1852954.4395  -3937498.8011   4647314.7058   1   8   0.0012   0.0014   0.0016  -0.0009  -0.0010   0.0009   0.00    4.2
2017/01/01 00:14:30.000   1852954.4394  -3937498.8011   4647314.7063   1   8   0.0011   0.0014   0.0016  -0.0009  -0.0010   0.0009   0.00    4.2
2017/01/01 00:15:00.000   1852954.4392  -3937498.8011   4647314.7068   1   8   0.0011   0.0014   0.0016  -0.0009  -0.0010   0.0009   0.00    4.3
2017/01/01 00:15:30.000   1852954.4388  -3937498.8008   4647314.7070   1   8   0.0011   0.0013   0.0015  -0.0009  -0.0009   0.0009   0.00    4.4
2017/01/01 00:16:00.000   1852954.4386  -3937498.8009   4647314.7095   1   7   0.0011   0.0013   0.0017  -0.0008  -0.0010   0.0009   0.00    4.3
2017/01/01 00:16:30.000   1852954.4384  -3937498.8007   4647314.7103   1   7   0.0011   0.0013   0.0016  -0.0008  -0.0009   0.0009   0.00    4.5
2017/01/01 00:17:00.000   1852954.4382  -3937498.8004   4647314.7111   1   7   0.0010   0.0013   0.0016  -0.0008  -0.0009   0.0008   0.00    4.8
2017/01/01 00:17:30.000   1852954.4381  -3937498.8000   4647314.7119   1   7   0.0010   0.0013   0.0016  -0.0008  -0.0009   0.0008   0.00    5.1
2017/01/01 00:18:00.000   1852954.4381  -3937498.7996   4647314.7124   1   7   0.0010   0.0013   0.0016  -0.0008  -0.0009   0.0008   0.00    5.5
2017/01/01 00:18:30.000   1852954.4380  -3937498.7993   4647314.7129   1   7   0.0010   0.0012   0.0016  -0.0008  -0.0009   0.0008   0.00    5.7
2017/01/01 00:19:00.000   1852954.4380  -3937498.7991   4647314.7135   1   7   0.0010   0.0012   0.0015  -0.0008  -0.0009   0.0008   0.00    5.8
2017/01/01 00:19:30.000   1852954.4380  -3937498.7989   4647314.7139   1   7   0.0010   0.0012   0.0015  -0.0008  -0.0009   0.0008   0.00    5.9
2017/01/01 00:20:00.000   1852954.4379  -3937498.7985   4647314.7142   1   7   0.0010   0.0012   0.0015  -0.0007  -0.0009   0.0008   0.00    6.0
2017/01/01 00:20:30.000   1852954.4378  -3937498.7982   4647314.7143   1   7   0.0010   0.0012   0.0015  -0.0007  -0.0008   0.0008   0.00    6.1
2017/01/01 00:21:00.000   1852954.4377  -3937498.7978   4647314.7144   1   7   0.0009   0.0012   0.0015  -0.0007  -0.0008   0.0008   0.00    6.0
2017/01/01 00:21:30.000   1852954.4375  -3937498.7974   4647314.7142   1   7   0.0009   0.0012   0.0014  -0.0007  -0.0008   0.0008   0.00    5.9
2017/01/01 00:22:00.000   1852954.4374  -3937498.7970   4647314.7141   1   7   0.0009   0.0011   0.0014  -0.0007  -0.0008   0.0007   0.00    5.8
2017/01/01 00:22:30.000   1852954.4373  -3937498.7965   4647314.7140   1   7   0.0009   0.0011   0.0014  -0.0007  -0.0008   0.0007   0.00    5.6
2017/01/01 00:23:00.000   1852954.4371  -3937498.7960   4647314.7137   1   7   0.0009   0.0011   0.0014  -0.0007  -0.0008   0.0007   0.00    5.4
2017/01/01 00:23:30.000   1852954.4369  -3937498.7955   4647314.7137   1   7   0.0009   0.0011   0.0014  -0.0007  -0.0008   0.0007   0.00    5.2
2017/01/01 00:24:00.000   1852954.4369  -3937498.7951   4647314.7137   1   7   0.0009   0.0011   0.0014  -0.0007  -0.0008   0.0007   0.00    5.0
2017/01/01 00:24:30.000   1852954.4370  -3937498.7948   4647314.7136   1   7   0.0009   0.0011   0.0013  -0.0007  -0.0008   0.0007   0.00    4.8
2017/01/01 00:25:00.000   1852954.4370  -3937498.7945   4647314.7134   1   7   0.0009   0.0011   0.0013  -0.0007  -0.0008   0.0007   0.00    4.7
2017/01/01 00:25:30.000   1852954.4371  -3937498.7942   4647314.7133   1   7   0.0009   0.0011   0.0013  -0.0007  -0.0008   0.0007   0.00    4.5
2017/01/01 00:26:00.000   1852954.4372  -3937498.7939   4647314.7131   1   7   0.0009   0.0011   0.0013  -0.0007  -0.0008   0.0007   0.00    4.4
2017/01/01 00:26:30.000   1852954.4375  -3937498.7937   4647314.7130   1   7   0.0009   0.0011   0.0013  -0.0006  -0.0008   0.0007   0.00    4.2
2017/01/01 00:27:00.000   1852954.4376  -3937498.7935   4647314.7128   1   7   0.0009   0.0011   0.0013  -0.0006  -0.0008   0.0007   0.00    4.1
2017/01/01 00:27:30.000   1852954.4377  -3937498.7931   4647314.7126   1   7   0.0008   0.0011   0.0013  -0.0006  -0.0007   0.0007   0.00    3.9
2017/01/01 00:28:00.000   1852954.4379  -3937498.7929   4647314.7124   1   7   0.0008   0.0010   0.0013  -0.0006  -0.0007   0.0007   0.00    3.8
2017/01/01 00:28:30.000   1852954.4382  -3937498.7927   4647314.7123   1   7   0.0008   0.0010   0.0013  -0.0006  -0.0007   0.0007   0.00    3.7
2017/01/01 00:29:00.000   1852954.4384  -3937498.7926   4647314.7121   1   7   0.0008   0.0010   0.0012  -0.0006  -0.0007   0.0007   0.00    3.7
2017/01/01 00:29:30.000   1852954.4386  -3937498.7925   4647314.7118   1   7   0.0008   0.0010   0.0012  -0.0006  -0.0007   0.0007   0.00    3.6
2017/01/01 00:30:00.000   1852954.4388  -3937498.7924   4647314.7116   1   7   0.0008   0.0010   0.0012  -0.0006  -0.0007   0.0007   0.00    3.6
2017/01/01 00:30:30.000   1852954.4389  -3937498.7921   4647314.7113   1   7   0.0008   0.0010   0.0012  -0.0006  -0.0007   0.0007   0.00    3.7
2017/01/01 00:31:00.000   1852954.4391  -3937498.7918   4647314.7110   1   7   0.0008   0.0010   0.0012  -0.0006  -0.0007   0.0007   0.00    3.7
2017/01/01 00:31:30.000   1852954.4392  -3937498.7915   4647314.7108   1   7   0.0008   0.0010   0.0012  -0.0006  -0.0007   0.0007   0.00    3.8
2017/01/01 00:32:00.000   1852954.4417  -3937498.8094   4647314.7138   1   6   0.0008   0.0014   0.0012  -0.0007  -0.0008   0.0007   0.00    4.0
2017/01/01 00:32:30.000   1852954.4417  -3937498.8092   4647314.7137   1   6   0.0008   0.0014   0.0012  -0.0007  -0.0008   0.0007   0.00    4.3
2017/01/01 00:33:00.000   1852954.4418  -3937498.8092   4647314.7135   1   6   0.0008   0.0014   0.0012  -0.0007  -0.0008   0.0007   0.00    4.5
2017/01/01 00:33:30.000   1852954.4418  -3937498.8091   4647314.7132   1   6   0.0008   0.0014   0.0012  -0.0007  -0.0008   0.0007   0.00    4.8
2017/01/01 00:34:00.000   1852954.4417  -3937498.8091   4647314.7130   1   6   0.0008   0.0014   0.0012  -0.0007  -0.0008   0.0007   0.00    5.1
2017/01/01 00:34:30.000   1852954.4416  -3937498.8089   4647314.7127   1   6   0.0008   0.0014   0.0012  -0.0007  -0.0008   0.0007   0.00    5.4
2017/01/01 00:35:00.000   1852954.4415  -3937498.8087   4647314.7125   1   6   0.0008   0.0014   0.0012  -0.0007  -0.0008   0.0007   0.00    5.7
2017/01/01 00:35:30.000   1852954.4414  -3937498.8083   4647314.7123   1   6   0.0008   0.0014   0.0012  -0.0007  -0.0008   0.0007   0.00    6.0
2017/01/01 00:36:00.000   1852954.4413  -3937498.8079   4647314.7119   1   6   0.0008   0.0013   0.0012  -0.0007  -0.0008   0.0006   0.00    6.3
2017/01/01 00:36:30.000   1852954.4411  -3937498.8075   4647314.7116   1   6   0.0008   0.0013   0.0012  -0.0007  -0.0008   0.0006   0.00    6.6
2017/01/01 00:37:00.000   1852954.4410  -3937498.8071   4647314.7112   1   6   0.0008   0.0013   0.0011  -0.0007  -0.0008   0.0006   0.00    6.8
2017/01/01 00:37:30.000   1852954.4409  -3937498.8068   4647314.7108   1   6   0.0008   0.0013   0.0011  -0.0006  -0.0008   0.0006   0.00    6.9
2017/01/01 00:38:00.000   1852954.4408  -3937498.8064   4647314.7104   1   6   0.0008   0.0013   0.0011  -0.0006  -0.0008   0.0006   0.00    7.1
2017/01/01 00:38:30.000   1852954.4407  -3937498.8060   4647314.7101   1   6   0.0008   0.0013   0.0011  -0.0006  -0.0008   0.0006   0.00    7.2
2017/01/01 00:39:00.000   1852954.4408  -3937498.8057   4647314.7099   1   6   0.0008   0.0013   0.0011  -0.0006  -0.0008   0.0006   0.00    7.3
2017/01/01 00:39:30.000   1852954.4409  -3937498.8057   4647314.7099   1   6   0.0008   0.0013   0.0011  -0.0006  -0.0008   0.0006   0.00    7.4
2017/01/01 00:40:00.000   1852954.4409  -3937498.8053   4647314.7097   1   6   0.0008   0.0013   0.0011  -0.0006  -0.0008   0.0006   0.00    7.5
2017/01/01 00:40:30.000   1852954.4408  -3937498.8049   4647314.7096   1   6   0.0008   0.0013   0.0011  -0.0006  -0.0008   0.0006   0.00    7.6
2017/01/01 00:41:00.000   1852954.4407  -3937498.8044   4647314.7095   1   6   0.0007   0.0013   0.0011  -0.0006  -0.0008   0.0006   0.00    7.8
2017/01/01 00:41:30.000   1852954.4406  -3937498.8039   4647314.7094   1   6   0.0007   0.0013   0.0011  -0.0006  -0.0008   0.0006   0.00    7.9
2017/01/01 00:42:00.000   1852954.4406  -3937498.8035   4647314.7094   1   6   0.0007   0.0013   0.0011  -0.0006  -0.0008   0.0006   0.00    8.1
2017/01/01 00:42:30.000   1852954.4406  -3937498.8031   4647314.7095   1   6   0.0007   0.0013   0.0011  -0.0006  -0.0008   0.0006   0.00    8.2
2017/01/01 00:43:00.000   1852954.4406  -3937498.8028   4647314.7096   1   6   0.0007   0.0013   0.0011  -0.0006  -0.0008   0.0006   0.00    8.4
2017/01/01 00:43:30.000   1852954.4406  -3937498.8028   4647314.7098   1   6   0.0007   0.0013   0.0011  -0.0006  -0.0008   0.0006   0.00    8.6
2017/01/01 00:44:00.000   1852954.4406  -3937498.8028   4647314.7101   1   6   0.0007   0.0013   0.0011  -0.0006  -0.0008   0.0006   0.00    8.8
2017/01/01 00:44:30.000   1852954.4408  -3937498.8030   4647314.7103   1   6   0.0007   0.0013   0.0011  -0.0006  -0.0008   0.0006   0.00    9.0
2017/01/01 00:45:00.000   1852954.4410  -3937498.8031   4647314.7105   1   6   0.0007   0.0013   0.0011  -0.0006  -0.0008   0.0006   0.00    9.1
2017/01/01 00:45:30.000   1852954.4412  -3937498.8035   4647314.7107   1   6   0.0007   0.0012   0.0011  -0.0006  -0.0008   0.0006   0.00    9.2
2017/01/01 00:46:00.000   1852954.4415  -3937498.8038   4647314.7109   1   6   0.0007   0.0012   0.0011  -0.0006  -0.0008   0.0006   0.00    9.3
2017/01/01 00:46:30.000   1852954.4418  -3937498.8040   4647314.7109   1   6   0.0007   0.0012   0.0011  -0.0006  -0.0008   0.0006   0.00    9.3
2017/01/01 00:47:00.000   1852954.4421  -3937498.8042   4647314.7108   1   6   0.0007   0.0012   0.0011  -0.0006  -0.0008   0.0006   0.00    9.1
2017/01/01 00:47:30.000   1852954.4425  -3937498.8043   4647314.7109   1   6   0.0007   0.0012   0.0011  -0.0006  -0.0008   0.0006   0.00    9.1
2017/01/01 00:48:00.000   1852954.4430  -3937498.8047   4647314.7109   1   6   0.0007   0.0012   0.0011  -0.0006  -0.0008   0.0006   0.00    8.9
2017/01/01 00:48:30.000   1852954.4435  -3937498.8051   4647314.7110   1   6   0.0007   0.0012   0.0011  -0.0006  -0.0008   0.0006   0.00    8.6
2017/01/01 00:49:00.000   1852954.4440  -3937498.8054   4647314.7111   1   6   0.0007   0.0012   0.0011  -0.0006  -0.0008   0.0006   0.00    8.3
2017/01/01 00:49:30.000   1852954.4445  -3937498.8057   4647314.7112   1   6   0.0007   0.0012   0.0011  -0.0006  -0.0008   0.0006   0.00    8.1
2017/01/01 00:50:00.000   1852954.4450  -3937498.8061   4647314.7115   1   6   0.0007   0.0012   0.0011  -0.0006  -0.0008   0.0006   0.00    7.8
2017/01/01 00:50:30.000   1852954.4455  -3937498.8065   4647314.7119   1   6   0.0007   0.0012   0.0011  -0.0006  -0.0008   0.0006   0.00    7.6
2017/01/01 00:51:00.000   1852954.4459  -3937498.8069   4647314.7122   1   6   0.0007   0.0012   0.0011  -0.0006  -0.0008   0.0006   0.00    7.4
2017/01/01 00:51:30.000   1852954.4463  -3937498.8072   4647314.7126   1   6   0.0007   0.0012   0.0011  -0.0006  -0.0008   0.0006   0.00    7.2
2017/01/01 00:52:00.000   1852954.4467  -3937498.8074   4647314.7129   1   6   0.0007   0.0012   0.0011  -0.0006  -0.0008   0.0006   0.00    6.9
2017/01/01 00:52:30.000   1852954.4471  -3937498.8077   4647314.7134   1   6   0.0007   0.0012   0.0011  -0.0006  -0.0008   0.0006   0.00    6.8
2017/01/01 00:53:00.000   1852954.4474  -3937498.8078   4647314.7137   1   6   0.0007   0.0012   0.0011  -0.0006  -0.0008   0.0006   0.00    6.6
2017/01/01 00:53:30.000   1852954.4476  -3937498.8079   4647314.7141   1   6   0.0007   0.0012   0.0011  -0.0006  -0.0008   0.0006   0.00    6.5
2017/01/01 00:54:00.000   1852954.4479  -3937498.8081   4647314.7146   1   6   0.0007   0.0012   0.0011  -0.0006  -0.0008   0.0006   0.00    6.4
2017/01/01 00:54:30.000   1852954.4481  -3937498.8082   4647314.7150   1   6   0.0007   0.0012   0.0010  -0.0006  -0.0008   0.0006   0.00    6.3
2017/01/01 00:55:00.000   1852954.4483  -3937498.8081   4647314.7154   1   6   0.0007   0.0012   0.0010  -0.0006  -0.0008   0.0006   0.00    6.2
2017/01/01 00:55:30.000   1852954.4485  -3937498.8083   4647314.7159   1   6   0.0007   0.0012   0.0010  -0.0006  -0.0008   0.0006   0.00    6.1
2017/01/01 00:56:00.000   1852954.4487  -3937498.8084   4647314.7163   1   6   0.0007   0.0012   0.0010  -0.0006  -0.0008   0.0006   0.00    6.1
2017/01/01 00:56:30.000   1852954.4488  -3937498.8083   4647314.7167   1   6   0.0007   0.0012   0.0010  -0.0006  -0.0008   0.0006   0.00    6.0
2017/01/01 00:57:00.000   1852954.4490  -3937498.8084   4647314.7172   1   6   0.0007   0.0012   0.0010  -0.0006  -0.0008   0.0006   0.00    6.0
2017/01/01 00:57:30.000   1852954.4490  -3937498.8084   4647314.7174   1   6   0.0007   0.0012   0.0010  -0.0006  -0.0008   0.0006   0.00    6.0
2017/01/01 00:58:00.000   1852954.1970  -3937498.7369   4647314.6630   2   7   0.0122   0.0032   0.0031  -0.0034  -0.0021   0.0027   0.00    1.0
2017/01/01 00:58:30.000   1852954.2010  -3937498.7377   4647314.6642   2   7   0.0121   0.0032   0.0031  -0.0034  -0.0021   0.0026   0.00    1.0
2017/01/01 00:59:00.000   1852954.2049  -3937498.7385   4647314.6653   2   7   0.0120   0.0031   0.0030  -0.0034  -0.0020   0.0026   0.00    1.0
2017/01/01 00:59:30.000   1852954.2077  -3937498.7392   4647314.6662   2   7   0.0119   0.0031   0.0030  -0.0034  -0.0020   0.0026   0.00    1.0
2017/01/01 01:00:00.000   1852954.2098  -3937498.7400   4647314.6674   2   7   0.0118   0.0031   0.0030  -0.0034  -0.0020   0.0026   0.00    1.1
2017/01/01 01:00:30.000   1852954.2102  -3937498.7407   4647314.6683   2   7   0.0118   0.0031   0.0029  -0.0034  -0.0020   0.0026   0.00    1.1
2017/01/01 01:01:00.000   1852954.2121  -3937498.7415   4647314.6693   2   7   0.0117   0.0030   0.0029  -0.0034  -0.0020   0.0026   0.00    1.1
2017/01/01 01:01:30.000   1852954.2143  -3937498.7421   4647314.6706   2   7   0.0116   0.0030   0.0029  -0.0034  -0.0020   0.0026   0.00    1.1
2017/01/01 01:02:00.000   1852954.2175  -3937498.7427   4647314.6719   2   7   0.0115   0.0030   0.0028  -0.0034  -0.0019   0.0026   0.00    1.1
2017/01/01 01:02:30.000   1852954.2210  -3937498.7433   4647314.6730   2   7   0.0115   0.0030   0.0028  -0.0035  -0.0019   0.0026   0.00    1.1
2017/01/01 01:03:00.000   1852954.2245  -3937498.7435   4647314.6739   2   7   0.0114   0.0029   0.0028  -0.0035  -0.0019   0.0025   0.00    1.1
2017/01/01 01:03:30.000   1852954.2281  -3937498.7439   4647314.6747   2   7   0.0113   0.0029   0.0028  -0.0035  -0.0019   0.0025   0.00    1.2
2017/01/01 01:04:00.000   1852954.2328  -3937498.7448   4647314.6759   2   7   0.0112   0.0029   0.0027  -0.0035  -0.0019   0.0025   0.00    1.2
2017/01/01 01:04:30.000   1852954.2379  -3937498.7455   4647314.6770   2   7   0.0111   0.0029   0.0027  -0.0035  -0.0019   0.0025   0.00    1.2
2017/01/01 01:05:00.000   1852954.2436  -3937498.7461   4647314.6780   2   7   0.0111   0.0028   0.0027  -0.0035  -0.0018   0.0025   0.00    1.2
2017/01/01 01:05:30.000   1852954.2478  -3937498.7464   4647314.6785   2   7   0.0110   0.0028   0.0027  -0.0034  -0.0018   0.0025   0.00    1.2
2017/01/01 01:06:00.000   1852954.2527  -3937498.7468   4647314.6792   2   7   0.0109   0.0028   0.0026  -0.0034  -0.0018   0.0025   0.00    1.3
2017/01/01 01:06:30.000   1852954.2571  -3937498.7473   4647314.6800   2   7   0.0108   0.0028   0.0026  -0.0034  -0.0018   0.0025   0.00    1.2
2017/01/01 01:07:00.000   1852954.2620  -3937498.7480   4647314.6811   2   7   0.0107   0.0028   0.0026  -0.0034  -0.0018   0.0025   0.00    1.1
2017/01/01 01:07:30.000   1852954.2661  -3937498.7485   4647314.6820   2   7   0.0107   0.0028   0.0026  -0.0034  -0.0018   0.0024   0.00    1.1
2017/01/01 01:08:00.000   1852954.2691  -3937498.7490   4647314.6828   2   7   0.0106   0.0027   0.0025  -0.0034  -0.0018   0.0024   0.00    1.0
2017/01/01 01:08:30.000   1852954.2713  -3937498.7493   4647314.6836   2   7   0.0105   0.0027   0.0025  -0.0034  -0.0017   0.0024   0.00    1.1
2017/01/01 01:09:00.000   1852954.2732  -3937498.7499   4647314.6845   2   7   0.0104   0.0027   0.0025  -0.0034  -0.0017   0.0024   0.00    1.2
2017/01/01 01:09:30.000   1852954.2728  -3937498.7501   4647314.6855   2   7   0.0103   0.0027   0.0025  -0.0034  -0.0017   0.0024   0.00    1.3
2017/01/01 01:10:00.000   1852954.2729  -3937498.7502   4647314.6862   2   7   0.0103   0.0027   0.0025  -0.0034  -0.0017   0.0024   0.00    1.5
2017/01/01 01:10:30.000   1852954.2724  -3937498.7504   4647314.6869   2   7   0.0102   0.0027   0.0024  -0.0034  -0.0017   0.0024   0.00    1.6
2017/01/01 01:11:00.000   1852954.2705  -3937498.7506   4647314.6876   2   8   0.0101   0.0026   0.0024  -0.0034  -0.0017   0.0024   0.00    1.0
2017/01/01 01:11:30.000   1852954.2677  -3937498.7510   4647314.6884   2   8   0.0100   0.0026   0.0024  -0.0034  -0.0017   0.0024   0.00    1.0
2017/01/01 01:12:00.000   1852954.2665  -3937498.7514   4647314.6894   2   8   0.0099   0.0026   0.0024  -0.0034  -0.0017   0.0023   0.00    1.1
2017/01/01 01:12:30.000   1852954.2640  -3937498.7520   4647314.6903   2   8   0.0099   0.0026   0.0024  -0.0034  -0.0017   0.0023   0.00    1.1
2017/01/01 01:13:00.000   1852954.2603  -3937498.7522   4647314.6912   2   8   0.0098   0.0026   0.0023  -0.0034  -0.0016   0.0023   0.00    1.2
2017/01/01 01:13:30.000   1852954.2561  -3937498.7525   4647314.6918   2   8   0.0097   0.0026   0.0023  -0.0033  -0.0016   0.0023   0.00    1.2
2017/01/01 01:14:00.000   1852954.2522  -3937498.7527   4647314.6924   2   8   0.0096   0.0025   0.0023  -0.0033  -0.0016   0.0023   0.00    1.3
2017/01/01 01:14:30.000   1852954.2478  -3937498.7531   4647314.6930   2   8   0.0096   0.0025   0.0023  -0.0033  -0.0016   0.0023   0.00    1.4
2017/01/01 01:15:00.000   1852954.2437  -3937498.7536   4647314.6936   2   8   0.0095   0.0025   0.0023  -0.0033  -0.0016   0.0023   0.00    1.5
2017/01/01 01:15:30.000   1852954.2402  -3937498.7540   4647314.6942   2   8   0.0094   0.0025   0.0023  -0.0033  -0.0016   0.0023   0.00    1.6
2017/01/01 01:16:00.000   1852954.2371  -3937498.7547   4647314.6949   2   8   0.0093   0.0025   0.0022  -0.0033  -0.0016   0.0023   0.00    1.6
2017/01/01 01:16:30.000   1852954.2343  -3937498.7553   4647314.6955   2   8   0.0092   0.0025   0.0022  -0.0033  -0.0016   0.0023   0.00    1.7
2017/01/01 01:17:00.000   1852954.2329  -3937498.7561   4647314.6960   2   8   0.0092   0.0025   0.0022  -0.0033  -0.0016   0.0022   0.00    1.8
2017/01/01 01:17:30.000   1852954.2317  -3937498.7568   4647314.6965   2   8   0.0091   0.0025   0.0022  -0.0032  -0.0016   0.0022   0.00    1.9
2017/01/01 01:18:00.000   1852954.2304  -3937498.7576   4647314.6970   2   8   0.0090   0.0024   0.0022  -0.0032  -0.0015   0.0022   0.00    2.0
2017/01/01 01:18:30.000   1852954.2303  -3937498.7584   4647314.6974   2   8   0.0089   0.0024   0.0022  -0.0032  -0.0015   0.0022   0.00    2.1
2017/01/01 01:19:00.000   1852954.2303  -3937498.7590   4647314.6977   2   8   0.0089   0.0024   0.0021  -0.0032  -0.0015   0.0022   0.00    2.2
2017/01/01 01:19:30.000   1852954.2300  -3937498.7597   4647314.6980   2   8   0.0088   0.0024   0.0021  -0.0032  -0.0015   0.0022   0.00    2.4
2017/01/01 01:20:00.000   1852954.2298  -3937498.7601   4647314.6982   2   8   0.0087   0.0024   0.0021  -0.0032  -0.0015   0.0022   0.00    2.5
2017/01/01 01:20:30.000   1852954.2297  -3937498.7606   4647314.6984   2   8   0.0086   0.0024   0.0021  -0.0032  -0.0015   0.0022   0.00    2.6
2017/01/01 01:21:00.000   1852954.2295  -3937498.7610   4647314.6984   2   8   0.0086   0.0024   0.0021  -0.0032  -0.0015   0.0022   0.00    2.7
2017/01/01 01:21:30.000   1852954.2287  -3937498.7614   4647314.6984   2   9   0.0085   0.0024   0.0021  -0.0031  -0.0015   0.0022   0.00    1.1
2017/01/01 01:22:00.000   1852954.2274  -3937498.7618   4647314.6982   2   9   0.0084   0.0023   0.0021  -0.0031  -0.0015   0.0022   0.00    1.1
2017/01/01 01:22:30.000   1852954.2263  -3937498.7621   4647314.6980   2   9   0.0084   0.0023   0.0020  -0.0031  -0.0015   0.0021   0.00    1.2
2017/01/01 01:23:00.000   1852954.2260  -3937498.7622   4647314.6977   2   9   0.0083   0.0023   0.0020  -0.0031  -0.0015   0.0021   0.00    1.3
2017/01/01 01:23:30.000   1852954.2260  -3937498.7623   4647314.6974   2   9   0.0082   0.0023   0.0020  -0.0031  -0.0015   0.0021   0.00    1.4
2017/01/01 01:24:00.000   1852954.2264  -3937498.7623   4647314.6972   2   9   0.0081   0.0023   0.0020  -0.0031  -0.0015   0.0021   0.00    1.5
2017/01/01 01:24:30.000   1852954.2277  -3937498.7625   4647314.6973   2   8   0.0081   0.0023   0.0020  -0.0031  -0.0015   0.0021   0.00    1.6
2017/01/01 01:25:00.000   1852954.2291  -3937498.7626   4647314.6973   2   8   0.0080   0.0023   0.0020  -0.0031  -0.0015   0.0021   0.00    1.7
2017/01/01 01:25:30.000   1852954.2299  -3937498.7626   4647314.6972   2   8   0.0080   0.0023   0.0020  -0.0031  -0.0014   0.0021   0.00    1.8
2017/01/01 01:26:00.000   1852954.2320  -3937498.7627   4647314.6969   2   8   0.0080   0.0023   0.0020  -0.0031  -0.0014   0.0022   0.00    1.9
2017/01/01 01:26:30.000   1852954.2335  -3937498.7626   4647314.6968   2   8   0.0079   0.0023   0.0020  -0.0031  -0.0014   0.0022   0.00    1.9
2017/01/01 01:27:00.000   1852954.2347  -3937498.7624   4647314.6967   2   8   0.0079   0.0023   0.0020  -0.0030  -0.0014   0.0022   0.00    2.0
2017/01/01 01:27:30.000   1852954.2356  -3937498.7623   4647314.6966   2   8   0.0078   0.0022   0.0020  -0.0030  -0.0014   0.0022   0.00    2.1
2017/01/01 01:28:00.000   1852954.2365  -3937498.7622   4647314.6967   2   8   0.0078   0.0022   0.0019  -0.0030  -0.0014   0.0022   0.00    2.2
2017/01/01 01:28:30.000   1852954.2377  -3937498.7621   4647314.6966   2   8   0.0077   0.0022   0.0019  -0.0030  -0.0014   0.0022   0.00    2.3
2017/01/01 01:29:00.000   1852954.2389  -3937498.7621   4647314.6966   2   8   0.0077   0.0022   0.0019  -0.0030  -0.0014   0.0022   0.00    2.4
2017/01/01 01:29:30.000   1852954.2398  -3937498.7621   4647314.6965   2   8   0.0076   0.0022   0.0019  -0.0030  -0.0014   0.0022   0.00    2.5
2017/01/01 01:30:00.000   1852954.2405  -3937498.7619   4647314.6965   2   8   0.0076   0.0022   0.0019  -0.0030  -0.0014   0.0022   0.00    2.5
2017/01/01 01:30:30.000   1852954.2422  -3937498.7618   4647314.6966   2   8   0.0075   0.0022   0.0019  -0.0030  -0.0014   0.0022   0.00    2.6
2017/01/01 01:31:00.000   1852954.2430  -3937498.7616   4647314.6967   2   8   0.0075   0.0022   0.0019  -0.0030  -0.0014   0.0022   0.00    2.7
2017/01/01 01:31:30.000   1852954.2439  -3937498.7614   4647314.6967   2   8   0.0074   0.0022   0.0019  -0.0030  -0.0014   0.0022   0.00    2.8
2017/01/01 01:32:00.000   1852954.2452  -3937498.7611   4647314.6967   2   8   0.0074   0.0022   0.0019  -0.0030  -0.0014   0.0022   0.00    2.9
2017/01/01 01:32:30.000   1852954.4508  -3937498.8208   4647314.7177   1   8   0.0007   0.0009   0.0010  -0.0005  -0.0008   0.0004   0.00    3.1
2017/01/01 01:33:00.000   1852954.4510  -3937498.8207   4647314.7173   1   8   0.0007   0.0009   0.0010  -0.0005  -0.0008   0.0004   0.00    3.2
2017/01/01 01:33:30.000   1852954.4512  -3937498.8205   4647314.7169   1   8   0.0007   0.0009   0.0010  -0.0005  -0.0008   0.0004   0.00    3.3
2017/01/01 01:34:00.000   1852954.4514  -3937498.8202   4647314.7164   1   8   0.0006   0.0009   0.0010  -0.0005  -0.0007   0.0004   0.00    3.3
2017/01/01 01:34:30.000   1852954.4515  -3937498.8199   4647314.7158   1   8   0.0006   0.0009   0.0010  -0.0005  -0.0007   0.0004   0.00    3.4
2017/01/01 01:35:00.000   1852954.4515  -3937498.8195   4647314.7153   1   8   0.0006   0.0009   0.0010  -0.0005  -0.0007   0.0004   0.00    3.4
2017/01/01 01:35:30.000   1852954.4517  -3937498.8192   4647314.7149   1   8   0.0006   0.0009   0.0010  -0.0005  -0.0007   0.0004   0.00    3.4
2017/01/01 01:36:00.000   1852954.4518  -3937498.8189   4647314.7146   1   8   0.0006   0.0009   0.0010  -0.0005  -0.0007   0.0004   0.00    3.5
2017/01/01 01:36:30.000   1852954.4519  -3937498.8185   4647314.7143   1   8   0.0006   0.0009   0.0010  -0.0005  -0.0007   0.0004   0.00    3.5
2017/01/01 01:37:00.000   1852954.4520  -3937498.8179   4647314.7141   1   8   0.0006   0.0009   0.0010  -0.0005  -0.0007   0.0004   0.00    3.5
2017/01/01 01:37:30.000   1852954.4521  -3937498.8172   4647314.7138   1   8   0.0006   0.0009   0.0010  -0.0005  -0.0007   0.0004   0.00    3.6
2017/01/01 01:38:00.000   1852954.4521  -3937498.8166   4647314.7135   1   8   0.0006   0.0009   0.0010  -0.0005  -0.0007   0.0004   0.00    3.6
2017/01/01 01:38:30.000   1852954.4520  -3937498.8158   4647314.7131   1   8   0.0006   0.0009   0.0010  -0.0005  -0.0007   0.0004   0.00    3.6
2017/01/01 01:39:00.000   1852954.4519  -3937498.8151   4647314.7128   1   8   0.0006   0.0009   0.0010  -0.0005  -0.0007   0.0004   0.00    3.6
2017/01/01 01:39:30.000   1852954.4519  -3937498.8144   4647314.7125   1   8   0.0006   0.0009   0.0010  -0.0005  -0.0007   0.0004   0.00    3.6
2017/01/01 01:40:00.000   1852954.4517  -3937498.8136   4647314.7121   1   8   0.0006   0.0009   0.0010  -0.0005  -0.0007   0.0004   0.00    3.6
2017/01/01 01:40:30.000   1852954.4516  -3937498.8129   4647314.7118   1   8   0.0006   0.0009   0.0010  -0.0005  -0.0007   0.0004   0.00    3.6
2017/01/01 01:41:00.000   1852954.4514  -3937498.8121   4647314.7116   1   8   0.0006   0.0009   0.0010  -0.0005  -0.0007   0.0004   0.00    3.7
2017/01/01 01:41:30.000   1852954.4513  -3937498.8114   4647314.7114   1   8   0.0006   0.0009   0.0010  -0.0005  -0.0007   0.0004   0.00    3.7
2017/01/01 01:42:00.000   1852954.4511  -3937498.8107   4647314.7111   1   8   0.0006   0.0009   0.0010  -0.0005  -0.0007   0.0004   0.00    3.7
2017/01/01 01:42:30.000   1852954.4510  -3937498.8102   4647314.7110   1   8   0.0006   0.0009   0.0009  -0.0005  -0.0007   0.0004   0.00    3.7
2017/01/01 01:43:00.000   1852954.4509  -3937498.8098   4647314.7108   1   8   0.0006   0.0009   0.0009  -0.0005  -0.0007   0.0004   0.00    3.6
2017/01/01 01:43:30.000   1852954.4508  -3937498.8095   4647314.7105   1   8   0.0006   0.0009   0.0009  -0.0005  -0.0007   0.0004   0.00    3.6
2017/01/01 01:44:00.000   1852954.4506  -3937498.8092   4647314.7102   1   8   0.0006   0.0009   0.0009  -0.0005  -0.0007   0.0004   0.00    3.6
2017/01/01 01:44:30.000   1852954.4504  -3937498.8088   4647314.7099   1   8   0.0006   0.0009   0.0009  -0.0005  -0.0007   0.0004   0.00    3.6
2017/01/01 01:45:00.000   1852954.4500  -3937498.8086   4647314.7096   1   8   0.0006   0.0009   0.0009  -0.0005  -0.0007   0.0004   0.00    3.6
2017/01/01 01:45:30.000   1852954.4497  -3937498.8083   4647314.7094   1   8   0.0006   0.0009   0.0009  -0.0005  -0.0007   0.0004   0.00    3.5
2017/01/01 01:46:00.000   1852954.4494  -3937498.8082   4647314.7093   1   8   0.0006   0.0009   0.0009  -0.0005  -0.0007   0.0004   0.00    3.5
2017/01/01 01:46:30.000   1852954.4491  -3937498.8080   4647314.7091   1   8   0.0006   0.0009   0.0009  -0.0005  -0.0007   0.0004   0.00    3.5
2017/01/01 01:47:00.000   1852954.4487  -3937498.8077   4647314.7091   1   8   0.0006   0.0009   0.0009  -0.0005  -0.0007   0.0004   0.00    3.5
2017/01/01 01:47:30.000   1852954.4482  -3937498.8075   4647314.7091   1   8   0.0006   0.0008   0.0009  -0.0005  -0.0007   0.0004   0.00    3.4
2017/01/01 01:48:00.000   1852954.4479  -3937498.8072   4647314.7090   1   8   0.0006   0.0008   0.0009  -0.0005  -0.0007   0.0004   0.00    3.4
2017/01/01 01:48:30.000   1852954.4476  -3937498.8070   4647314.7089   1   8   0.0006   0.0008   0.0009  -0.0005  -0.0007   0.0004   0.00    3.4
2017/01/01 01:49:00.000   1852954.4473  -3937498.8067   4647314.7088   1   8   0.0006   0.0008   0.0009  -0.0005  -0.0007   0.0004   0.00    3.3
2017/01/01 01:49:30.000   1852954.4470  -3937498.8065   4647314.7087   1   8   0.0006   0.0008   0.0009  -0.0005  -0.0007   0.0004   0.00    3.3
2017/01/01 01:50:00.000   1852954.4467  -3937498.8064   4647314.7086   1   8   0.0006   0.0008   0.0009  -0.0005  -0.0007   0.0004   0.00    3.3
2017/01/01 01:50:30.000   1852954.4465  -3937498.8063   4647314.7086   1   8   0.0006   0.0008   0.0009  -0.0005  -0.0007   0.0004   0.00    3.2
2017/01/01 01:51:00.000   1852954.4462  -3937498.8061   4647314.7086   1   8   0.0006   0.0008   0.0009  -0.0004  -0.0007   0.0004   0.00    3.2
2017/01/01 01:51:30.000   1852954.4458  -3937498.8059   4647314.7086   1   8   0.0006   0.0008   0.0009  -0.0004  -0.0007   0.0004   0.00    3.2
2017/01/01 01:52:00.000   1852954.4455  -3937498.8057   4647314.7087   1   8   0.0006   0.0008   0.0009  -0.0004  -0.0007   0.0004   0.00    3.2
2017/01/01 01:52:30.000   1852954.4452  -3937498.8055   4647314.7087   1   8   0.0006   0.0008   0.0009  -0.0004  -0.0007   0.0004   0.00    3.2
2017/01/01 01:53:00.000   1852954.4449  -3937498.8055   4647314.7088   1   8   0.0006   0.0008   0.0009  -0.0004  -0.0007   0.0004   0.00    3.1
2017/01/01 01:53:30.000   1852954.4446  -3937498.8053   4647314.7088   1   8   0.0006   0.0008   0.0009  -0.0004  -0.0007   0.0004   0.00    3.1
2017/01/01 01:54:00.000   1852954.4444  -3937498.8051   4647314.7089   1   8   0.0006   0.0008   0.0009  -0.0004  -0.0007   0.0004   0.00    3.0
2017/01/01 01:54:30.000   1852954.2780  -3937498.7641   4647314.7090   2   8   0.0053   0.0019   0.0016  -0.0024  -0.0013   0.0020   0.00    3.0
2017/01/01 01:55:00.000   1852954.2765  -3937498.7642   4647314.7092   2   8   0.0053   0.0019   0.0016  -0.0024  -0.0013   0.0020   0.00    3.0
2017/01/01 01:55:30.000   1852954.2747  -3937498.7642   4647314.7093   2   8   0.0053   0.0018   0.0016  -0.0024  -0.0013   0.0020   0.00    2.9
2017/01/01 01:56:00.000   1852954.2732  -3937498.7642   4647314.7094   2   8   0.0052   0.0018   0.0016  -0.0024  -0.0013   0.0019   0.00    2.9
2017/01/01 01:56:30.000   1852954.2719  -3937498.7643   4647314.7095   2   8   0.0052   0.0018   0.0016  -0.0024  -0.0012   0.0019   0.00    2.9
2017/01/01 01:57:00.000   1852954.2711  -3937498.7643   4647314.7098   2   8   0.0051   0.0018   0.0016  -0.0023  -0.0012   0.0019   0.00    2.8
2017/01/01 01:57:30.000   1852954.2704  -3937498.7644   4647314.7100   2   8   0.0051   0.0018   0.0016  -0.0023  -0.0012   0.0019   0.00    2.8
2017/01/01 01:58:00.000   1852954.2697  -3937498.7646   4647314.7101   2   8   0.0051   0.0018   0.0015  -0.0023  -0.0012   0.0019   0.00    2.8
2017/01/01 01:58:30.000   1852954.2693  -3937498.7647   4647314.7102   2   8   0.0050   0.0018   0.0015  -0.0023  -0.0012   0.0019   0.00    2.8
2017/01/01 01:59:00.000   1852954.2695  -3937498.7649   4647314.7103   2   8   0.0050   0.0018   0.0015  -0.0023  -0.0012   0.0019   0.00    2.8
2017/01/01 01:59:30.000   1852954.2703  -3937498.7653   4647314.7104   2   8   0.0049   0.0018   0.0015  -0.0023  -0.0012   0.0019   0.00    2.8
2017/01/01 02:00:00.000   1852954.2705  -3937498.7656   4647314.7105   2   8   0.0049   0.0018   0.0015  -0.0023  -0.0012   0.0019   0.00    2.8
2017/01/01 02:00:30.000   1852954.2709  -3937498.7657   4647314.7105   2   8   0.0049   0.0018   0.0015  -0.0022  -0.0012   0.0019   0.00    2.8
2017/01/01 02:01:00.000   1852954.2710  -3937498.7660   4647314.7104   2   8   0.0048   0.0018   0.0015  -0.0022  -0.0012   0.0018   0.00    2.8
2017/01/01 02:01:30.000   1852954.2714  -3937498.7662   4647314.7103   2   8   0.0048   0.0018   0.0015  -0.0022  -0.0012   0.0018   0.00    2.8
2017/01/01 02:02:00.000   1852954.2713  -3937498.7661   4647314.7099   2   8   0.0047   0.0018   0.0015  -0.0022  -0.0012   0.0018   0.00    2.8
2017/01/01 02:02:30.000   1852954.2717  -3937498.7660   4647314.7096   2   8   0.0047   0.0017   0.0015  -0.0022  -0.0012   0.0018   0.00    2.8
2017/01/01 02:03:00.000   1852954.2719  -3937498.7656   4647314.7092   2   8   0.0047   0.0017   0.0015  -0.0022  -0.0012   0.0018   0.00    2.8
2017/01/01 02:03:30.000   1852954.2731  -3937498.7656   4647314.7089   2   8   0.0046   0.0017   0.0015  -0.0021  -0.0012   0.0018   0.00    2.9
2017/01/01 02:04:00.000   1852954.2743  -3937498.7656   4647314.7086   2   8   0.0046   0.0017   0.0015  -0.0021  -0.0012   0.0018   0.00    2.9
2017/01/01 02:04:30.000   1852954.2754  -3937498.7656   4647314.7082   2   8   0.0046   0.0017   0.0015  -0.0021  -0.0012   0.0018   0.00    2.9
2017/01/01 02:05:00.000   1852954.2765  -3937498.7657   4647314.7080   2   8   0.0045   0.0017   0.0015  -0.0021  -0.0012   0.0018   0.00    2.9
2017/01/01 02:05:30.000   1852954.2781  -3937498.7658   4647314.7078   2   8   0.0045   0.0017   0.0014  -0.0021  -0.0012   0.0017   0.00    2.9
2017/01/01 02:06:00.000   1852954.2796  -3937498.7659   4647314.7076   2   8   0.0045   0.0017   0.0014  -0.0021  -0.0011   0.0017   0.00    2.9
2017/01/01 02:06:30.000   1852954.2810  -3937498.7660   4647314.7075   2   8   0.0044   0.0017   0.0014  -0.0021  -0.0011   0.0017   0.00    2.9
2017/01/01 02:07:00.000   1852954.2825  -3937498.7661   4647314.7071   2   8   0.0044   0.0017   0.0014  -0.0020  -0.0011   0.0017   0.00    2.9
2017/01/01 02:07:30.000   1852954.2843  -3937498.7663   4647314.7069   2   8   0.0044   0.0017   0.0014  -0.0020  -0.0011   0.0017   0.00    2.9
2017/01/01 02:08:00.000   1852954.2861  -3937498.7666   4647314.7067   2   8   0.0043   0.0017   0.0014  -0.0020  -0.0011   0.0017   0.00    3.0
2017/01/01 02:08:30.000   1852954.2872  -3937498.7665   4647314.7063   2   8   0.0043   0.0017   0.0014  -0.0020  -0.0011   0.0017   0.00    3.0
2017/01/01 02:09:00.000   1852954.2886  -3937498.7666   4647314.7060   2   8   0.0043   0.0017   0.0014  -0.0020  -0.0011   0.0017   0.00    3.0
2017/01/01 02:09:30.000   1852954.4377  -3937498.7974   4647314.7165   1   8   0.0006   0.0008   0.0009  -0.0004  -0.0007   0.0003   0.00    3.0
2017/01/01 02:10:00.000   1852954.4377  -3937498.7970   4647314.7166   1   8   0.0006   0.0008   0.0009  -0.0004  -0.0007   0.0003   0.00    3.1
2017/01/01 02:10:30.000   1852954.4376  -3937498.7966   4647314.7169   1   8   0.0006   0.0008   0.0009  -0.0004  -0.0007   0.0003   0.00    3.1
2017/01/01 02:11:00.000   1852954.4376  -3937498.7964   4647314.7172   1   8   0.0006   0.0008   0.0009  -0.0004  -0.0007   0.0003   0.00    3.1
2017/01/01 02:11:30.000   1852954.4376  -3937498.7961   4647314.7175   1   8   0.0006   0.0008   0.0009  -0.0004  -0.0007   0.0003   0.00    3.1
2017/01/01 02:12:00.000   1852954.4376  -3937498.7960   4647314.7179   1   8   0.0006   0.0008   0.0009  -0.0004  -0.0007   0.0003   0.00    3.1
2017/01/01 02:12:30.000   1852954.4377  -3937498.7958   4647314.7181   1   8   0.0006   0.0008   0.0009  -0.0004  -0.0007   0.0003   0.00    3.2
2017/01/01 02:13:00.000   1852954.4377  -3937498.7956   4647314.7184   1   8   0.0006   0.0008   0.0009  -0.0004  -0.0007   0.0003   0.00    3.2
2017/01/01 02:13:30.000   1852954.4377  -3937498.7954   4647314.7184   1   8   0.0006   0.0008   0.0009  -0.0004  -0.0007   0.0003   0.00    3.2
2017/01/01 02:14:00.000   1852954.4377  -3937498.7950   4647314.7185   1   8   0.0006   0.0008   0.0009  -0.0004  -0.0007   0.0003   0.00    3.3
2017/01/01 02:14:30.000   1852954.4376  -3937498.7946   4647314.7185   1   8   0.0006   0.0008   0.0009  -0.0004  -0.0007   0.0003   0.00    3.3
2017/01/01 02:15:00.000   1852954.4375  -3937498.7941   4647314.7185   1   8   0.0006   0.0008   0.0009  -0.0004  -0.0006   0.0003   0.00    3.4
2017/01/01 02:15:30.000   1852954.4374  -3937498.7937   4647314.7185   1   8   0.0006   0.0008   0.0009  -0.0004  -0.0006   0.0003   0.00    3.4
2017/01/01 02:16:00.000   1852954.4372  -3937498.7932   4647314.7185   1   8   0.0006   0.0008   0.0009  -0.0004  -0.0006   0.0003   0.00    3.5
2017/01/01 02:16:30.000   1852954.4370  -3937498.7927   4647314.7184   1   8   0.0006   0.0008   0.0009  -0.0004  -0.0006   0.0003   0.00    3.6
2017/01/01 02:17:00.000   1852954.4368  -3937498.7923   4647314.7183   1   8   0.0006   0.0008   0.0009  -0.0004  -0.0006   0.0003   0.00    3.6
2017/01/01 02:17:30.000   1852954.4365  -3937498.7918   4647314.7182   1   8   0.0006   0.0008   0.0009  -0.0004  -0.0006   0.0003   0.00    3.6
2017/01/01 02:18:00.000   1852954.4362  -3937498.7915   4647314.7182   1   8   0.0006   0.0008   0.0009  -0.0004  -0.0006   0.0003   0.00    3.7
2017/01/01 02:18:30.000   1852954.4359  -3937498.7911   4647314.7181   1   8   0.0006   0.0007   0.0009  -0.0004  -0.0006   0.0003   0.00    3.8
2017/01/01 02:19:00.000   1852954.4355  -3937498.7907   4647314.7182   1   8   0.0006   0.0007   0.0009  -0.0004  -0.0006   0.0003   0.00    3.8
2017/01/01 02:19:30.000   1852954.4351  -3937498.7905   4647314.7183   1   8   0.0006   0.0007   0.0009  -0.0004  -0.0006   0.0003   0.00    3.8
2017/01/01 02:20:00.000   1852954.4347  -3937498.7903   4647314.7185   1   8   0.0006   0.0007   0.0009  -0.0004  -0.0006   0.0003   0.00    3.9
2017/01/01 02:20:30.000   1852954.4343  -3937498.7903   4647314.7187   1   8   0.0006   0.0007   0.0009  -0.0004  -0.0006   0.0003   0.00    3.9
2017/01/01 02:21:00.000   1852954.4340  -3937498.7903   4647314.7190   1   8   0.0006   0.0007   0.0009  -0.0004  -0.0006   0.0003   0.00    3.9
2017/01/01 02:21:30.000   1852954.4337  -3937498.7904   4647314.7194   1   8   0.0006   0.0007   0.0009  -0.0004  -0.0006   0.0003   0.00    3.8
2017/01/01 02:22:00.000   1852954.4335  -3937498.7905   4647314.7199   1   8   0.0006   0.0007   0.0009  -0.0004  -0.0006   0.0003   0.00    3.8
2017/01/01 02:22:30.000   1852954.4332  -3937498.7908   4647314.7204   1   8   0.0006   0.0007   0.0009  -0.0004  -0.0006   0.0003   0.00    3.7
2017/01/01 02:23:00.000   1852954.4330  -3937498.7910   4647314.7208   1   8   0.0006   0.0007   0.0009  -0.0004  -0.0006   0.0003   0.00    3.7
2017/01/01 02:23:30.000   1852954.4327  -3937498.7913   4647314.7213   1   8   0.0006   0.0007   0.0009  -0.0004  -0.0006   0.0003   0.00    3.6
2017/01/01 02:24:00.000   1852954.4324  -3937498.7915   4647314.7216   1   8   0.0006   0.0007   0.0009  -0.0004  -0.0006   0.0003   0.00    3.6
2017/01/01 02:24:30.000   1852954.4322  -3937498.7919   4647314.7222   1   8   0.0006   0.0007   0.0009  -0.0004  -0.0006   0.0003   0.00    3.5
2017/01/01 02:25:00.000   1852954.4319  -3937498.7922   4647314.7226   1   8   0.0006   0.0007   0.0009  -0.0004  -0.0006   0.0003   0.00    3.4
2017/01/01 02:25:30.000   1852954.4316  -3937498.7926   4647314.7230   1   8   0.0006   0.0007   0.0009  -0.0004  -0.0006   0.0003   0.00    3.4
2017/01/01 02:26:00.000   1852954.4314  -3937498.7929   4647314.7235   1   8   0.0006   0.0007   0.0009  -0.0004  -0.0006   0.0003   0.00    3.3
2017/01/01 02:26:30.000   1852954.4312  -3937498.7933   4647314.7239   1   8   0.0006   0.0007   0.0009  -0.0004  -0.0006   0.0003   0.00    3.3
2017/01/01 02:27:00.000   1852954.4309  -3937498.7937   4647314.7244   1   8   0.0006   0.0007   0.0009  -0.0004  -0.0006   0.0003   0.00    3.2
2017/01/01 02:27:30.000   1852954.4307  -3937498.7941   4647314.7249   1   8   0.0006   0.0007   0.0009  -0.0004  -0.0006   0.0003   0.00    3.1
2017/01/01 02:28:00.000   1852954.4304  -3937498.7945   4647314.7254   1   8   0.0006   0.0007   0.0009  -0.0004  -0.0006   0.0003   0.00    3.1
2017/01/01 02:28:30.000   1852954.4302  -3937498.7948   4647314.7259   1   8   0.0006   0.0007   0.0009  -0.0004  -0.0006   0.0003   0.00    3.0
2017/01/01 02:29:00.000   1852954.3191  -3937498.7812   4647314.7105   2   8   0.0032   0.0014   0.0012  -0.0015  -0.0009   0.0013   0.00    2.9
2017/01/01 02:29:30.000   1852954.3193  -3937498.7818   4647314.7109   2   8   0.0032   0.0014   0.0012  -0.0014  -0.0009   0.0013   0.00    2.9
2017/01/01 02:30:00.000   1852954.3199  -3937498.7825   4647314.7113   2   8   0.0032   0.0014   0.0012  -0.0014  -0.0009   0.0013   0.00    2.9
2017/01/01 02:30:30.000   1852954.3209  -3937498.7834   4647314.7118   2   8   0.0031   0.0014   0.0012  -0.0014  -0.0009   0.0012   0.00    2.8
2017/01/01 02:31:00.000   1852954.3216  -3937498.7841   4647314.7122   2   8   0.0031   0.0014   0.0012  -0.0014  -0.0009   0.0012   0.00    2.8
2017/01/01 02:31:30.000   1852954.3221  -3937498.7849   4647314.7126   2   8   0.0031   0.0014   0.0012  -0.0014  -0.0009   0.0012   0.00    2.7
2017/01/01 02:32:00.000   1852954.3228  -3937498.7857   4647314.7129   2   8   0.0031   0.0014   0.0012  -0.0014  -0.0009   0.0012   0.00    2.7
2017/01/01 02:32:30.000   1852954.3234  -3937498.7865   4647314.7132   2   8   0.0031   0.0014   0.0011  -0.0014  -0.0009   0.0012   0.00    2.7
2017/01/01 02:33:00.000   1852954.3239  -3937498.7871   4647314.7134   2   8   0.0030   0.0014   0.0011  -0.0014  -0.0009   0.0012   0.00    2.6
2017/01/01 02:33:30.000   1852954.3250  -3937498.7879   4647314.7137   2   8   0.0030   0.0014   0.0011  -0.0014  -0.0009   0.0012   0.00    2.6
2017/01/01 02:34:00.000   1852954.3255  -3937498.7887   4647314.7139   2   8   0.0030   0.0014   0.0011  -0.0013  -0.0009   0.0012   0.00    2.6
2017/01/01 02:34:30.000   1852954.3262  -3937498.7894   4647314.7140   2   8   0.0030   0.0014   0.0011  -0.0013  -0.0009   0.0012   0.00    2.5
2017/01/01 02:35:00.000   1852954.3268  -3937498.7900   4647314.7141   2   8   0.0030   0.0014   0.0011  -0.0013  -0.0009   0.0012   0.00    2.5
2017/01/01 02:35:30.000   1852954.3276  -3937498.7905   4647314.7141   2   8   0.0029   0.0014   0.0011  -0.0013  -0.0008   0.0012   0.00    2.5
2017/01/01 02:36:00.000   1852954.3284  -3937498.7911   4647314.7142   2   8   0.0029   0.0013   0.0011  -0.0013  -0.0008   0.0012   0.00    2.4
2017/01/01 02:36:30.000   1852954.4250  -3937498.8186   4647314.7420   1   7   0.0006   0.0009   0.0009  -0.0005  -0.0007   0.0003   0.00    6.2
2017/01/01 02:37:00.000   1852954.4247  -3937498.8187   4647314.7422   1   7   0.0006   0.0009   0.0009  -0.0005  -0.0007   0.0003   0.00    6.1
2017/01/01 02:37:30.000   1852954.4243  -3937498.8187   4647314.7422   1   7   0.0006   0.0009   0.0009  -0.0005  -0.0007   0.0003   0.00    6.1
2017/01/01 02:38:00.000   1852954.4240  -3937498.8188   4647314.7424   1   7   0.0006   0.0009   0.0009  -0.0005  -0.0007   0.0003   0.00    6.0
2017/01/01 02:38:30.000   1852954.4236  -3937498.8188   4647314.7423   1   7   0.0006   0.0009   0.0009  -0.0005  -0.0007   0.0003   0.00    6.0
2017/01/01 02:39:00.000   1852954.4233  -3937498.8188   4647314.7424   1   7   0.0006   0.0009   0.0009  -0.0005  -0.0007   0.0003   0.00    5.9
2017/01/01 02:39:30.000   1852954.4230  -3937498.8186   4647314.7423   1   7   0.0006   0.0009   0.0009  -0.0005  -0.0007   0.0003   0.00    5.8
2017/01/01 02:40:00.000   1852954.4227  -3937498.8185   4647314.7423   1   7   0.0006   0.0009   0.0009  -0.0005  -0.0007   0.0003   0.00    5.8
2017/01/01 02:40:30.000   1852954.4224  -3937498.8184   4647314.7422   1   7   0.0006   0.0008   0.0009  -0.0005  -0.0007   0.0003   0.00    5.7
2017/01/01 02:41:00.000   1852954.4220  -3937498.8183   4647314.7422   1   7   0.0006   0.0008   0.0009  -0.0005  -0.0007   0.0003   0.00    5.7
2017/01/01 02:41:30.000   1852954.4218  -3937498.8185   4647314.7423   1   7   0.0006   0.0008   0.0009  -0.0005  -0.0007   0.0003   0.00    5.6
2017/01/01 02:42:00.000   1852954.4217  -3937498.8188   4647314.7425   1   7   0.0006   0.0008   0.0009  -0.0005  -0.0007   0.0003   0.00    5.5
2017/01/01 02:42:30.000   1852954.4215  -3937498.8190   4647314.7426   1   7   0.0006   0.0008   0.0009  -0.0005  -0.0007   0.0003   0.00    5.5
2017/01/01 02:43:00.000   1852954.4212  -3937498.8194   4647314.7428   1   7   0.0006   0.0008   0.0008  -0.0005  -0.0007   0.0003   0.00    5.4
2017/01/01 02:43:30.000   1852954.4211  -3937498.8197   4647314.7429   1   7   0.0006   0.0008   0.0008  -0.0005  -0.0007   0.0003   0.00    5.4
2017/01/01 02:44:00.000   1852954.4209  -3937498.8200   4647314.7430   1   7   0.0006   0.0008   0.0008  -0.0005  -0.0007   0.0003   0.00    5.3
2017/01/01 02:44:30.000   1852954.4207  -3937498.8205   4647314.7432   1   7   0.0006   0.0008   0.0008  -0.0005  -0.0007   0.0003   0.00    5.3
2017/01/01 02:45:00.000   1852954.4205  -3937498.8210   4647314.7435   1   7   0.0006   0.0008   0.0008  -0.0005  -0.0007   0.0003   0.00    5.3
2017/01/01 02:45:30.000   1852954.4204  -3937498.8216   4647314.7438   1   7   0.0006   0.0008   0.0008  -0.0005  -0.0007   0.0003   0.00    5.2
2017/01/01 02:46:00.000   1852954.3503  -3937498.8034   4647314.7200   2   8   0.0027   0.0013   0.0010  -0.0012  -0.0008   0.0011   0.00    1.0
2017/01/01 02:46:30.000   1852954.3506  -3937498.8040   4647314.7207   2   8   0.0027   0.0013   0.0010  -0.0012  -0.0008   0.0011   0.00    1.0
2017/01/01 02:47:00.000   1852954.3508  -3937498.8045   4647314.7212   2   8   0.0027   0.0013   0.0010  -0.0012  -0.0008   0.0011   0.00    1.0
2017/01/01 02:47:30.000   1852954.3509  -3937498.8050   4647314.7218   2   8   0.0027   0.0013   0.0010  -0.0012  -0.0008   0.0010   0.00    1.0
2017/01/01 02:48:00.000   1852954.3509  -3937498.8054   4647314.7224   2   8   0.0027   0.0013   0.0010  -0.0011  -0.0008   0.0010   0.00    1.0
2017/01/01 02:48:30.000   1852954.3509  -3937498.8058   4647314.7229   2   8   0.0027   0.0013   0.0010  -0.0011  -0.0008   0.0010   0.00    1.0
2017/01/01 02:49:00.000   1852954.3509  -3937498.8061   4647314.7233   2   8   0.0027   0.0013   0.0010  -0.0011  -0.0008   0.0010   0.00    1.0
2017/01/01 02:49:30.000   1852954.3504  -3937498.8060   4647314.7233   2   8   0.0027   0.0013   0.0010  -0.0011  -0.0008   0.0010   0.00    1.0
2017/01/01 02:50:00.000   1852954.3502  -3937498.8060   4647314.7232   2   8   0.0027   0.0012   0.0010  -0.0011  -0.0008   0.0010   0.00    1.0
2017/01/01 02:50:30.000   1852954.3501  -3937498.8059   4647314.7230   2   8   0.0027   0.0012   0.0010  -0.0011  -0.0008   0.0010   0.00    1.0
2017/01/01 02:51:00.000   1852954.3504  -3937498.8060   4647314.7231   2   7   0.0027   0.0012   0.0010  -0.0011  -0.0007   0.0010   0.00    1.0
2017/01/01 02:51:30.000   1852954.3505  -3937498.8059   4647314.7231   2   7   0.0027   0.0012   0.0010  -0.0011  -0.0007   0.0010   0.00    1.0
2017/01/01 02:52:00.000   1852954.3509  -3937498.8058   4647314.7231   2   7   0.0026   0.0012   0.0010  -0.0011  -0.0007   0.0010   0.00    1.0
2017/01/01 02:52:30.000   1852954.3514  -3937498.8058   4647314.7231   2   7   0.0026   0.0012   0.0010  -0.0011  -0.0007   0.0010   0.00    1.0
2017/01/01 02:53:00.000   1852954.3520  -3937498.8057   4647314.7231   2   7   0.0026   0.0012   0.0010  -0.0011  -0.0007   0.0010   0.00    1.0
2017/01/01 02:53:30.000   1852954.3524  -3937498.8055   4647314.7231   2   7   0.0026   0.0012   0.0010  -0.0011  -0.0007   0.0010   0.00    1.0
2017/01/01 02:54:00.000   1852954.3529  -3937498.8053   4647314.7231   2   7   0.0026   0.0012   0.0010  -0.0011  -0.0007   0.0010   0.00    1.0
2017/01/01 02:54:30.000   1852954.3532  -3937498.8049   4647314.7232   2   7   0.0026   0.0012   0.0010  -0.0011  -0.0007   0.0010   0.00    1.0
2017/01/01 02:55:00.000   1852954.3538  -3937498.8046   4647314.7233   2   7   0.0026   0.0012   0.0010  -0.0011  -0.0007   0.0010   0.00    1.1
2017/01/01 02:55:30.000   1852954.3545  -3937498.8044   4647314.7233   2   7   0.0026   0.0012   0.0010  -0.0011  -0.0007   0.0010   0.00    1.1
2017/01/01 02:56:00.000   1852954.3554  -3937498.8042   4647314.7233   2   7   0.0026   0.0012   0.0010  -0.0011  -0.0007   0.0010   0.00    1.1
2017/01/01 02:56:30.000   1852954.3562  -3937498.8041   4647314.7234   2   7   0.0026   0.0012   0.0010  -0.0010  -0.0007   0.0010   0.00    1.1
2017/01/01 02:57:00.000   1852954.3572  -3937498.8041   4647314.7234   2   7   0.0026   0.0012   0.0010  -0.0010  -0.0007   0.0010   0.00    1.1
2017/01/01 02:57:30.000   1852954.3582  -3937498.8040   4647314.7234   2   7   0.0026   0.0012   0.0010  -0.0010  -0.0007   0.0010   0.00    1.1
2017/01/01 02:58:00.000   1852954.3590  -3937498.8040   4647314.7234   2   7   0.0026   0.0012   0.0010  -0.0010  -0.0007   0.0010   0.00    1.1
2017/01/01 02:58:30.000   1852954.3597  -3937498.8038   4647314.7234   2   7   0.0026   0.0012   0.0010  -0.0010  -0.0007   0.0010   0.00    1.1
2017/01/01 02:59:00.000   1852954.3602  -3937498.8036   4647314.7234   2   7   0.0026   0.0012   0.0010  -0.0010  -0.0007   0.0010   0.00    1.2
2017/01/01 02:59:30.000   1852954.3604  -3937498.8032   4647314.7233   2   7   0.0025   0.0012   0.0010  -0.0010  -0.0007   0.0010   0.00    1.2
2017/01/01 03:00:00.000   1852954.3605  -3937498.8028   4647314.7232   2   7   0.0025   0.0012   0.0010  -0.0010  -0.0007   0.0010   0.00    1.2
2017/01/01 03:00:30.000   1852954.3607  -3937498.8025   4647314.7231   2   7   0.0025   0.0012   0.0010  -0.0010  -0.0007   0.0010   0.00    1.2
2017/01/01 03:01:00.000   1852954.3612  -3937498.8021   4647314.7231   2   7   0.0025   0.0012   0.0010  -0.0010  -0.0007   0.0010   0.00    1.3
2017/01/01 03:01:30.000   1852954.3618  -3937498.8020   4647314.7229   2   7   0.0025   0.0012   0.0010  -0.0010  -0.0007   0.0010   0.00    1.3
2017/01/01 03:02:00.000   1852954.3624  -3937498.8018   4647314.7228   2   7   0.0025   0.0012   0.0010  -0.0010  -0.0007   0.0010   0.00    1.3
2017/01/01 03:02:30.000   1852954.3631  -3937498.8017   4647314.7227   2   7   0.0025   0.0012   0.0010  -0.0010  -0.0007   0.0010   0.00    1.3
2017/01/01 03:03:00.000   1852954.3635  -3937498.8015   4647314.7226   2   7   0.0025   0.0012   0.0010  -0.0010  -0.0007   0.0009   0.00    1.3
2017/01/01 03:03:30.000   1852954.3638  -3937498.8014   4647314.7225   2   7   0.0025   0.0012   0.0010  -0.0010  -0.0007   0.0009   0.00    1.4
2017/01/01 03:04:00.000   1852954.3641  -3937498.8012   4647314.7223   2   7   0.0025   0.0012   0.0010  -0.0010  -0.0007   0.0009   0.00    1.4
2017/01/01 03:04:30.000   1852954.3642  -3937498.8011   4647314.7222   2   7   0.0025   0.0012   0.0010  -0.0010  -0.0007   0.0009   0.00    1.4
2017/01/01 03:05:00.000   1852954.3642  -3937498.8011   4647314.7221   2   7   0.0025   0.0012   0.0010  -0.0010  -0.0007   0.0009   0.00    1.4
2017/01/01 03:05:30.000   1852954.3643  -3937498.8012   4647314.7221   2   7   0.0025   0.0012   0.0010  -0.0009  -0.0007   0.0009   0.00    1.5
2017/01/01 03:06:00.000   1852954.3644  -3937498.8012   4647314.7220   2   7   0.0025   0.0012   0.0010  -0.0009  -0.0007   0.0009   0.00    1.5
2017/01/01 03:06:30.000   1852954.3646  -3937498.8012   4647314.7218   2   7   0.0025   0.0012   0.0010  -0.0009  -0.0007   0.0009   0.00    1.6
2017/01/01 03:07:00.000   1852954.3647  -3937498.8012   4647314.7217   2   7   0.0025   0.0012   0.0010  -0.0009  -0.0007   0.0009   0.00    1.6
2017/01/01 03:07:30.000   1852954.3649  -3937498.8012   4647314.7214   2   7   0.0024   0.0012   0.0010  -0.0009  -0.0007   0.0009   0.00    1.6
2017/01/01 03:08:00.000   1852954.3650  -3937498.8011   4647314.7211   2   7   0.0024   0.0011   0.0010  -0.0009  -0.0007   0.0009   0.00    1.7
2017/01/01 03:08:30.000   1852954.3650  -3937498.8011   4647314.7208   2   7   0.0024   0.0011   0.0010  -0.0009  -0.0007   0.0009   0.00    1.7
2017/01/01 03:09:00.000   1852954.3650  -3937498.8012   4647314.7205   2   7   0.0024   0.0011   0.0009  -0.0009  -0.0007   0.0009   0.00    1.8
2017/01/01 03:09:30.000   1852954.3650  -3937498.8014   4647314.7202   2   7   0.0024   0.0011   0.0009  -0.0009  -0.0007   0.0009   0.00    1.8
2017/01/01 03:10:00.000   1852954.3650  -3937498.8016   4647314.7200   2   7   0.0024   0.0011   0.0009  -0.0009  -0.0007   0.0009   0.00    1.9
2017/01/01 03:10:30.000   1852954.3650  -3937498.8018   4647314.7198   2   7   0.0024   0.0011   0.0009  -0.0009  -0.0007   0.0009   0.00    1.9
2017/01/01 03:11:00.000   1852954.3648  -3937498.8019   4647314.7196   2   7   0.0024   0.0011   0.0009  -0.0009  -0.0007   0.0009   0.00    1.9
2017/01/01 03:11:30.000   1852954.3646  -3937498.8021   4647314.7195   2   7   0.0024   0.0011   0.0009  -0.0009  -0.0007   0.0009   0.00    2.0
2017/01/01 03:12:00.000   1852954.3644  -3937498.8024   4647314.7195   2   7   0.0024   0.0011   0.0009  -0.0009  -0.0007   0.0009   0.00    2.0
2017/01/01 03:12:30.000   1852954.3643  -3937498.8027   4647314.7196   2   7   0.0024   0.0011   0.0009  -0.0009  -0.0007   0.0009   0.00    2.0
2017/01/01 03:13:00.000   1852954.3642  -3937498.8030   4647314.7197   2   7   0.0024   0.0011   0.0009  -0.0009  -0.0007   0.0009   0.00    2.0
2017/01/01 03:13:30.000   1852954.3640  -3937498.8033   4647314.7197   2   7   0.0024   0.0011   0.0009  -0.0009  -0.0007   0.0009   0.00    2.1
2017/01/01 03:14:00.000   1852954.3636  -3937498.8034   4647314.7197   2   7   0.0024   0.0011   0.0009  -0.0008  -0.0007   0.0009   0.00    2.1
2017/01/01 03:14:30.000   1852954.3632  -3937498.8036   4647314.7197   2   7   0.0024   0.0011   0.0009  -0.0008  -0.0007   0.0009   0.00    2.1
2017/01/01 03:15:00.000   1852954.3628  -3937498.8037   4647314.7198   2   7   0.0024   0.0011   0.0009  -0.0008  -0.0007   0.0009   0.00    2.1
2017/01/01 03:15:30.000   1852954.3623  -3937498.8039   4647314.7200   2   7   0.0024   0.0011   0.0009  -0.0008  -0.0007   0.0009   0.00    2.2
2017/01/01 03:16:00.000   1852954.3618  -3937498.8041   4647314.7202   2   7   0.0024   0.0011   0.0009  -0.0008  -0.0007   0.0009   0.00    2.2
2017/01/01 03:16:30.000   1852954.3612  -3937498.8042   4647314.7202   2   7   0.0023   0.0011   0.0009  -0.0008  -0.0007   0.0009   0.00    2.2
2017/01/01 03:17:00.000   1852954.3609  -3937498.8043   4647314.7203   2   7   0.0023   0.0011   0.0009  -0.0008  -0.0007   0.0009   0.00    2.2
2017/01/01 03:17:30.000   1852954.3606  -3937498.8045   4647314.7205   2   7   0.0023   0.0011   0.0009  -0.0008  -0.0006   0.0009   0.00    2.3
2017/01/01 03:18:00.000   1852954.3604  -3937498.8047   4647314.7206   2   7   0.0023   0.0011   0.0009  -0.0008  -0.0006   0.0009   0.00    2.3
2017/01/01 03:18:30.000   1852954.3602  -3937498.8048   4647314.7208   2   7   0.0023   0.0011   0.0009  -0.0008  -0.0006   0.0009   0.00    2.3
2017/01/01 03:19:00.000   1852954.3600  -3937498.8048   4647314.7209   2   7   0.0023   0.0011   0.0009  -0.0008  -0.0006   0.0009   0.00    2.3
2017/01/01 03:19:30.000   1852954.3597  -3937498.8048   4647314.7209   2   7   0.0023   0.0011   0.0009  -0.0008  -0.0006   0.0009   0.00    2.4
2017/01/01 03:20:00.000   1852954.3594  -3937498.8047   4647314.7209   2   7   0.0023   0.0011   0.0009  -0.0008  -0.0006   0.0009   0.00    2.4
2017/01/01 03:20:30.000   1852954.3593  -3937498.8046   4647314.7209   2   7   0.0023   0.0011   0.0009  -0.0008  -0.0006   0.0008   0.00    2.4
2017/01/01 03:21:00.000   1852954.3593  -3937498.8046   4647314.7209   2   7   0.0023   0.0011   0.0009  -0.0008  -0.0006   0.0008   0.00    2.5
2017/01/01 03:21:30.000   1852954.3593  -3937498.8046   4647314.7209   2   7   0.0023   0.0011   0.0009  -0.0008  -0.0006   0.0008   0.00    2.5
2017/01/01 03:22:00.000   1852954.3592  -3937498.8045   4647314.7210   2   7   0.0023   0.0011   0.0009  -0.0008  -0.0006   0.0008   0.00    2.6
