% program   : RTKPOST ver.2.4.3 b34
% inp file  : C:\Users\Danisimo\Desktop\????\GODE\gode2150.17o
% inp file  : C:\Users\Danisimo\Desktop\????\GODN\godn2150.17o
% inp file  : C:\Users\Danisimo\Desktop\????\BRDM00DLR_R_20172150000_01D_MN.rnx
% inp file  : C:\Users\Danisimo\Desktop\????\igs19604.sp3
% inp file  : C:\Users\Danisimo\Desktop\????\igs19604.clk_30s
% obs start : 2017/08/03 00:00:00.0 GPST (week1960 345600.0s)
% obs end   : 2017/08/03 23:59:30.0 GPST (week1960 431970.0s)
% pos mode  : Kinematic
% freqs     : L1+2
% solution  : Combined
% elev mask : 15.0 deg
% dynamics  : off
% tidecorr  : off
% ionos opt : Broadcast
% tropo opt : Saastamoinen
% ephemeris : Precise
% navi sys  : GPS
% amb res   : Continuous
% val thres : 3.0
% antenna1  :                       ( 0.0000  0.0000  0.0614)
% antenna2  :                       ( 0.0000  0.0000  0.0083)
% ref pos   :  1130760.9010  -4831298.6810   3994155.1720
%
% (x/y/z-ecef=WGS84,Q=1:fix,2:float,3:sbas,4:dgps,5:single,6:ppp,ns=# of satellites)
%  GPST                      x-ecef(m)      y-ecef(m)      z-ecef(m)   Q  ns   sdx(m)   sdy(m)   sdz(m)  sdxy(m)  sdyz(m)  sdzx(m) age(s)  ratio
2017/08/02 23:59:59.999   1130773.6663  -4831253.5729   3994200.4374   1   8   0.0031   0.0060   0.0056  -0.0024  -0.0045   0.0015   0.00   78.1
2017/08/03 00:00:29.999   1130773.6666  -4831253.5779   3994200.4414   1   8   0.0031   0.0060   0.0056  -0.0023  -0.0046   0.0014   0.00   88.9
2017/08/03 00:00:59.999   1130773.6634  -4831253.5743   3994200.4376   1   8   0.0031   0.0061   0.0055  -0.0022  -0.0045   0.0017   0.00  130.9
2017/08/03 00:01:29.999   1130773.6664  -4831253.5725   3994200.4388   1   8   0.0030   0.0060   0.0056  -0.0021  -0.0044   0.0019   0.00  188.6
2017/08/03 00:01:59.999   1130773.6674  -4831253.5782   3994200.4435   1   8   0.0030   0.0060   0.0055  -0.0021  -0.0045   0.0018   0.00  233.8
2017/08/03 00:02:29.999   1130773.6681  -4831253.5742   3994200.4387   1   8   0.0030   0.0060   0.0055  -0.0022  -0.0045   0.0017   0.00  252.2
2017/08/03 00:02:59.999   1130773.6684  -4831253.5796   3994200.4424   1   8   0.0031   0.0059   0.0054  -0.0023  -0.0045   0.0015   0.00  246.9
2017/08/03 00:03:29.999   1130773.6660  -4831253.5781   3994200.4457   1   8   0.0028   0.0060   0.0054  -0.0022  -0.0045   0.0016   0.00  231.0
2017/08/03 00:03:59.999   1130773.6667  -4831253.5706   3994200.4396   1   8   0.0031   0.0060   0.0056  -0.0023  -0.0044   0.0017   0.00  235.4
2017/08/03 00:04:29.999   1130773.6666  -4831253.5673   3994200.4376   1   8   0.0032   0.0060   0.0055  -0.0022  -0.0044   0.0015   0.00  206.6
2017/08/03 00:04:59.999   1130773.6687  -4831253.5750   3994200.4397   1   8   0.0030   0.0059   0.0055  -0.0022  -0.0045   0.0018   0.00  195.7
2017/08/03 00:05:29.999   1130773.6693  -4831253.5750   3994200.4409   1   8   0.0031   0.0059   0.0055  -0.0021  -0.0045   0.0015   0.00  190.7
2017/08/03 00:05:59.999   1130773.6650  -4831253.5748   3994200.4430   1   8   0.0031   0.0060   0.0054  -0.0022  -0.0044   0.0014   0.00  172.6
2017/08/03 00:06:29.999   1130773.6655  -4831253.5785   3994200.4467   1   8   0.0031   0.0060   0.0054  -0.0021  -0.0044   0.0017   0.00  158.8
2017/08/03 00:06:59.999   1130773.6652  -4831253.5739   3994200.4407   1   8   0.0030   0.0060   0.0054  -0.0022  -0.0044   0.0013   0.00  155.4
2017/08/03 00:07:29.999   1130773.6658  -4831253.5723   3994200.4404   1   8   0.0030   0.0060   0.0053  -0.0023  -0.0043   0.0012   0.00  155.6
2017/08/03 00:07:59.999   1130773.6693  -4831253.5796   3994200.4432   1   8   0.0033   0.0059   0.0054  -0.0021  -0.0045   0.0015   0.00  153.3
2017/08/03 00:08:29.999   1130773.6655  -4831253.5749   3994200.4445   1   8   0.0030   0.0060   0.0054  -0.0022  -0.0044   0.0016   0.00  147.1
2017/08/03 00:08:59.999   1130773.6672  -4831253.5823   3994200.4478   1   8   0.0031   0.0059   0.0053  -0.0022  -0.0044   0.0013   0.00  156.2
2017/08/03 00:09:29.999   1130773.6653  -4831253.5772   3994200.4457   1   8   0.0031   0.0059   0.0054  -0.0022  -0.0044   0.0013   0.00  153.6
2017/08/03 00:09:59.999   1130773.6671  -4831253.5784   3994200.4479   1   8   0.0031   0.0060   0.0053  -0.0022  -0.0044   0.0013   0.00  156.3
2017/08/03 00:10:29.999   1130773.6663  -4831253.5773   3994200.4463   1   8   0.0031   0.0060   0.0054  -0.0021  -0.0043   0.0015   0.00  158.2
2017/08/03 00:10:59.999   1130773.6672  -4831253.5785   3994200.4439   1   8   0.0031   0.0060   0.0053  -0.0022  -0.0044   0.0013   0.00  168.9
2017/08/03 00:11:29.999   1130773.6663  -4831253.5748   3994200.4427   1   8   0.0028   0.0059   0.0052  -0.0022  -0.0044   0.0012   0.00  173.8
2017/08/03 00:11:59.999   1130773.6668  -4831253.5736   3994200.4424   1   8   0.0033   0.0060   0.0054  -0.0021  -0.0043   0.0013   0.00  177.1
2017/08/03 00:12:29.999   1130773.6647  -4831253.5728   3994200.4434   1   8   0.0031   0.0060   0.0053  -0.0022  -0.0043   0.0015   0.00  182.2
2017/08/03 00:12:59.999   1130773.6663  -4831253.5754   3994200.4458   1   8   0.0030   0.0060   0.0054  -0.0022  -0.0043   0.0006   0.00  179.6
2017/08/03 00:13:29.999   1130773.6668  -4831253.5770   3994200.4486   1   8   0.0030   0.0060   0.0054  -0.0021  -0.0043   0.0011   0.00  175.2
2017/08/03 00:13:59.999   1130773.6663  -4831253.5805   3994200.4495   1   8   0.0031   0.0060   0.0053  -0.0021  -0.0043   0.0013   0.00  167.3
2017/08/03 00:14:29.999   1130773.6642  -4831253.5788   3994200.4484   1   8   0.0030   0.0060   0.0054  -0.0020  -0.0043   0.0015   0.00  159.4
2017/08/03 00:14:59.999   1130773.6690  -4831253.5700   3994200.4373   1   7   0.0033   0.0068   0.0071  -0.0008  -0.0058  -0.0020   0.00  462.0
2017/08/03 00:15:29.999   1130773.6673  -4831253.5695   3994200.4350   1   7   0.0033   0.0068   0.0071  -0.0011  -0.0057  -0.0020   0.00  468.3
2017/08/03 00:15:59.999   1130773.6681  -4831253.5668   3994200.4314   1   7   0.0034   0.0068   0.0070  -0.0011  -0.0057  -0.0020   0.00  461.1
2017/08/03 00:16:29.999   1130773.6684  -4831253.5762   3994200.4409   1   7   0.0034   0.0068   0.0069  -0.0012  -0.0057  -0.0019   0.00  445.4
2017/08/03 00:16:59.999   1130773.6684  -4831253.5720   3994200.4386   1   7   0.0032   0.0068   0.0069  -0.0015  -0.0057  -0.0020   0.00  443.2
2017/08/03 00:17:29.999   1130773.6708  -4831253.5729   3994200.4365   1   7   0.0032   0.0067   0.0068  -0.0013  -0.0057  -0.0019   0.00  427.9
2017/08/03 00:17:59.999   1130773.6686  -4831253.5719   3994200.4362   1   7   0.0034   0.0068   0.0069  -0.0015  -0.0056  -0.0020   0.00  438.9
2017/08/03 00:18:29.999   1130773.6690  -4831253.5734   3994200.4376   1   7   0.0032   0.0067   0.0068  -0.0013  -0.0056  -0.0018   0.00  450.4
2017/08/03 00:18:59.999   1130773.6694  -4831253.5748   3994200.4370   1   7   0.0033   0.0068   0.0068  -0.0011  -0.0055  -0.0019   0.00  448.8
2017/08/03 00:19:29.999   1130773.6643  -4831253.5693   3994200.4369   1   7   0.0033   0.0068   0.0068  -0.0012  -0.0055  -0.0017   0.00  470.9
2017/08/03 00:19:59.999   1130773.6662  -4831253.5739   3994200.4422   1   7   0.0033   0.0067   0.0067  -0.0016  -0.0055  -0.0019   0.00  469.9
2017/08/03 00:20:29.999   1130773.6645  -4831253.5743   3994200.4402   1   7   0.0033   0.0066   0.0067  -0.0016  -0.0054  -0.0019   0.00  474.0
2017/08/03 00:20:59.999   1130773.6698  -4831253.5721   3994200.4355   1   7   0.0032   0.0067   0.0067  -0.0012  -0.0054  -0.0017   0.00  483.6
2017/08/03 00:21:29.999   1130773.6674  -4831253.5744   3994200.4418   1   7   0.0030   0.0066   0.0066  -0.0016  -0.0054  -0.0017   0.00  484.9
2017/08/03 00:21:59.999   1130773.6678  -4831253.5714   3994200.4359   1   7   0.0033   0.0067   0.0066  -0.0016  -0.0054  -0.0017   0.00  503.7
2017/08/03 00:22:29.999   1130773.6681  -4831253.5673   3994200.4322   1   7   0.0033   0.0067   0.0066  -0.0016  -0.0053  -0.0017   0.00  510.0
2017/08/03 00:22:59.999   1130773.6686  -4831253.5680   3994200.4336   1   7   0.0032   0.0066   0.0065  -0.0013  -0.0053  -0.0015   0.00  513.0
2017/08/03 00:23:29.999   1130773.6679  -4831253.5711   3994200.4367   1   7   0.0033   0.0067   0.0065  -0.0017  -0.0053  -0.0017   0.00  519.0
2017/08/03 00:23:59.999   1130773.6681  -4831253.5748   3994200.4405   1   7   0.0030   0.0066   0.0064  -0.0017  -0.0053  -0.0016   0.00  522.7
2017/08/03 00:24:29.999   1130773.6689  -4831253.5727   3994200.4374   1   7   0.0033   0.0066   0.0064  -0.0018  -0.0052  -0.0017   0.00  523.1
2017/08/03 00:24:59.999   1130773.6683  -4831253.5747   3994200.4381   1   7   0.0033   0.0067   0.0064  -0.0014  -0.0052  -0.0016   0.00  524.0
2017/08/03 00:25:29.999   1130773.6669  -4831253.5749   3994200.4368   1   7   0.0034   0.0067   0.0064  -0.0019  -0.0051  -0.0018   0.00  514.2
2017/08/03 00:25:59.999   1130773.6690  -4831253.5705   3994200.4360   1   7   0.0033   0.0067   0.0063  -0.0020  -0.0051  -0.0017   0.00  511.6
2017/08/03 00:26:29.999   1130773.6679  -4831253.5669   3994200.4328   1   7   0.0031   0.0066   0.0063  -0.0017  -0.0051  -0.0015   0.00  512.2
2017/08/03 00:26:59.999   1130773.6674  -4831253.5725   3994200.4387   1   7   0.0031   0.0066   0.0063  -0.0016  -0.0051  -0.0015   0.00  521.8
2017/08/03 00:27:29.999   1130773.6681  -4831253.5740   3994200.4390   1   7   0.0032   0.0066   0.0062  -0.0017  -0.0051  -0.0016   0.00  525.9
2017/08/03 00:27:59.999   1130773.6649  -4831253.5717   3994200.4370   1   7   0.0033   0.0067   0.0062  -0.0018  -0.0050  -0.0014   0.00  535.0
2017/08/03 00:28:29.999   1130773.6670  -4831253.5704   3994200.4364   1   7   0.0032   0.0066   0.0062  -0.0019  -0.0050  -0.0015   0.00  528.0
2017/08/03 00:28:59.999   1130773.6700  -4831253.5726   3994200.4346   1   7   0.0032   0.0067   0.0061  -0.0020  -0.0050  -0.0016   0.00  527.4
2017/08/03 00:29:29.999   1130773.6703  -4831253.5749   3994200.4384   1   7   0.0034   0.0067   0.0061  -0.0020  -0.0049  -0.0017   0.00  505.4
2017/08/03 00:29:59.999   1130773.6682  -4831253.5706   3994200.4356   1   7   0.0033   0.0067   0.0061  -0.0020  -0.0049  -0.0015   0.00  502.2
2017/08/03 00:30:29.999   1130773.6680  -4831253.5715   3994200.4341   1   7   0.0032   0.0066   0.0061  -0.0019  -0.0049  -0.0013   0.00  491.1
2017/08/03 00:30:59.999   1130773.6670  -4831253.5705   3994200.4338   1   7   0.0032   0.0067   0.0060  -0.0020  -0.0049  -0.0014   0.00  485.7
2017/08/03 00:31:29.999   1130773.6679  -4831253.5756   3994200.4371   1   7   0.0032   0.0066   0.0060  -0.0021  -0.0049  -0.0014   0.00  480.3
2017/08/03 00:31:59.999   1130773.6711  -4831253.5706   3994200.4325   1   7   0.0032   0.0067   0.0060  -0.0021  -0.0049  -0.0013   0.00  471.9
2017/08/03 00:32:29.999   1130773.6665  -4831253.5710   3994200.4364   1   7   0.0033   0.0066   0.0060  -0.0022  -0.0048  -0.0014   0.00  466.0
2017/08/03 00:32:59.999   1130773.6666  -4831253.5724   3994200.4379   1   7   0.0031   0.0066   0.0059  -0.0021  -0.0048  -0.0012   0.00  451.9
2017/08/03 00:33:29.999   1130773.6693  -4831253.5754   3994200.4387   1   7   0.0030   0.0067   0.0060  -0.0021  -0.0047  -0.0013   0.00  451.7
2017/08/03 00:33:59.999   1130773.6676  -4831253.5693   3994200.4376   1   7   0.0034   0.0067   0.0059  -0.0022  -0.0047  -0.0014   0.00  453.9
2017/08/03 00:34:29.999   1130773.6687  -4831253.5718   3994200.4382   1   7   0.0034   0.0068   0.0058  -0.0022  -0.0047  -0.0014   0.00  450.8
2017/08/03 00:34:59.999   1130773.6664  -4831253.5672   3994200.4356   1   7   0.0033   0.0067   0.0058  -0.0023  -0.0047  -0.0015   0.00  449.0
2017/08/03 00:35:29.999   1130773.6698  -4831253.5733   3994200.4387   1   7   0.0033   0.0067   0.0058  -0.0024  -0.0047  -0.0014   0.00  445.0
2017/08/03 00:35:59.999   1130773.6665  -4831253.5744   3994200.4366   1   7   0.0033   0.0067   0.0059  -0.0022  -0.0047  -0.0012   0.00  437.5
2017/08/03 00:36:29.999   1130773.6662  -4831253.5735   3994200.4388   1   7   0.0034   0.0067   0.0058  -0.0024  -0.0047  -0.0013   0.00  438.7
2017/08/03 00:36:59.999   1130773.6671  -4831253.5759   3994200.4386   1   7   0.0033   0.0068   0.0057  -0.0023  -0.0047  -0.0012   0.00  449.2
2017/08/03 00:37:29.999   1130773.6682  -4831253.5753   3994200.4403   1   8   0.0033   0.0066   0.0048  -0.0026  -0.0041   0.0008   0.00    5.0
2017/08/03 00:37:59.999   1130773.6680  -4831253.5749   3994200.4368   1   7   0.0031   0.0067   0.0057  -0.0023  -0.0046  -0.0012   0.00  448.3
2017/08/03 00:38:29.999   1130773.6663  -4831253.5715   3994200.4381   1   7   0.0033   0.0068   0.0057  -0.0024  -0.0045  -0.0012   0.00  455.0
2017/08/03 00:38:59.999   1130773.6660  -4831253.5691   3994200.4353   1   7   0.0032   0.0067   0.0057  -0.0024  -0.0045  -0.0011   0.00  451.9
2017/08/03 00:39:29.999   1130773.6685  -4831253.5705   3994200.4347   1   8   0.0031   0.0066   0.0046  -0.0026  -0.0040   0.0009   0.00    5.3
2017/08/03 00:39:59.999   1130773.6676  -4831253.5707   3994200.4378   1   8   0.0030   0.0066   0.0046  -0.0027  -0.0041   0.0010   0.00    9.5
2017/08/03 00:40:29.999   1130773.6667  -4831253.5758   3994200.4420   1   8   0.0033   0.0067   0.0046  -0.0027  -0.0040   0.0010   0.00   13.8
2017/08/03 00:40:59.999   1130773.6667  -4831253.5676   3994200.4370   1   8   0.0031   0.0067   0.0045  -0.0025  -0.0040   0.0011   0.00   18.5
2017/08/03 00:41:29.999   1130773.6672  -4831253.5679   3994200.4312   1   8   0.0032   0.0067   0.0046  -0.0027  -0.0040   0.0010   0.00   23.3
2017/08/03 00:41:59.999   1130773.6679  -4831253.5730   3994200.4344   1   8   0.0033   0.0068   0.0046  -0.0026  -0.0040   0.0012   0.00   28.2
2017/08/03 00:42:29.999   1130773.6678  -4831253.5704   3994200.4325   1   8   0.0034   0.0068   0.0045  -0.0027  -0.0040   0.0009   0.00   33.5
2017/08/03 00:42:59.999   1130773.6680  -4831253.5742   3994200.4339   1   8   0.0032   0.0068   0.0045  -0.0028  -0.0040   0.0012   0.00   37.8
2017/08/03 00:43:29.999   1130773.6686  -4831253.5756   3994200.4381   1   8   0.0033   0.0068   0.0045  -0.0027  -0.0040   0.0009   0.00   42.7
2017/08/03 00:43:59.999   1130773.6672  -4831253.5708   3994200.4365   1   8   0.0031   0.0068   0.0044  -0.0027  -0.0040   0.0011   0.00   46.6
2017/08/03 00:44:29.999   1130773.6677  -4831253.5717   3994200.4347   1   8   0.0034   0.0069   0.0045  -0.0028  -0.0040   0.0012   0.00   50.7
2017/08/03 00:44:59.999   1130773.6652  -4831253.5714   3994200.4392   1   8   0.0033   0.0069   0.0045  -0.0027  -0.0040   0.0013   0.00   55.2
2017/08/03 00:45:29.999   1130773.6677  -4831253.5760   3994200.4354   1   8   0.0033   0.0069   0.0045  -0.0029  -0.0039   0.0012   0.00   59.5
2017/08/03 00:45:59.999   1130773.6662  -4831253.5714   3994200.4339   1   8   0.0034   0.0069   0.0044  -0.0029  -0.0040   0.0012   0.00   62.8
2017/08/03 00:46:29.999   1130773.6683  -4831253.5684   3994200.4323   1   8   0.0033   0.0069   0.0044  -0.0028  -0.0039   0.0013   0.00   67.2
2017/08/03 00:46:59.999   1130773.6661  -4831253.5713   3994200.4337   1   8   0.0032   0.0069   0.0045  -0.0029  -0.0040   0.0010   0.00   71.4
2017/08/03 00:47:29.999   1130773.6676  -4831253.5706   3994200.4353   1   8   0.0033   0.0069   0.0044  -0.0029  -0.0040   0.0015   0.00   75.7
2017/08/03 00:47:59.999   1130773.6696  -4831253.5730   3994200.4337   1   8   0.0033   0.0070   0.0044  -0.0029  -0.0040   0.0013   0.00   80.7
2017/08/03 00:48:29.999   1130773.6639  -4831253.5705   3994200.4338   1   8   0.0032   0.0070   0.0044  -0.0030  -0.0040   0.0013   0.00   83.8
2017/08/03 00:48:59.999   1130773.6674  -4831253.5740   3994200.4367   1   8   0.0032   0.0071   0.0044  -0.0030  -0.0040   0.0014   0.00   87.5
2017/08/03 00:49:29.999   1130773.6669  -4831253.5712   3994200.4342   1   8   0.0033   0.0071   0.0044  -0.0029  -0.0039   0.0014   0.00   90.1
2017/08/03 00:49:59.999   1130773.6686  -4831253.5728   3994200.4365   1   8   0.0032   0.0071   0.0043  -0.0030  -0.0039   0.0015   0.00   93.0
2017/08/03 00:50:29.999   1130773.6656  -4831253.5679   3994200.4305   1   8   0.0034   0.0071   0.0043  -0.0029  -0.0040   0.0015   0.00   93.5
2017/08/03 00:50:59.999   1130773.6647  -4831253.5632   3994200.4338   1   8   0.0033   0.0071   0.0043  -0.0031  -0.0040   0.0014   0.00   97.0
2017/08/03 00:51:29.999   1130773.6678  -4831253.5694   3994200.4350   1   8   0.0034   0.0072   0.0043  -0.0031  -0.0040   0.0016   0.00  100.2
2017/08/03 00:51:59.999   1130773.6636  -4831253.5701   3994200.4339   1   8   0.0033   0.0072   0.0043  -0.0030  -0.0040   0.0015   0.00  100.3
2017/08/03 00:52:29.999   1130773.6657  -4831253.5699   3994200.4358   1   8   0.0033   0.0072   0.0044  -0.0031  -0.0040   0.0014   0.00  101.7
2017/08/03 00:52:59.999   1130773.6661  -4831253.5733   3994200.4374   1   8   0.0035   0.0072   0.0044  -0.0031  -0.0040   0.0016   0.00  103.9
2017/08/03 00:53:29.999   1130773.6666  -4831253.5687   3994200.4385   1   8   0.0033   0.0072   0.0043  -0.0031  -0.0040   0.0015   0.00  105.4
2017/08/03 00:53:59.999   1130773.6645  -4831253.5681   3994200.4358   1   8   0.0035   0.0073   0.0044  -0.0033  -0.0040   0.0016   0.00  105.8
2017/08/03 00:54:29.999   1130773.6663  -4831253.5716   3994200.4388   1   8   0.0034   0.0073   0.0043  -0.0031  -0.0040   0.0017   0.00  107.5
2017/08/03 00:54:59.999   1130773.6693  -4831253.5758   3994200.4374   1   8   0.0032   0.0073   0.0043  -0.0032  -0.0040   0.0017   0.00  110.2
2017/08/03 00:55:29.999   1130773.6690  -4831253.5799   3994200.4381   1   8   0.0033   0.0073   0.0043  -0.0032  -0.0040   0.0016   0.00  114.7
2017/08/03 00:55:59.999   1130773.6674  -4831253.5799   3994200.4384   1   8   0.0033   0.0073   0.0043  -0.0033  -0.0040   0.0015   0.00  117.6
2017/08/03 00:56:29.999   1130773.6647  -4831253.5672   3994200.4348   1   8   0.0034   0.0073   0.0043  -0.0034  -0.0040   0.0016   0.00  119.6
2017/08/03 00:56:59.999   1130773.6652  -4831253.5760   3994200.4368   1   8   0.0034   0.0074   0.0044  -0.0032  -0.0040   0.0017   0.00  121.1
2017/08/03 00:57:29.999   1130773.6651  -4831253.5767   3994200.4392   1   8   0.0032   0.0074   0.0043  -0.0033  -0.0039   0.0018   0.00  126.1
2017/08/03 00:57:59.999   1130773.6654  -4831253.5751   3994200.4374   1   8   0.0033   0.0074   0.0043  -0.0033  -0.0040   0.0017   0.00  130.1
2017/08/03 00:58:29.999   1130773.6669  -4831253.5752   3994200.4373   1   8   0.0034   0.0074   0.0042  -0.0034  -0.0040   0.0017   0.00  132.8
2017/08/03 00:58:59.999   1130773.6631  -4831253.5670   3994200.4322   1   8   0.0034   0.0074   0.0043  -0.0033  -0.0041   0.0017   0.00  133.9
2017/08/03 00:59:29.999   1130773.6685  -4831253.5742   3994200.4349   1   8   0.0035   0.0075   0.0043  -0.0034  -0.0040   0.0018   0.00  136.3
2017/08/03 00:59:59.999   1130773.6671  -4831253.5674   3994200.4342   1   8   0.0033   0.0075   0.0043  -0.0033  -0.0041   0.0019   0.00  137.1
2017/08/03 01:00:29.999   1130773.6621  -4831253.5693   3994200.4364   1   8   0.0034   0.0075   0.0043  -0.0034  -0.0041   0.0018   0.00  139.9
2017/08/03 01:00:59.999   1130773.6645  -4831253.5703   3994200.4377   1   8   0.0035   0.0075   0.0043  -0.0033  -0.0041   0.0018   0.00  141.4
2017/08/03 01:01:29.999   1130773.6674  -4831253.5680   3994200.4370   1   8   0.0030   0.0075   0.0043  -0.0033  -0.0040   0.0018   0.00  143.0
2017/08/03 01:01:59.999   1130773.6651  -4831253.5723   3994200.4358   1   8   0.0034   0.0075   0.0043  -0.0035  -0.0041   0.0019   0.00  145.9
2017/08/03 01:02:29.999   1130773.6670  -4831253.5729   3994200.4370   1   8   0.0035   0.0076   0.0042  -0.0034  -0.0041   0.0019   0.00  147.4
2017/08/03 01:02:59.999   1130773.6684  -4831253.5704   3994200.4356   1   8   0.0034   0.0075   0.0041  -0.0035  -0.0041   0.0018   0.00  149.9
2017/08/03 01:03:29.999   1130773.6700  -4831253.5786   3994200.4391   1   8   0.0034   0.0076   0.0044  -0.0035  -0.0041   0.0020   0.00  153.9
2017/08/03 01:03:59.999   1130773.6689  -4831253.5757   3994200.4373   1   8   0.0031   0.0076   0.0044  -0.0034  -0.0041   0.0022   0.00  157.5
2017/08/03 01:04:29.999   1130773.6675  -4831253.5758   3994200.4367   1   8   0.0035   0.0076   0.0044  -0.0034  -0.0041   0.0020   0.00  160.8
2017/08/03 01:04:59.999   1130773.6652  -4831253.5734   3994200.4372   1   8   0.0034   0.0076   0.0043  -0.0034  -0.0041   0.0021   0.00  165.8
2017/08/03 01:05:29.999   1130773.6643  -4831253.5745   3994200.4370   1   8   0.0035   0.0076   0.0043  -0.0035  -0.0041   0.0020   0.00  174.0
2017/08/03 01:05:59.999   1130773.6630  -4831253.5755   3994200.4394   1   8   0.0035   0.0077   0.0044  -0.0034  -0.0041   0.0021   0.00  178.3
2017/08/03 01:06:29.999   1130773.6682  -4831253.5726   3994200.4340   1   8   0.0035   0.0077   0.0044  -0.0035  -0.0042   0.0021   0.00  180.2
2017/08/03 01:06:59.999   1130773.6677  -4831253.5761   3994200.4373   1   8   0.0035   0.0077   0.0044  -0.0035  -0.0041   0.0021   0.00  183.7
2017/08/03 01:07:29.999   1130773.6684  -4831253.5749   3994200.4345   1   8   0.0034   0.0077   0.0043  -0.0035  -0.0042   0.0020   0.00  184.7
2017/08/03 01:07:59.999   1130773.6671  -4831253.5746   3994200.4370   1   8   0.0034   0.0077   0.0042  -0.0035  -0.0042   0.0019   0.00  188.2
2017/08/03 01:08:29.999   1130773.6660  -4831253.5742   3994200.4353   1   8   0.0035   0.0077   0.0044  -0.0035  -0.0042   0.0020   0.00  193.1
2017/08/03 01:08:59.999   1130773.6652  -4831253.5743   3994200.4335   1   8   0.0034   0.0076   0.0043  -0.0037  -0.0041   0.0020   0.00  195.5
2017/08/03 01:09:29.999   1130773.6655  -4831253.5725   3994200.4343   1   8   0.0033   0.0077   0.0044  -0.0035  -0.0041   0.0021   0.00  198.0
2017/08/03 01:09:59.999   1130773.6665  -4831253.5713   3994200.4337   1   8   0.0035   0.0077   0.0044  -0.0036  -0.0042   0.0022   0.00  203.1
2017/08/03 01:10:29.999   1130773.6670  -4831253.5688   3994200.4332   1   8   0.0033   0.0077   0.0045  -0.0036  -0.0042   0.0021   0.00  205.8
2017/08/03 01:10:59.999   1130773.6666  -4831253.5676   3994200.4298   1   8   0.0034   0.0077   0.0044  -0.0036  -0.0042   0.0022   0.00  205.8
2017/08/03 01:11:29.999   1130773.6675  -4831253.5769   3994200.4327   1   8   0.0033   0.0077   0.0045  -0.0036  -0.0042   0.0022   0.00  211.1
2017/08/03 01:11:59.999   1130773.6637  -4831253.5707   3994200.4326   1   8   0.0035   0.0077   0.0043  -0.0037  -0.0043   0.0022   0.00  216.1
2017/08/03 01:12:29.999   1130773.6687  -4831253.5761   3994200.4351   1   8   0.0034   0.0077   0.0044  -0.0036  -0.0042   0.0023   0.00  222.0
2017/08/03 01:12:59.999   1130773.6672  -4831253.5709   3994200.4320   1   8   0.0034   0.0077   0.0045  -0.0037  -0.0042   0.0023   0.00  230.0
2017/08/03 01:13:29.999   1130773.6660  -4831253.5709   3994200.4327   1   8   0.0034   0.0077   0.0044  -0.0037  -0.0043   0.0022   0.00  236.4
2017/08/03 01:13:59.999   1130773.6667  -4831253.5753   3994200.4362   1   8   0.0037   0.0077   0.0044  -0.0037  -0.0043   0.0023   0.00  247.6
2017/08/03 01:14:29.999   1130773.6673  -4831253.5706   3994200.4404   1   8   0.0036   0.0077   0.0044  -0.0037  -0.0043   0.0023   0.00  256.1
2017/08/03 01:14:59.999   1130773.6658  -4831253.5765   3994200.4387   1   8   0.0035   0.0077   0.0044  -0.0037  -0.0043   0.0024   0.00  261.6
2017/08/03 01:15:29.999   1130773.6661  -4831253.5683   3994200.4377   1   8   0.0036   0.0077   0.0045  -0.0037  -0.0043   0.0023   0.00  267.4
2017/08/03 01:15:59.999   1130773.6661  -4831253.5700   3994200.4386   1   8   0.0035   0.0077   0.0046  -0.0037  -0.0043   0.0023   0.00  275.0
2017/08/03 01:16:29.999   1130773.6655  -4831253.5726   3994200.4366   1   8   0.0034   0.0077   0.0045  -0.0037  -0.0043   0.0024   0.00  281.7
2017/08/03 01:16:59.999   1130773.6625  -4831253.5675   3994200.4325   1   8   0.0035   0.0077   0.0046  -0.0037  -0.0043   0.0025   0.00  289.3
2017/08/03 01:17:29.999   1130773.6666  -4831253.5698   3994200.4334   1   8   0.0035   0.0077   0.0045  -0.0038  -0.0043   0.0024   0.00  299.0
2017/08/03 01:17:59.999   1130773.6675  -4831253.5749   3994200.4328   1   8   0.0037   0.0077   0.0046  -0.0037  -0.0044   0.0024   0.00  304.7
2017/08/03 01:18:29.999   1130773.6648  -4831253.5695   3994200.4348   1   8   0.0035   0.0077   0.0046  -0.0037  -0.0044   0.0025   0.00  311.2
2017/08/03 01:18:59.999   1130773.6680  -4831253.5728   3994200.4336   1   8   0.0035   0.0077   0.0047  -0.0037  -0.0044   0.0025   0.00  319.3
2017/08/03 01:19:29.999   1130773.6679  -4831253.5719   3994200.4342   1   8   0.0036   0.0077   0.0046  -0.0037  -0.0044   0.0025   0.00  329.8
2017/08/03 01:19:59.999   1130773.6659  -4831253.5718   3994200.4339   1   8   0.0037   0.0077   0.0048  -0.0038  -0.0044   0.0026   0.00  337.9
2017/08/03 01:20:29.999   1130773.6697  -4831253.5747   3994200.4388   1   8   0.0036   0.0077   0.0047  -0.0038  -0.0044   0.0026   0.00  345.1
2017/08/03 01:20:59.999   1130773.6684  -4831253.5721   3994200.4355   1   8   0.0036   0.0077   0.0047  -0.0038  -0.0044   0.0026   0.00  356.4
2017/08/03 01:21:29.999   1130773.6685  -4831253.5692   3994200.4349   1   8   0.0037   0.0077   0.0048  -0.0037  -0.0045   0.0026   0.00  366.8
2017/08/03 01:21:59.999   1130773.6696  -4831253.5813   3994200.4378   1   8   0.0038   0.0077   0.0047  -0.0038  -0.0045   0.0027   0.00  376.1
2017/08/03 01:22:29.999   1130773.6706  -4831253.5766   3994200.4390   1   8   0.0035   0.0077   0.0048  -0.0038  -0.0045   0.0027   0.00  378.9
2017/08/03 01:22:59.999   1130773.6715  -4831253.5773   3994200.4419   1   8   0.0037   0.0077   0.0048  -0.0038  -0.0045   0.0026   0.00  382.2
2017/08/03 01:23:29.999   1130773.6666  -4831253.5749   3994200.4375   1   8   0.0036   0.0077   0.0048  -0.0038  -0.0045   0.0027   0.00  382.4
2017/08/03 01:23:59.999   1130773.6699  -4831253.5784   3994200.4367   1   8   0.0036   0.0077   0.0049  -0.0038  -0.0045   0.0027   0.00  386.3
2017/08/03 01:24:29.999   1130773.6680  -4831253.5742   3994200.4337   1   6   0.0039   0.0089   0.0066  -0.0042  -0.0061   0.0035   0.00  412.8
2017/08/03 01:24:59.999   1130773.6689  -4831253.5759   3994200.4317   1   6   0.0040   0.0089   0.0066  -0.0042  -0.0061   0.0036   0.00  416.9
2017/08/03 01:25:29.999   1130773.6690  -4831253.5739   3994200.4315   1   7   0.0032   0.0077   0.0058  -0.0028  -0.0049   0.0025   0.00    4.0
2017/08/03 01:25:59.999   1130773.6671  -4831253.5769   3994200.4347   1   7   0.0031   0.0076   0.0058  -0.0029  -0.0049   0.0024   0.00    7.4
2017/08/03 01:26:29.999   1130773.6675  -4831253.5736   3994200.4373   1   7   0.0031   0.0076   0.0058  -0.0028  -0.0049   0.0025   0.00   10.9
2017/08/03 01:26:59.999   1130773.6673  -4831253.5720   3994200.4336   1   7   0.0032   0.0076   0.0059  -0.0028  -0.0049   0.0025   0.00   14.8
2017/08/03 01:27:29.999   1130773.6672  -4831253.5700   3994200.4305   1   7   0.0032   0.0076   0.0058  -0.0028  -0.0049   0.0026   0.00   18.4
2017/08/03 01:27:59.999   1130773.6689  -4831253.5724   3994200.4346   1   7   0.0034   0.0076   0.0060  -0.0029  -0.0049   0.0025   0.00   22.0
2017/08/03 01:28:29.999   1130773.6670  -4831253.5698   3994200.4345   1   7   0.0032   0.0075   0.0059  -0.0029  -0.0049   0.0026   0.00   26.0
2017/08/03 01:28:59.999   1130773.6672  -4831253.5705   3994200.4335   1   7   0.0033   0.0075   0.0059  -0.0029  -0.0049   0.0026   0.00   29.9
2017/08/03 01:29:29.999   1130773.6682  -4831253.5725   3994200.4370   1   7   0.0032   0.0075   0.0060  -0.0029  -0.0049   0.0025   0.00   33.9
2017/08/03 01:29:59.999   1130773.6681  -4831253.5707   3994200.4392   1   7   0.0031   0.0074   0.0059  -0.0029  -0.0050   0.0026   0.00   38.4
2017/08/03 01:30:29.999   1130773.6669  -4831253.5668   3994200.4340   1   7   0.0033   0.0074   0.0060  -0.0029  -0.0049   0.0026   0.00   42.6
2017/08/03 01:30:59.999   1130773.6665  -4831253.5714   3994200.4377   1   7   0.0034   0.0074   0.0060  -0.0029  -0.0050   0.0027   0.00   47.5
2017/08/03 01:31:29.999   1130773.6660  -4831253.5676   3994200.4322   1   7   0.0033   0.0074   0.0060  -0.0029  -0.0050   0.0027   0.00   52.0
2017/08/03 01:31:59.999   1130773.6684  -4831253.5688   3994200.4364   1   7   0.0033   0.0073   0.0061  -0.0029  -0.0050   0.0027   0.00   57.2
2017/08/03 01:32:29.999   1130773.6654  -4831253.5732   3994200.4317   1   7   0.0032   0.0073   0.0061  -0.0029  -0.0050   0.0027   0.00   62.2
2017/08/03 01:32:59.999   1130773.6687  -4831253.5760   3994200.4395   1   7   0.0032   0.0073   0.0061  -0.0029  -0.0050   0.0027   0.00   65.6
2017/08/03 01:33:29.999   1130773.6668  -4831253.5745   3994200.4339   1   7   0.0032   0.0073   0.0061  -0.0029  -0.0050   0.0027   0.00   69.0
2017/08/03 01:33:59.999   1130773.6673  -4831253.5693   3994200.4337   1   7   0.0031   0.0072   0.0061  -0.0028  -0.0050   0.0028   0.00   72.8
2017/08/03 01:34:29.999   1130773.6704  -4831253.5813   3994200.4358   1   7   0.0033   0.0072   0.0062  -0.0029  -0.0050   0.0028   0.00   75.3
2017/08/03 01:34:59.999   1130773.6686  -4831253.5703   3994200.4346   1   7   0.0033   0.0072   0.0062  -0.0029  -0.0050   0.0027   0.00   78.1
2017/08/03 01:35:29.999   1130773.6655  -4831253.5689   3994200.4354   1   7   0.0034   0.0072   0.0063  -0.0029  -0.0050   0.0028   0.00   82.2
2017/08/03 01:35:59.999   1130773.6670  -4831253.5697   3994200.4359   1   7   0.0030   0.0072   0.0063  -0.0029  -0.0050   0.0028   0.00   85.7
2017/08/03 01:36:29.999   1130773.6663  -4831253.5638   3994200.4270   1   7   0.0035   0.0072   0.0063  -0.0030  -0.0050   0.0029   0.00   88.1
2017/08/03 01:36:59.999   1130773.6673  -4831253.5747   3994200.4341   1   7   0.0033   0.0071   0.0063  -0.0029  -0.0051   0.0028   0.00   92.9
2017/08/03 01:37:29.999   1130773.6667  -4831253.5707   3994200.4341   1   7   0.0034   0.0071   0.0063  -0.0030  -0.0051   0.0028   0.00   96.8
2017/08/03 01:37:59.999   1130773.6710  -4831253.5775   3994200.4405   1   7   0.0032   0.0071   0.0064  -0.0029  -0.0051   0.0028   0.00  101.7
2017/08/03 01:38:29.999   1130773.6681  -4831253.5772   3994200.4349   1   7   0.0033   0.0071   0.0064  -0.0030  -0.0051   0.0030   0.00  107.7
2017/08/03 01:38:59.999   1130773.6679  -4831253.5756   3994200.4389   1   7   0.0034   0.0071   0.0065  -0.0029  -0.0052   0.0029   0.00  115.2
2017/08/03 01:39:29.999   1130773.6668  -4831253.5706   3994200.4339   1   7   0.0033   0.0071   0.0064  -0.0029  -0.0051   0.0031   0.00  120.1
2017/08/03 01:39:59.999   1130773.6682  -4831253.5723   3994200.4329   1   7   0.0031   0.0071   0.0065  -0.0029  -0.0052   0.0029   0.00  126.2
2017/08/03 01:40:29.999   1130773.6699  -4831253.5753   3994200.4362   1   7   0.0033   0.0070   0.0066  -0.0029  -0.0052   0.0030   0.00  136.0
2017/08/03 01:40:59.999   1130773.6691  -4831253.5757   3994200.4371   1   7   0.0032   0.0071   0.0066  -0.0028  -0.0052   0.0030   0.00  143.2
2017/08/03 01:41:29.999   1130773.6677  -4831253.5770   3994200.4338   1   7   0.0032   0.0069   0.0066  -0.0030  -0.0052   0.0030   0.00  152.1
2017/08/03 01:41:59.999   1130773.6686  -4831253.5780   3994200.4389   1   7   0.0031   0.0069   0.0066  -0.0031  -0.0052   0.0031   0.00  159.5
2017/08/03 01:42:29.999   1130773.6678  -4831253.5731   3994200.4364   1   7   0.0032   0.0069   0.0067  -0.0030  -0.0052   0.0031   0.00  166.3
2017/08/03 01:42:59.999   1130773.6675  -4831253.5689   3994200.4319   1   7   0.0031   0.0069   0.0067  -0.0030  -0.0053   0.0031   0.00  172.0
2017/08/03 01:43:29.999   1130773.6689  -4831253.5722   3994200.4355   1   7   0.0032   0.0069   0.0068  -0.0031  -0.0053   0.0030   0.00  176.3
2017/08/03 01:43:59.999   1130773.6681  -4831253.5726   3994200.4365   1   7   0.0034   0.0069   0.0068  -0.0030  -0.0053   0.0031   0.00  182.0
2017/08/03 01:44:29.999   1130773.6676  -4831253.5745   3994200.4361   1   7   0.0032   0.0069   0.0068  -0.0031  -0.0053   0.0032   0.00  190.9
2017/08/03 01:44:59.999   1130773.6694  -4831253.5763   3994200.4340   1   7   0.0033   0.0069   0.0069  -0.0031  -0.0053   0.0032   0.00  201.6
2017/08/03 01:45:29.999   1130773.6679  -4831253.5755   3994200.4381   1   7   0.0032   0.0069   0.0069  -0.0031  -0.0054   0.0032   0.00  213.5
2017/08/03 01:45:59.999   1130773.6665  -4831253.5721   3994200.4349   1   7   0.0031   0.0068   0.0069  -0.0032  -0.0054   0.0032   0.00  224.3
2017/08/03 01:46:29.999   1130773.6647  -4831253.5674   3994200.4285   1   7   0.0031   0.0068   0.0070  -0.0031  -0.0054   0.0033   0.00  234.0
2017/08/03 01:46:59.999   1130773.6694  -4831253.5785   3994200.4376   1   7   0.0033   0.0069   0.0070  -0.0031  -0.0054   0.0033   0.00  243.5
2017/08/03 01:47:29.999   1130773.6687  -4831253.5812   3994200.4409   1   7   0.0034   0.0068   0.0071  -0.0031  -0.0055   0.0033   0.00  258.1
2017/08/03 01:47:59.999   1130773.6673  -4831253.5710   3994200.4322   1   7   0.0034   0.0069   0.0071  -0.0030  -0.0055   0.0034   0.00  271.2
2017/08/03 01:48:29.999   1130773.6667  -4831253.5703   3994200.4334   1   7   0.0032   0.0069   0.0072  -0.0031  -0.0055   0.0034   0.00  286.9
2017/08/03 01:48:59.999   1130773.6688  -4831253.5738   3994200.4370   1   7   0.0031   0.0068   0.0072  -0.0032  -0.0055   0.0034   0.00  296.5
2017/08/03 01:49:29.999   1130773.6694  -4831253.5731   3994200.4357   1   7   0.0032   0.0068   0.0072  -0.0032  -0.0056   0.0034   0.00  311.4
2017/08/03 01:49:59.999   1130773.6657  -4831253.5679   3994200.4295   1   7   0.0032   0.0068   0.0073  -0.0032  -0.0056   0.0035   0.00  324.4
2017/08/03 01:50:29.999   1130773.6694  -4831253.5741   3994200.4366   1   7   0.0031   0.0068   0.0073  -0.0033  -0.0056   0.0035   0.00  333.3
2017/08/03 01:50:59.999   1130773.6675  -4831253.5723   3994200.4328   1   7   0.0034   0.0068   0.0074  -0.0032  -0.0056   0.0035   0.00  350.1
2017/08/03 01:51:29.999   1130773.6670  -4831253.5730   3994200.4347   1   7   0.0035   0.0068   0.0074  -0.0032  -0.0057   0.0035   0.00  365.4
2017/08/03 01:51:59.999   1130773.6686  -4831253.5729   3994200.4323   1   7   0.0033   0.0068   0.0075  -0.0032  -0.0057   0.0035   0.00  374.4
2017/08/03 01:52:29.999   1130773.6674  -4831253.5705   3994200.4325   1   7   0.0033   0.0069   0.0075  -0.0031  -0.0057   0.0036   0.00  395.2
2017/08/03 01:52:59.999   1130773.6696  -4831253.5762   3994200.4392   1   7   0.0034   0.0069   0.0075  -0.0032  -0.0057   0.0037   0.00  417.6
2017/08/03 01:53:29.999   1130773.6682  -4831253.5708   3994200.4311   1   7   0.0034   0.0068   0.0076  -0.0033  -0.0058   0.0037   0.00  430.0
2017/08/03 01:53:59.999   1130773.6689  -4831253.5750   3994200.4380   1   7   0.0032   0.0068   0.0077  -0.0033  -0.0058   0.0037   0.00  434.2
2017/08/03 01:54:29.999   1130773.6655  -4831253.5699   3994200.4345   1   7   0.0033   0.0068   0.0077  -0.0034  -0.0058   0.0038   0.00  447.3
2017/08/03 01:54:59.999   1130773.6681  -4831253.5712   3994200.4325   1   7   0.0036   0.0069   0.0078  -0.0032  -0.0058   0.0038   0.00  466.6
2017/08/03 01:55:29.999   1130773.6692  -4831253.5728   3994200.4371   1   7   0.0032   0.0068   0.0078  -0.0033  -0.0059   0.0038   0.00  479.4
2017/08/03 01:55:59.999   1130773.6686  -4831253.5729   3994200.4393   1   7   0.0034   0.0068   0.0079  -0.0034  -0.0059   0.0039   0.00  497.0
2017/08/03 01:56:29.999   1130773.6659  -4831253.5677   3994200.4331   1   7   0.0032   0.0067   0.0079  -0.0035  -0.0060   0.0039   0.00  515.8
2017/08/03 01:56:59.999   1130773.6660  -4831253.5714   3994200.4362   1   7   0.0033   0.0068   0.0080  -0.0035  -0.0060   0.0039   0.00  549.7
2017/08/03 01:57:29.999   1130773.6650  -4831253.5694   3994200.4299   1   7   0.0034   0.0068   0.0080  -0.0034  -0.0060   0.0039   0.00  562.3
2017/08/03 01:57:59.999   1130773.6692  -4831253.5771   3994200.4356   1   7   0.0032   0.0068   0.0081  -0.0033  -0.0060   0.0041   0.00  579.0
2017/08/03 01:58:29.999   1130773.6670  -4831253.5704   3994200.4271   1   7   0.0035   0.0069   0.0081  -0.0033  -0.0061   0.0040   0.00  582.1
2017/08/03 01:58:59.999   1130773.6696  -4831253.5751   3994200.4375   1   7   0.0034   0.0068   0.0082  -0.0035  -0.0061   0.0040   0.00  607.8
2017/08/03 01:59:29.999   1130773.6666  -4831253.5722   3994200.4350   1   7   0.0036   0.0069   0.0082  -0.0034  -0.0062   0.0040   0.00  630.4
2017/08/03 01:59:59.999   1130773.6671  -4831253.5762   3994200.4366   1   7   0.0036   0.0069   0.0083  -0.0034  -0.0062   0.0040   0.00  654.9
2017/08/03 02:00:29.999   1130773.6710  -4831253.5755   3994200.4381   1   7   0.0035   0.0069   0.0083  -0.0035  -0.0062   0.0041   0.00  662.2
2017/08/03 02:00:59.999   1130773.6684  -4831253.5744   3994200.4346   1   7   0.0034   0.0069   0.0084  -0.0035  -0.0062   0.0042   0.00  688.8
2017/08/03 02:01:29.999   1130773.6667  -4831253.5738   3994200.4335   1   7   0.0035   0.0069   0.0084  -0.0036  -0.0063   0.0042   0.00  700.9
2017/08/03 02:01:59.999   1130773.6657  -4831253.5697   3994200.4313   1   7   0.0036   0.0069   0.0085  -0.0036  -0.0063   0.0042   0.00  712.2
2017/08/03 02:02:29.999   1130773.6683  -4831253.5743   3994200.4365   1   7   0.0036   0.0069   0.0085  -0.0036  -0.0063   0.0043   0.00  724.4
2017/08/03 02:02:59.999   1130773.6681  -4831253.5720   3994200.4342   1   7   0.0037   0.0069   0.0086  -0.0036  -0.0064   0.0043   0.00  752.0
2017/08/03 02:03:29.999   1130773.6697  -4831253.5718   3994200.4354   1   7   0.0035   0.0069   0.0087  -0.0036  -0.0064   0.0043   0.00  764.5
2017/08/03 02:03:59.999   1130773.6677  -4831253.5731   3994200.4350   1   7   0.0036   0.0069   0.0087  -0.0037  -0.0064   0.0044   0.00  784.3
2017/08/03 02:04:29.999   1130773.6664  -4831253.5727   3994200.4365   1   7   0.0037   0.0069   0.0088  -0.0037  -0.0065   0.0044   0.00  799.4
2017/08/03 02:04:59.999   1130773.6659  -4831253.5719   3994200.4354   1   7   0.0037   0.0071   0.0088  -0.0033  -0.0065   0.0045   0.00  799.2
2017/08/03 02:05:29.999   1130773.6650  -4831253.5722   3994200.4336   1   7   0.0036   0.0069   0.0089  -0.0038  -0.0066   0.0044   0.00  818.2
2017/08/03 02:05:59.999   1130773.6665  -4831253.5734   3994200.4318   1   7   0.0037   0.0070   0.0089  -0.0037  -0.0066   0.0045   0.00  825.6
2017/08/03 02:06:29.999   1130773.6678  -4831253.5786   3994200.4364   1   7   0.0036   0.0070   0.0090  -0.0038  -0.0066   0.0045   0.00  830.5
2017/08/03 02:06:59.999   1130773.6650  -4831253.5669   3994200.4261   1   7   0.0038   0.0070   0.0090  -0.0037  -0.0067   0.0045   0.00  834.2
2017/08/03 02:07:29.999   1130773.6695  -4831253.5764   3994200.4386   1   7   0.0036   0.0070   0.0091  -0.0037  -0.0067   0.0046   0.00  826.2
2017/08/03 02:07:59.999   1130773.6659  -4831253.5706   3994200.4361   1   7   0.0037   0.0071   0.0091  -0.0037  -0.0067   0.0046   0.00  829.4
2017/08/03 02:08:29.999   1130773.6670  -4831253.5736   3994200.4365   1   7   0.0037   0.0070   0.0092  -0.0038  -0.0068   0.0047   0.00  830.4
2017/08/03 02:08:59.999   1130773.6653  -4831253.5678   3994200.4308   1   7   0.0035   0.0070   0.0092  -0.0039  -0.0068   0.0047   0.00  841.0
2017/08/03 02:09:29.999   1130773.6690  -4831253.5799   3994200.4415   1   7   0.0037   0.0071   0.0093  -0.0039  -0.0068   0.0047   0.00  846.5
2017/08/03 02:09:59.999   1130773.6663  -4831253.5772   3994200.4398   1   7   0.0037   0.0071   0.0093  -0.0038  -0.0069   0.0048   0.00  850.8
2017/08/03 02:10:29.999   1130773.6673  -4831253.5748   3994200.4358   1   7   0.0037   0.0071   0.0093  -0.0039  -0.0069   0.0048   0.00  862.3
2017/08/03 02:10:59.999   1130773.6680  -4831253.5751   3994200.4397   1   7   0.0036   0.0071   0.0094  -0.0039  -0.0069   0.0048   0.00  840.2
2017/08/03 02:11:29.999   1130773.6655  -4831253.5706   3994200.4356   1   7   0.0038   0.0071   0.0094  -0.0040  -0.0070   0.0049   0.00  860.1
2017/08/03 02:11:59.999   1130773.6671  -4831253.5740   3994200.4368   1   7   0.0037   0.0072   0.0095  -0.0040  -0.0070   0.0048   0.00  876.2
2017/08/03 02:12:29.999   1130773.6682  -4831253.5698   3994200.4348   1   7   0.0037   0.0072   0.0095  -0.0040  -0.0070   0.0049   0.00  894.1
2017/08/03 02:12:59.999   1130773.6653  -4831253.5696   3994200.4311   1   7   0.0038   0.0072   0.0095  -0.0041  -0.0071   0.0049   0.00  902.8
2017/08/03 02:13:29.999   1130773.6689  -4831253.5766   3994200.4337   1   7   0.0038   0.0072   0.0096  -0.0041  -0.0071   0.0049   0.00  897.2
2017/08/03 02:13:59.999   1130773.6663  -4831253.5706   3994200.4313   1   7   0.0039   0.0071   0.0096  -0.0040  -0.0071   0.0049   0.00  933.1
2017/08/03 02:14:29.999   1130773.6693  -4831253.5752   3994200.4382   1   7   0.0039   0.0072   0.0096  -0.0041  -0.0071   0.0050   0.00  958.2
2017/08/03 02:14:59.999   1130773.6659  -4831253.5674   3994200.4337   1   7   0.0038   0.0073   0.0097  -0.0040  -0.0071   0.0050   0.00  976.7
2017/08/03 02:15:29.999   1130773.6667  -4831253.5698   3994200.4325   1   7   0.0038   0.0073   0.0097  -0.0041  -0.0072   0.0051   0.00  995.1
2017/08/03 02:15:59.999   1130773.6659  -4831253.5742   3994200.4361   1   7   0.0039   0.0073   0.0097  -0.0040  -0.0072   0.0051   0.00  999.9
2017/08/03 02:16:29.999   1130773.6683  -4831253.5726   3994200.4345   1   7   0.0040   0.0073   0.0098  -0.0041  -0.0072   0.0051   0.00  999.9
2017/08/03 02:16:59.999   1130773.6683  -4831253.5716   3994200.4322   1   7   0.0039   0.0073   0.0098  -0.0041  -0.0072   0.0051   0.00  999.9
2017/08/03 02:17:29.999   1130773.6637  -4831253.5627   3994200.4230   1   7   0.0040   0.0074   0.0098  -0.0041  -0.0072   0.0051   0.00  999.9
2017/08/03 02:17:59.999   1130773.6688  -4831253.5758   3994200.4335   1   7   0.0039   0.0073   0.0098  -0.0042  -0.0073   0.0052   0.00  999.9
2017/08/03 02:18:29.999   1130773.6671  -4831253.5729   3994200.4344   1   7   0.0039   0.0073   0.0098  -0.0042  -0.0073   0.0052   0.00  999.9
2017/08/03 02:18:59.999   1130773.6691  -4831253.5740   3994200.4357   1   7   0.0041   0.0074   0.0098  -0.0042  -0.0073   0.0052   0.00  999.9
2017/08/03 02:19:29.999   1130773.6671  -4831253.5732   3994200.4389   1   7   0.0039   0.0073   0.0099  -0.0043  -0.0073   0.0052   0.00  999.9
2017/08/03 02:19:59.999   1130773.6674  -4831253.5757   3994200.4388   1   7   0.0040   0.0073   0.0098  -0.0041  -0.0074   0.0052   0.00  999.9
2017/08/03 02:20:29.999   1130773.6675  -4831253.5780   3994200.4441   1   7   0.0040   0.0074   0.0099  -0.0042  -0.0073   0.0052   0.00  999.9
2017/08/03 02:20:59.999   1130773.6668  -4831253.5685   3994200.4282   1   6   0.0041   0.0089   0.0106  -0.0048  -0.0085   0.0056   0.00  999.9
2017/08/03 02:21:29.999   1130773.6707  -4831253.5779   3994200.4431   1   6   0.0041   0.0090   0.0106  -0.0048  -0.0085   0.0055   0.00  999.9
2017/08/03 02:21:59.999   1130773.6698  -4831253.5737   3994200.4365   1   6   0.0041   0.0089   0.0105  -0.0049  -0.0086   0.0055   0.00  999.9
2017/08/03 02:22:29.999   1130773.6699  -4831253.5713   3994200.4361   1   6   0.0041   0.0089   0.0106  -0.0048  -0.0086   0.0056   0.00  999.9
2017/08/03 02:22:59.999   1130773.6683  -4831253.5640   3994200.4251   1   7   0.0032   0.0074   0.0073  -0.0031  -0.0059   0.0032   0.00   10.4
2017/08/03 02:23:29.999   1130773.6685  -4831253.5671   3994200.4272   1   7   0.0031   0.0074   0.0072  -0.0031  -0.0059   0.0031   0.00   20.4
2017/08/03 02:23:59.999   1130773.6673  -4831253.5662   3994200.4267   1   7   0.0033   0.0074   0.0072  -0.0030  -0.0059   0.0031   0.00   30.7
2017/08/03 02:24:29.999   1130773.6651  -4831253.5643   3994200.4301   1   7   0.0032   0.0073   0.0072  -0.0031  -0.0059   0.0031   0.00   43.3
2017/08/03 02:24:59.999   1130773.6682  -4831253.5703   3994200.4374   1   7   0.0030   0.0073   0.0072  -0.0032  -0.0059   0.0031   0.00   54.0
2017/08/03 02:25:29.999   1130773.6670  -4831253.5717   3994200.4382   1   7   0.0030   0.0073   0.0071  -0.0031  -0.0059   0.0031   0.00   65.3
2017/08/03 02:25:59.999   1130773.6690  -4831253.5738   3994200.4385   1   7   0.0031   0.0073   0.0071  -0.0031  -0.0059   0.0030   0.00   78.7
2017/08/03 02:26:29.999   1130773.6660  -4831253.5721   3994200.4369   1   7   0.0031   0.0073   0.0071  -0.0030  -0.0058   0.0031   0.00   90.8
2017/08/03 02:26:59.999   1130773.6657  -4831253.5679   3994200.4279   1   7   0.0033   0.0073   0.0071  -0.0029  -0.0057   0.0032   0.00  102.3
2017/08/03 02:27:29.999   1130773.6669  -4831253.5706   3994200.4281   1   7   0.0029   0.0072   0.0070  -0.0031  -0.0058   0.0031   0.00  115.1
2017/08/03 02:27:59.999   1130773.6641  -4831253.5646   3994200.4245   1   7   0.0031   0.0072   0.0070  -0.0031  -0.0057   0.0030   0.00  131.0
2017/08/03 02:28:29.999   1130773.6653  -4831253.5704   3994200.4333   1   7   0.0033   0.0072   0.0070  -0.0031  -0.0057   0.0030   0.00  147.3
2017/08/03 02:28:59.999   1130773.6680  -4831253.5690   3994200.4333   1   7   0.0032   0.0072   0.0070  -0.0031  -0.0057   0.0030   0.00  160.4
2017/08/03 02:29:29.999   1130773.6671  -4831253.5659   3994200.4311   1   7   0.0033   0.0072   0.0070  -0.0030  -0.0057   0.0030   0.00  172.8
2017/08/03 02:29:59.999   1130773.6690  -4831253.5725   3994200.4348   1   7   0.0031   0.0072   0.0069  -0.0030  -0.0057   0.0030   0.00  187.1
2017/08/03 02:30:29.999   1130773.6694  -4831253.5705   3994200.4352   1   7   0.0031   0.0071   0.0069  -0.0031  -0.0056   0.0030   0.00  200.6
2017/08/03 02:30:59.999   1130773.6654  -4831253.5679   3994200.4333   1   7   0.0029   0.0071   0.0068  -0.0030  -0.0057   0.0031   0.00  213.7
2017/08/03 02:31:29.999   1130773.6660  -4831253.5661   3994200.4322   1   7   0.0031   0.0071   0.0068  -0.0030  -0.0056   0.0030   0.00  229.8
2017/08/03 02:31:59.999   1130773.6649  -4831253.5661   3994200.4304   1   7   0.0031   0.0071   0.0068  -0.0031  -0.0055   0.0029   0.00  242.2
2017/08/03 02:32:29.999   1130773.6657  -4831253.5665   3994200.4321   1   7   0.0033   0.0071   0.0068  -0.0030  -0.0056   0.0030   0.00  247.2
2017/08/03 02:32:59.999   1130773.6660  -4831253.5686   3994200.4351   1   7   0.0032   0.0071   0.0068  -0.0030  -0.0055   0.0029   0.00  240.1
2017/08/03 02:33:29.999   1130773.6679  -4831253.5739   3994200.4378   1   7   0.0030   0.0071   0.0067  -0.0030  -0.0056   0.0030   0.00  254.9
2017/08/03 02:33:59.999   1130773.6702  -4831253.5770   3994200.4385   1   7   0.0032   0.0071   0.0067  -0.0030  -0.0055   0.0029   0.00  253.2
2017/08/03 02:34:29.999   1130773.6694  -4831253.5747   3994200.4335   1   7   0.0032   0.0071   0.0066  -0.0031  -0.0054   0.0030   0.00  262.2
2017/08/03 02:34:59.999   1130773.6664  -4831253.5708   3994200.4318   1   7   0.0031   0.0070   0.0067  -0.0031  -0.0055   0.0028   0.00  269.7
2017/08/03 02:35:29.999   1130773.6661  -4831253.5697   3994200.4310   1   7   0.0031   0.0070   0.0066  -0.0031  -0.0055   0.0029   0.00  272.5
2017/08/03 02:35:59.999   1130773.6682  -4831253.5710   3994200.4354   1   7   0.0032   0.0071   0.0066  -0.0030  -0.0054   0.0028   0.00  291.2
2017/08/03 02:36:29.999   1130773.6666  -4831253.5684   3994200.4351   1   7   0.0030   0.0070   0.0065  -0.0031  -0.0054   0.0028   0.00  321.7
2017/08/03 02:36:59.999   1130773.6672  -4831253.5638   3994200.4333   1   7   0.0030   0.0070   0.0065  -0.0031  -0.0054   0.0029   0.00  344.9
2017/08/03 02:37:29.999   1130773.6679  -4831253.5801   3994200.4468   1   7   0.0033   0.0070   0.0066  -0.0031  -0.0054   0.0027   0.00  353.6
2017/08/03 02:37:59.999   1130773.6668  -4831253.5690   3994200.4365   1   7   0.0032   0.0070   0.0065  -0.0031  -0.0053   0.0027   0.00  381.0
2017/08/03 02:38:29.999   1130773.6690  -4831253.5748   3994200.4392   1   7   0.0032   0.0070   0.0065  -0.0031  -0.0054   0.0027   0.00  383.8
2017/08/03 02:38:59.999   1130773.6683  -4831253.5738   3994200.4387   1   7   0.0032   0.0071   0.0064  -0.0030  -0.0053   0.0028   0.00  385.0
2017/08/03 02:39:29.999   1130773.6693  -4831253.5738   3994200.4359   1   7   0.0031   0.0070   0.0064  -0.0031  -0.0053   0.0028   0.00  410.1
2017/08/03 02:39:59.999   1130773.6676  -4831253.5750   3994200.4394   1   7   0.0032   0.0070   0.0064  -0.0030  -0.0053   0.0027   0.00  411.8
2017/08/03 02:40:29.999   1130773.6703  -4831253.5801   3994200.4429   1   7   0.0032   0.0070   0.0064  -0.0032  -0.0053   0.0027   0.00  427.7
2017/08/03 02:40:59.999   1130773.6695  -4831253.5776   3994200.4401   1   7   0.0031   0.0070   0.0064  -0.0031  -0.0053   0.0027   0.00  438.4
2017/08/03 02:41:29.999   1130773.6674  -4831253.5788   3994200.4419   1   7   0.0029   0.0070   0.0063  -0.0031  -0.0052   0.0026   0.00  456.2
2017/08/03 02:41:59.999   1130773.6686  -4831253.5706   3994200.4310   1   7   0.0032   0.0070   0.0062  -0.0031  -0.0053   0.0027   0.00  466.1
2017/08/03 02:42:29.999   1130773.6678  -4831253.5763   3994200.4427   1   7   0.0031   0.0070   0.0063  -0.0031  -0.0052   0.0027   0.00  487.7
2017/08/03 02:42:59.999   1130773.6678  -4831253.5673   3994200.4346   1   7   0.0032   0.0070   0.0062  -0.0031  -0.0052   0.0028   0.00  498.3
2017/08/03 02:43:29.999   1130773.6713  -4831253.5728   3994200.4410   1   7   0.0032   0.0070   0.0062  -0.0031  -0.0052   0.0026   0.00  518.7
2017/08/03 02:43:59.999   1130773.6700  -4831253.5725   3994200.4379   1   7   0.0033   0.0070   0.0062  -0.0032  -0.0051   0.0026   0.00  547.0
2017/08/03 02:44:29.999   1130773.6694  -4831253.5738   3994200.4355   1   7   0.0034   0.0070   0.0061  -0.0031  -0.0052   0.0026   0.00  563.3
2017/08/03 02:44:59.999   1130773.6674  -4831253.5725   3994200.4301   1   7   0.0032   0.0069   0.0061  -0.0032  -0.0052   0.0026   0.00  574.7
2017/08/03 02:45:29.999   1130773.6685  -4831253.5765   3994200.4388   1   7   0.0033   0.0069   0.0061  -0.0031  -0.0052   0.0025   0.00  590.3
2017/08/03 02:45:59.999   1130773.6675  -4831253.5758   3994200.4373   1   7   0.0030   0.0069   0.0060  -0.0032  -0.0051   0.0027   0.00  617.7
2017/08/03 02:46:29.999   1130773.6699  -4831253.5759   3994200.4388   1   7   0.0032   0.0069   0.0060  -0.0031  -0.0052   0.0026   0.00  655.4
2017/08/03 02:46:59.999   1130773.6693  -4831253.5737   3994200.4408   1   7   0.0033   0.0069   0.0060  -0.0032  -0.0051   0.0026   0.00  698.3
2017/08/03 02:47:29.999   1130773.6679  -4831253.5721   3994200.4369   1   7   0.0031   0.0069   0.0061  -0.0031  -0.0050   0.0026   0.00  728.6
2017/08/03 02:47:59.999   1130773.6706  -4831253.5747   3994200.4399   1   7   0.0033   0.0069   0.0060  -0.0032  -0.0051   0.0025   0.00  747.9
2017/08/03 02:48:29.999   1130773.6687  -4831253.5710   3994200.4353   1   7   0.0032   0.0069   0.0060  -0.0032  -0.0050   0.0026   0.00  790.3
2017/08/03 02:48:59.999   1130773.6680  -4831253.5747   3994200.4415   1   7   0.0032   0.0069   0.0058  -0.0032  -0.0051   0.0027   0.00  803.1
2017/08/03 02:49:29.999   1130773.6681  -4831253.5708   3994200.4387   1   7   0.0033   0.0069   0.0059  -0.0032  -0.0050   0.0026   0.00  839.1
2017/08/03 02:49:59.999   1130773.6656  -4831253.5689   3994200.4338   1   7   0.0034   0.0069   0.0059  -0.0032  -0.0051   0.0025   0.00  854.3
2017/08/03 02:50:29.999   1130773.6697  -4831253.5731   3994200.4388   1   7   0.0030   0.0069   0.0058  -0.0033  -0.0051   0.0027   0.00  873.4
2017/08/03 02:50:59.999   1130773.6685  -4831253.5716   3994200.4370   1   7   0.0031   0.0070   0.0058  -0.0033  -0.0050   0.0028   0.00  897.4
2017/08/03 02:51:29.999   1130773.6710  -4831253.5746   3994200.4396   1   7   0.0032   0.0070   0.0058  -0.0032  -0.0049   0.0025   0.00  944.1
2017/08/03 02:51:59.999   1130773.6674  -4831253.5723   3994200.4396   1   7   0.0032   0.0070   0.0058  -0.0032  -0.0049   0.0025   0.00  976.7
2017/08/03 02:52:29.999   1130773.6670  -4831253.5710   3994200.4393   1   7   0.0032   0.0069   0.0059  -0.0032  -0.0049   0.0024   0.00  999.9
2017/08/03 02:52:59.999   1130773.6655  -4831253.5733   3994200.4391   1   7   0.0033   0.0069   0.0058  -0.0033  -0.0049   0.0025   0.00  999.9
2017/08/03 02:53:29.999   1130773.6698  -4831253.5757   3994200.4396   1   7   0.0032   0.0070   0.0057  -0.0032  -0.0049   0.0025   0.00  999.9
2017/08/03 02:53:59.999   1130773.6674  -4831253.5742   3994200.4378   1   7   0.0033   0.0070   0.0058  -0.0033  -0.0049   0.0024   0.00  999.9
2017/08/03 02:54:29.999   1130773.6677  -4831253.5719   3994200.4369   1   7   0.0031   0.0070   0.0056  -0.0033  -0.0049   0.0025   0.00  999.9
2017/08/03 02:54:59.999   1130773.6668  -4831253.5696   3994200.4375   1   7   0.0033   0.0070   0.0057  -0.0033  -0.0050   0.0025   0.00  999.9
2017/08/03 02:55:29.999   1130773.6672  -4831253.5712   3994200.4385   1   7   0.0033   0.0070   0.0057  -0.0033  -0.0048   0.0024   0.00  999.9
2017/08/03 02:55:59.999   1130773.6682  -4831253.5736   3994200.4392   1   7   0.0032   0.0070   0.0057  -0.0033  -0.0049   0.0024   0.00  999.9
2017/08/03 02:56:29.999   1130773.6671  -4831253.5719   3994200.4357   1   7   0.0033   0.0070   0.0055  -0.0034  -0.0049   0.0026   0.00  999.9
2017/08/03 02:56:59.999   1130773.6667  -4831253.5727   3994200.4391   1   7   0.0033   0.0070   0.0055  -0.0033  -0.0048   0.0025   0.00  999.9
2017/08/03 02:57:29.999   1130773.6673  -4831253.5771   3994200.4443   1   7   0.0032   0.0070   0.0056  -0.0034  -0.0048   0.0024   0.00  999.9
2017/08/03 02:57:59.999   1130773.6676  -4831253.5738   3994200.4372   1   7   0.0033   0.0070   0.0056  -0.0034  -0.0048   0.0025   0.00  999.9
2017/08/03 02:58:29.999   1130773.6688  -4831253.5766   3994200.4420   1   7   0.0033   0.0070   0.0055  -0.0034  -0.0048   0.0024   0.00  999.9
2017/08/03 02:58:59.999   1130773.6678  -4831253.5726   3994200.4368   1   7   0.0034   0.0070   0.0055  -0.0033  -0.0049   0.0024   0.00  999.9
2017/08/03 02:59:29.999   1130773.6689  -4831253.5688   3994200.4379   1   7   0.0032   0.0070   0.0055  -0.0034  -0.0048   0.0025   0.00  999.9
2017/08/03 02:59:59.999   1130773.6669  -4831253.5706   3994200.4348   1   7   0.0033   0.0070   0.0055  -0.0035  -0.0048   0.0024   0.00  999.9
2017/08/03 03:00:29.999   1130773.6690  -4831253.5704   3994200.4324   1   7   0.0033   0.0071   0.0054  -0.0034  -0.0048   0.0025   0.00  999.9
2017/08/03 03:00:59.999   1130773.6657  -4831253.5731   3994200.4394   1   7   0.0032   0.0070   0.0055  -0.0035  -0.0047   0.0025   0.00  999.9
2017/08/03 03:01:29.999   1130773.6670  -4831253.5762   3994200.4405   1   7   0.0035   0.0071   0.0055  -0.0034  -0.0048   0.0024   0.00  999.9
2017/08/03 03:01:59.999   1130773.6671  -4831253.5726   3994200.4388   1   7   0.0034   0.0071   0.0054  -0.0035  -0.0048   0.0024   0.00  999.9
2017/08/03 03:02:29.999   1130773.6653  -4831253.5708   3994200.4382   1   7   0.0032   0.0071   0.0054  -0.0035  -0.0048   0.0023   0.00  999.9
2017/08/03 03:02:59.999   1130773.6690  -4831253.5715   3994200.4390   1   7   0.0033   0.0071   0.0054  -0.0035  -0.0047   0.0024   0.00  999.9
2017/08/03 03:03:29.999   1130773.6660  -4831253.5681   3994200.4375   1   7   0.0033   0.0071   0.0053  -0.0035  -0.0047   0.0024   0.00  999.9
2017/08/03 03:03:59.999   1130773.6682  -4831253.5740   3994200.4409   1   7   0.0034   0.0071   0.0055  -0.0035  -0.0047   0.0026   0.00  999.9
2017/08/03 03:04:29.999   1130773.6695  -4831253.5766   3994200.4476   1   7   0.0034   0.0072   0.0054  -0.0035  -0.0047   0.0024   0.00  999.9
2017/08/03 03:04:59.999   1130773.6655  -4831253.5639   3994200.4320   1   7   0.0034   0.0072   0.0053  -0.0036  -0.0047   0.0025   0.00  999.9
2017/08/03 03:05:29.999   1130773.6678  -4831253.5694   3994200.4379   1   7   0.0034   0.0071   0.0054  -0.0036  -0.0047   0.0023   0.00  999.9
2017/08/03 03:05:59.999   1130773.6693  -4831253.5725   3994200.4384   1   7   0.0033   0.0072   0.0053  -0.0036  -0.0047   0.0025   0.00  999.9
2017/08/03 03:06:29.999   1130773.6677  -4831253.5706   3994200.4360   1   7   0.0035   0.0072   0.0053  -0.0036  -0.0047   0.0025   0.00  999.9
2017/08/03 03:06:59.999   1130773.6685  -4831253.5698   3994200.4347   1   7   0.0034   0.0072   0.0052  -0.0036  -0.0047   0.0025   0.00  999.9
2017/08/03 03:07:29.999   1130773.6677  -4831253.5751   3994200.4368   1   7   0.0035   0.0072   0.0052  -0.0036  -0.0047   0.0024   0.00  999.9
2017/08/03 03:07:59.999   1130773.6671  -4831253.5755   3994200.4395   1   7   0.0035   0.0072   0.0052  -0.0037  -0.0046   0.0024   0.00  999.9
2017/08/03 03:08:29.999   1130773.6667  -4831253.5704   3994200.4360   1   7   0.0035   0.0073   0.0053  -0.0036  -0.0047   0.0022   0.00  999.9
2017/08/03 03:08:59.999   1130773.6667  -4831253.5731   3994200.4379   1   7   0.0033   0.0073   0.0052  -0.0036  -0.0046   0.0024   0.00  999.9
2017/08/03 03:09:29.999   1130773.6670  -4831253.5715   3994200.4351   1   7   0.0035   0.0073   0.0051  -0.0037  -0.0047   0.0023   0.00  999.9
2017/08/03 03:09:59.999   1130773.6675  -4831253.5717   3994200.4358   1   7   0.0035   0.0073   0.0052  -0.0037  -0.0047   0.0024   0.00  999.9
2017/08/03 03:10:29.999   1130773.6698  -4831253.5726   3994200.4376   1   7   0.0034   0.0073   0.0052  -0.0037  -0.0047   0.0023   0.00  999.9
2017/08/03 03:10:59.999   1130773.6672  -4831253.5733   3994200.4352   1   7   0.0036   0.0073   0.0051  -0.0038  -0.0047   0.0023   0.00  999.9
2017/08/03 03:11:29.999   1130773.6666  -4831253.5670   3994200.4340   1   7   0.0036   0.0073   0.0052  -0.0037  -0.0047   0.0024   0.00  999.9
2017/08/03 03:11:59.999   1130773.6663  -4831253.5687   3994200.4353   1   7   0.0037   0.0073   0.0051  -0.0038  -0.0047   0.0023   0.00  999.9
2017/08/03 03:12:29.999   1130773.6662  -4831253.5678   3994200.4375   1   7   0.0036   0.0074   0.0051  -0.0038  -0.0046   0.0024   0.00  988.6
2017/08/03 03:12:59.999   1130773.6656  -4831253.5674   3994200.4385   1   8   0.0031   0.0070   0.0048  -0.0033  -0.0041   0.0015   0.00    8.4
2017/08/03 03:13:29.999   1130773.6674  -4831253.5704   3994200.4349   1   8   0.0034   0.0070   0.0047  -0.0033  -0.0041   0.0017   0.00   15.7
2017/08/03 03:13:59.999   1130773.6666  -4831253.5702   3994200.4381   1   8   0.0033   0.0070   0.0047  -0.0033  -0.0041   0.0017   0.00   22.2
2017/08/03 03:14:29.999   1130773.6668  -4831253.5707   3994200.4350   1   8   0.0033   0.0070   0.0048  -0.0033  -0.0040   0.0014   0.00   30.2
2017/08/03 03:14:59.999   1130773.6679  -4831253.5706   3994200.4326   1   8   0.0034   0.0070   0.0046  -0.0033  -0.0040   0.0015   0.00   37.3
2017/08/03 03:15:29.999   1130773.6663  -4831253.5689   3994200.4349   1   8   0.0032   0.0070   0.0047  -0.0033  -0.0041   0.0013   0.00   43.3
2017/08/03 03:15:59.999   1130773.6683  -4831253.5705   3994200.4342   1   8   0.0033   0.0070   0.0046  -0.0033  -0.0040   0.0014   0.00   50.5
2017/08/03 03:16:29.999   1130773.6679  -4831253.5696   3994200.4351   1   8   0.0031   0.0070   0.0046  -0.0033  -0.0040   0.0013   0.00   55.8
2017/08/03 03:16:59.999   1130773.6650  -4831253.5675   3994200.4336   1   8   0.0032   0.0070   0.0046  -0.0034  -0.0040   0.0014   0.00   62.9
2017/08/03 03:17:29.999   1130773.6671  -4831253.5704   3994200.4353   1   8   0.0033   0.0071   0.0047  -0.0034  -0.0040   0.0014   0.00   68.5
2017/08/03 03:17:59.999   1130773.6681  -4831253.5733   3994200.4363   1   8   0.0033   0.0071   0.0047  -0.0034  -0.0041   0.0018   0.00   71.7
2017/08/03 03:18:29.999   1130773.6656  -4831253.5637   3994200.4321   1   8   0.0034   0.0070   0.0047  -0.0035  -0.0041   0.0014   0.00   74.9
2017/08/03 03:18:59.999   1130773.6666  -4831253.5716   3994200.4368   1   8   0.0035   0.0071   0.0047  -0.0034  -0.0040   0.0015   0.00   77.1
2017/08/03 03:19:29.999   1130773.6672  -4831253.5683   3994200.4358   1   8   0.0033   0.0071   0.0046  -0.0034  -0.0039   0.0013   0.00   79.4
2017/08/03 03:19:59.999   1130773.6668  -4831253.5701   3994200.4361   1   8   0.0031   0.0071   0.0046  -0.0034  -0.0040   0.0012   0.00   80.4
2017/08/03 03:20:29.999   1130773.6667  -4831253.5677   3994200.4356   1   8   0.0032   0.0072   0.0045  -0.0034  -0.0040   0.0012   0.00   83.7
2017/08/03 03:20:59.999   1130773.6694  -4831253.5691   3994200.4334   1   8   0.0033   0.0072   0.0046  -0.0034  -0.0040   0.0013   0.00   86.6
2017/08/03 03:21:29.999   1130773.6681  -4831253.5638   3994200.4316   1   8   0.0033   0.0072   0.0047  -0.0034  -0.0040   0.0015   0.00   90.3
2017/08/03 03:21:59.999   1130773.6680  -4831253.5712   3994200.4339   1   8   0.0032   0.0072   0.0045  -0.0034  -0.0040   0.0012   0.00   95.3
