% program   : RTKPOST ver.2.4.3 b34
% inp file  : C:\Users\Danisimo\Desktop\????\GODE\gode2150.17o
% inp file  : C:\Users\Danisimo\Desktop\????\HNPT\hnpt2150.17o
% inp file  : C:\Users\Danisimo\Desktop\????\BRDM00DLR_R_20172150000_01D_MN.rnx
% inp file  : C:\Users\Danisimo\Desktop\????\igs19604.sp3
% inp file  : C:\Users\Danisimo\Desktop\????\igs19604.clk_30s
% obs start : 2017/08/03 00:00:00.0 GPST (week1960 345600.0s)
% obs end   : 2017/08/03 23:59:30.0 GPST (week1960 431970.0s)
% pos mode  : Kinematic
% freqs     : L1+2
% solution  : Combined
% elev mask : 15.0 deg
% dynamics  : off
% tidecorr  : off
% ionos opt : Broadcast
% tropo opt : Saastamoinen
% ephemeris : Precise
% navi sys  : GPS
% amb res   : Continuous
% val thres : 3.0
% antenna1  :                       ( 0.0000  0.0000  0.0614)
% antenna2  :                       ( 0.0000  0.0000  0.0000)
% ref pos   :  1196626.2670  -4846358.5000   3956723.1230
%
% (x/y/z-ecef=WGS84,Q=1:fix,2:float,3:sbas,4:dgps,5:single,6:ppp,ns=# of satellites)
%  GPST                      x-ecef(m)      y-ecef(m)      z-ecef(m)   Q  ns   sdx(m)   sdy(m)   sdz(m)  sdxy(m)  sdyz(m)  sdzx(m) age(s)  ratio
2017/08/02 23:59:59.999   1130773.7245  -4831253.5605   3994200.2818   2   8   0.0048   0.0091   0.0085  -0.0024  -0.0070   0.0023   0.00    1.0
2017/08/03 00:00:29.999   1130773.7315  -4831253.5654   3994200.2806   2   8   0.0051   0.0091   0.0086  -0.0026  -0.0069   0.0021   0.00    1.3
2017/08/03 00:00:59.999   1130773.7340  -4831253.5606   3994200.2758   2   8   0.0052   0.0091   0.0085  -0.0023  -0.0068   0.0023   0.00    1.4
2017/08/03 00:01:29.999   1130773.7439  -4831253.5680   3994200.2785   2   8   0.0052   0.0091   0.0085  -0.0026  -0.0070   0.0020   0.00    1.7
2017/08/03 00:01:59.999   1130773.7531  -4831253.5779   3994200.2853   2   8   0.0050   0.0092   0.0085  -0.0024  -0.0068   0.0023   0.00    1.8
2017/08/03 00:02:29.999   1130773.7620  -4831253.5758   3994200.2833   2   8   0.0050   0.0090   0.0086  -0.0025  -0.0071   0.0018   0.00    1.8
2017/08/03 00:02:59.999   1130773.7685  -4831253.5728   3994200.2813   2   8   0.0049   0.0091   0.0085  -0.0024  -0.0069   0.0025   0.00    1.8
2017/08/03 00:03:29.999   1130773.7678  -4831253.5677   3994200.2823   2   8   0.0051   0.0091   0.0085  -0.0022  -0.0069   0.0026   0.00    1.8
2017/08/03 00:03:59.999   1130773.7694  -4831253.5532   3994200.2754   2   8   0.0050   0.0091   0.0083  -0.0025  -0.0069   0.0025   0.00    1.7
2017/08/03 00:04:29.999   1130773.7729  -4831253.5482   3994200.2732   2   8   0.0054   0.0090   0.0085  -0.0025  -0.0069   0.0017   0.00    1.6
2017/08/03 00:04:59.999   1130773.7750  -4831253.5496   3994200.2756   2   8   0.0052   0.0091   0.0084  -0.0022  -0.0068   0.0023   0.00    1.6
2017/08/03 00:05:29.999   1130773.7709  -4831253.5463   3994200.2783   2   8   0.0051   0.0091   0.0087  -0.0020  -0.0067   0.0023   0.00    1.5
2017/08/03 00:05:59.999   1130773.7633  -4831253.5397   3994200.2846   2   8   0.0052   0.0090   0.0083  -0.0022  -0.0069   0.0019   0.00    1.4
2017/08/03 00:06:29.999   1130773.7609  -4831253.5358   3994200.2925   2   8   0.0052   0.0090   0.0083  -0.0025  -0.0068   0.0019   0.00    1.4
2017/08/03 00:06:59.999   1130773.7549  -4831253.5258   3994200.2940   2   8   0.0051   0.0090   0.0083  -0.0025  -0.0069   0.0013   0.00    1.2
2017/08/03 00:07:29.999   1130773.7511  -4831253.5187   3994200.3001   2   8   0.0050   0.0090   0.0083  -0.0022  -0.0067   0.0023   0.00    1.1
2017/08/03 00:07:59.999   1130773.7507  -4831253.5202   3994200.3094   2   8   0.0051   0.0090   0.0082  -0.0025  -0.0066   0.0017   0.00    1.0
2017/08/03 00:08:29.999   1130773.7441  -4831253.5116   3994200.3180   2   8   0.0053   0.0090   0.0082  -0.0023  -0.0068   0.0020   0.00    1.1
2017/08/03 00:08:59.999   1130773.7394  -4831253.5168   3994200.3330   2   8   0.0051   0.0091   0.0083  -0.0024  -0.0066   0.0016   0.00    1.1
2017/08/03 00:09:29.999   1130773.7318  -4831253.5166   3994200.3355   2   8   0.0050   0.0090   0.0081  -0.0023  -0.0067   0.0011   0.00    1.2
2017/08/03 00:09:59.999   1130773.7295  -4831253.5142   3994200.3347   2   8   0.0053   0.0091   0.0081  -0.0021  -0.0065   0.0017   0.00    1.2
2017/08/03 00:10:29.999   1130773.7220  -4831253.5149   3994200.3364   2   8   0.0049   0.0091   0.0081  -0.0023  -0.0065   0.0012   0.00    1.2
2017/08/03 00:10:59.999   1130773.7171  -4831253.5108   3994200.3338   2   8   0.0050   0.0091   0.0081  -0.0020  -0.0066   0.0017   0.00    1.1
2017/08/03 00:11:29.999   1130773.7144  -4831253.5174   3994200.3324   2   8   0.0050   0.0089   0.0079  -0.0023  -0.0066   0.0017   0.00    1.1
2017/08/03 00:11:59.999   1130773.7133  -4831253.5173   3994200.3313   2   8   0.0049   0.0090   0.0079  -0.0026  -0.0066   0.0009   0.00    1.1
2017/08/03 00:12:29.999   1130773.7140  -4831253.5295   3994200.3438   2   8   0.0051   0.0091   0.0081  -0.0020  -0.0064   0.0012   0.00    1.0
2017/08/03 00:12:59.999   1130773.7156  -4831253.5362   3994200.3480   2   8   0.0050   0.0090   0.0081  -0.0026  -0.0066   0.0010   0.00    1.0
2017/08/03 00:13:29.999   1130773.7191  -4831253.5446   3994200.3502   2   8   0.0050   0.0091   0.0081  -0.0019  -0.0067  -0.0004   0.00    1.0
2017/08/03 00:13:59.999   1130773.7222  -4831253.5496   3994200.3533   2   8   0.0052   0.0092   0.0083  -0.0019  -0.0069  -0.0009   0.00    1.1
2017/08/03 00:14:29.999   1130773.7240  -4831253.5577   3994200.3606   2   8   0.0052   0.0095   0.0089  -0.0013  -0.0075  -0.0023   0.00    1.1
2017/08/03 00:14:59.999   1130773.7287  -4831253.5606   3994200.3549   2   7   0.0051   0.0095   0.0090  -0.0000  -0.0074  -0.0020   0.00    1.0
2017/08/03 00:15:29.999   1130773.7333  -4831253.5626   3994200.3534   2   7   0.0052   0.0096   0.0089  -0.0010  -0.0072  -0.0022   0.00    1.0
2017/08/03 00:15:59.999   1130773.7379  -4831253.5715   3994200.3498   2   7   0.0052   0.0094   0.0088  -0.0013  -0.0073  -0.0020   0.00    1.0
2017/08/03 00:16:29.999   1130773.7405  -4831253.5782   3994200.3515   2   7   0.0053   0.0094   0.0086  -0.0011  -0.0072  -0.0020   0.00    1.0
2017/08/03 00:16:59.999   1130773.7461  -4831253.5766   3994200.3550   2   7   0.0053   0.0094   0.0086  -0.0005  -0.0071  -0.0016   0.00    1.1
2017/08/03 00:17:29.999   1130773.7469  -4831253.5809   3994200.3494   2   7   0.0053   0.0094   0.0084  -0.0006  -0.0070  -0.0019   0.00    1.1
2017/08/03 00:17:59.999   1130773.7465  -4831253.5829   3994200.3538   2   7   0.0054   0.0095   0.0083  -0.0010  -0.0069  -0.0018   0.00    1.1
2017/08/03 00:18:29.999   1130773.7505  -4831253.5895   3994200.3548   2   7   0.0053   0.0093   0.0082  -0.0015  -0.0069  -0.0019   0.00    1.2
2017/08/03 00:18:59.999   1130773.7517  -4831253.5805   3994200.3449   2   7   0.0050   0.0093   0.0081   0.0007  -0.0068  -0.0017   0.00    1.2
2017/08/03 00:19:29.999   1130773.7514  -4831253.5804   3994200.3545   2   7   0.0051   0.0093   0.0081  -0.0006  -0.0067  -0.0017   0.00    1.2
2017/08/03 00:19:59.999   1130773.7544  -4831253.5811   3994200.3562   2   7   0.0051   0.0093   0.0080  -0.0012  -0.0067  -0.0017   0.00    1.3
2017/08/03 00:20:29.999   1130773.7556  -4831253.5777   3994200.3556   2   7   0.0050   0.0092   0.0079  -0.0018  -0.0066  -0.0019   0.00    1.3
2017/08/03 00:20:59.999   1130773.7579  -4831253.5824   3994200.3562   2   7   0.0053   0.0092   0.0078  -0.0017  -0.0066  -0.0016   0.00    1.4
2017/08/03 00:21:29.999   1130773.7573  -4831253.5831   3994200.3549   2   7   0.0052   0.0092   0.0078  -0.0018  -0.0065  -0.0017   0.00    1.4
2017/08/03 00:21:59.999   1130773.7528  -4831253.5808   3994200.3477   2   7   0.0050   0.0091   0.0077  -0.0023  -0.0065  -0.0017   0.00    1.4
2017/08/03 00:22:29.999   1130773.7485  -4831253.5808   3994200.3532   2   7   0.0051   0.0090   0.0076  -0.0011  -0.0064  -0.0014   0.00    1.5
2017/08/03 00:22:59.999   1130773.7442  -4831253.5920   3994200.3643   2   7   0.0051   0.0091   0.0075  -0.0013  -0.0063  -0.0014   0.00    1.5
2017/08/03 00:23:29.999   1130773.7390  -4831253.6002   3994200.3747   2   7   0.0051   0.0091   0.0075  -0.0018  -0.0063  -0.0016   0.00    1.5
2017/08/03 00:23:59.999   1130773.7382  -4831253.6146   3994200.3833   2   7   0.0051   0.0092   0.0074  -0.0017  -0.0062  -0.0016   0.00    1.5
2017/08/03 00:24:29.999   1130773.7408  -4831253.6129   3994200.3794   2   7   0.0049   0.0089   0.0074  -0.0002  -0.0061  -0.0009   0.00    1.6
2017/08/03 00:24:59.999   1130773.7363  -4831253.6180   3994200.3789   2   7   0.0047   0.0089   0.0072  -0.0018  -0.0062  -0.0014   0.00    1.6
2017/08/03 00:25:29.999   1130773.7336  -4831253.6221   3994200.3780   2   7   0.0051   0.0090   0.0072  -0.0020  -0.0061  -0.0014   0.00    1.6
2017/08/03 00:25:59.999   1130773.7315  -4831253.6269   3994200.3805   2   7   0.0050   0.0090   0.0071  -0.0011  -0.0060  -0.0011   0.00    1.6
2017/08/03 00:26:29.999   1130773.7318  -4831253.6266   3994200.3764   2   7   0.0050   0.0090   0.0071  -0.0023  -0.0060  -0.0015   0.00    1.6
2017/08/03 00:26:59.999   1130773.7317  -4831253.6305   3994200.3758   2   7   0.0051   0.0091   0.0070  -0.0021  -0.0059  -0.0015   0.00    1.6
2017/08/03 00:27:29.999   1130773.7345  -4831253.6405   3994200.3783   2   7   0.0049   0.0090   0.0069  -0.0022  -0.0059  -0.0013   0.00    1.6
2017/08/03 00:27:59.999   1130773.7362  -4831253.6408   3994200.3763   2   7   0.0049   0.0090   0.0069  -0.0018  -0.0058  -0.0009   0.00    1.7
2017/08/03 00:28:29.999   1130773.7397  -4831253.6378   3994200.3681   2   7   0.0049   0.0089   0.0069  -0.0020  -0.0058  -0.0012   0.00    1.7
2017/08/03 00:28:59.999   1130773.7448  -4831253.6447   3994200.3702   2   7   0.0050   0.0088   0.0068  -0.0025  -0.0058  -0.0014   0.00    1.7
2017/08/03 00:29:29.999   1130773.7455  -4831253.6512   3994200.3773   2   7   0.0051   0.0090   0.0068  -0.0024  -0.0057  -0.0010   0.00    1.7
2017/08/03 00:29:59.999   1130773.7459  -4831253.6472   3994200.3775   2   7   0.0048   0.0088   0.0067  -0.0023  -0.0057  -0.0013   0.00    1.8
2017/08/03 00:30:29.999   1130773.7437  -4831253.6568   3994200.3818   2   7   0.0054   0.0090   0.0067  -0.0024  -0.0056  -0.0009   0.00    1.9
2017/08/03 00:30:59.999   1130773.7442  -4831253.6578   3994200.3812   2   7   0.0050   0.0089   0.0067  -0.0023  -0.0057  -0.0012   0.00    1.9
2017/08/03 00:31:29.999   1130773.7470  -4831253.6527   3994200.3788   2   7   0.0050   0.0089   0.0066  -0.0019  -0.0056  -0.0009   0.00    2.0
2017/08/03 00:31:59.999   1130773.7492  -4831253.6501   3994200.3771   2   7   0.0048   0.0089   0.0066  -0.0022  -0.0055  -0.0009   0.00    2.1
2017/08/03 00:32:29.999   1130773.7531  -4831253.6597   3994200.3824   2   7   0.0050   0.0089   0.0066  -0.0022  -0.0055  -0.0007   0.00    2.1
2017/08/03 00:32:59.999   1130773.7523  -4831253.6676   3994200.3899   2   7   0.0048   0.0088   0.0065  -0.0021  -0.0055  -0.0008   0.00    2.2
2017/08/03 00:33:29.999   1130773.7574  -4831253.6605   3994200.3910   2   7   0.0051   0.0088   0.0065  -0.0023  -0.0054  -0.0007   0.00    2.3
2017/08/03 00:33:59.999   1130773.7588  -4831253.6581   3994200.3897   2   7   0.0051   0.0088   0.0064  -0.0018  -0.0054  -0.0002   0.00    2.4
2017/08/03 00:34:29.999   1130773.7603  -4831253.6601   3994200.3974   2   7   0.0050   0.0088   0.0064  -0.0022  -0.0054  -0.0007   0.00    2.4
2017/08/03 00:34:59.999   1130773.7636  -4831253.6606   3994200.3958   2   7   0.0049   0.0088   0.0063  -0.0023  -0.0054  -0.0009   0.00    2.5
2017/08/03 00:35:29.999   1130773.7671  -4831253.6652   3994200.4015   2   7   0.0050   0.0088   0.0063  -0.0023  -0.0054  -0.0009   0.00    2.6
2017/08/03 00:35:59.999   1130773.7716  -4831253.6684   3994200.3975   2   7   0.0049   0.0088   0.0063  -0.0021  -0.0053  -0.0007   0.00    2.6
2017/08/03 00:36:29.999   1130773.7739  -4831253.6681   3994200.4030   2   7   0.0048   0.0087   0.0063  -0.0024  -0.0053  -0.0007   0.00    2.7
2017/08/03 00:36:59.999   1130773.7822  -4831253.6682   3994200.3997   2   7   0.0049   0.0087   0.0063  -0.0025  -0.0052  -0.0004   0.00    2.7
2017/08/03 00:37:29.999   1130773.7921  -4831253.6660   3994200.3974   2   8   0.0053   0.0088   0.0062  -0.0021  -0.0052   0.0009   0.00    1.0
2017/08/03 00:37:59.999   1130773.7913  -4831253.6679   3994200.4023   2   7   0.0051   0.0087   0.0062  -0.0022  -0.0052  -0.0008   0.00    2.6
2017/08/03 00:38:29.999   1130773.7963  -4831253.6625   3994200.4002   2   7   0.0048   0.0087   0.0061  -0.0024  -0.0051   0.0004   0.00    2.6
2017/08/03 00:38:59.999   1130773.8010  -4831253.6581   3994200.3956   2   7   0.0048   0.0087   0.0061  -0.0024  -0.0052   0.0003   0.00    2.6
2017/08/03 00:39:29.999   1130773.8091  -4831253.6633   3994200.3905   2   8   0.0049   0.0086   0.0053  -0.0028  -0.0048   0.0011   0.00    1.0
2017/08/03 00:39:59.999   1130773.8142  -4831253.6714   3994200.3977   2   8   0.0047   0.0086   0.0052  -0.0027  -0.0048   0.0013   0.00    1.0
2017/08/03 00:40:29.999   1130773.8223  -4831253.6711   3994200.4002   2   8   0.0047   0.0086   0.0052  -0.0027  -0.0046   0.0016   0.00    1.0
2017/08/03 00:40:59.999   1130773.8332  -4831253.6778   3994200.3950   2   8   0.0048   0.0085   0.0052  -0.0027  -0.0046   0.0016   0.00    1.0
2017/08/03 00:41:29.999   1130773.8368  -4831253.6790   3994200.3873   2   8   0.0046   0.0086   0.0051  -0.0025  -0.0046   0.0014   0.00    1.0
2017/08/03 00:41:59.999   1130773.8410  -4831253.6737   3994200.3877   2   8   0.0049   0.0085   0.0050  -0.0027  -0.0046   0.0016   0.00    1.0
2017/08/03 00:42:29.999   1130773.8417  -4831253.6686   3994200.3834   2   8   0.0049   0.0085   0.0050  -0.0029  -0.0047   0.0015   0.00    1.0
2017/08/03 00:42:59.999   1130773.8442  -4831253.6676   3994200.3866   2   8   0.0047   0.0085   0.0050  -0.0028  -0.0046   0.0016   0.00    1.0
2017/08/03 00:43:29.999   1130773.8433  -4831253.6657   3994200.3922   2   8   0.0046   0.0086   0.0049  -0.0027  -0.0045   0.0017   0.00    1.0
2017/08/03 00:43:59.999   1130773.8501  -4831253.6637   3994200.3908   2   8   0.0048   0.0085   0.0049  -0.0029  -0.0045   0.0017   0.00    1.0
2017/08/03 00:44:29.999   1130773.8510  -4831253.6676   3994200.3967   2   8   0.0048   0.0086   0.0049  -0.0028  -0.0045   0.0017   0.00    1.1
2017/08/03 00:44:59.999   1130773.8462  -4831253.6633   3994200.4021   2   8   0.0049   0.0087   0.0048  -0.0024  -0.0046   0.0015   0.00    1.1
2017/08/03 00:45:29.999   1130773.8463  -4831253.6674   3994200.4130   2   8   0.0046   0.0085   0.0049  -0.0028  -0.0045   0.0018   0.00    1.1
2017/08/03 00:45:59.999   1130773.8435  -4831253.6610   3994200.4109   2   8   0.0047   0.0085   0.0049  -0.0028  -0.0045   0.0017   0.00    1.1
2017/08/03 00:46:29.999   1130773.8445  -4831253.6714   3994200.4299   2   8   0.0046   0.0086   0.0048  -0.0027  -0.0045   0.0017   0.00    1.1
2017/08/03 00:46:59.999   1130773.8376  -4831253.6646   3994200.4344   2   8   0.0047   0.0085   0.0048  -0.0027  -0.0045   0.0017   0.00    1.1
2017/08/03 00:47:29.999   1130773.8306  -4831253.6653   3994200.4359   2   8   0.0046   0.0085   0.0048  -0.0027  -0.0045   0.0019   0.00    1.2
2017/08/03 00:47:59.999   1130773.8246  -4831253.6595   3994200.4456   2   8   0.0048   0.0086   0.0048  -0.0027  -0.0045   0.0017   0.00    1.2
2017/08/03 00:48:29.999   1130773.8203  -4831253.6487   3994200.4422   2   8   0.0047   0.0086   0.0047  -0.0027  -0.0045   0.0019   0.00    1.3
2017/08/03 00:48:59.999   1130773.8180  -4831253.6468   3994200.4444   2   8   0.0048   0.0086   0.0047  -0.0027  -0.0044   0.0017   0.00    1.3
2017/08/03 00:49:29.999   1130773.8132  -4831253.6477   3994200.4437   2   8   0.0046   0.0086   0.0047  -0.0028  -0.0045   0.0017   0.00    1.3
2017/08/03 00:49:59.999   1130773.8051  -4831253.6357   3994200.4425   2   8   0.0046   0.0086   0.0048  -0.0027  -0.0045   0.0018   0.00    1.4
2017/08/03 00:50:29.999   1130773.7987  -4831253.6286   3994200.4446   2   8   0.0047   0.0085   0.0047  -0.0029  -0.0044   0.0018   0.00    1.4
2017/08/03 00:50:59.999   1130773.7960  -4831253.6132   3994200.4343   2   8   0.0046   0.0086   0.0047  -0.0028  -0.0044   0.0020   0.00    1.5
2017/08/03 00:51:29.999   1130773.7921  -4831253.6037   3994200.4210   2   8   0.0046   0.0085   0.0046  -0.0028  -0.0045   0.0019   0.00    1.5
2017/08/03 00:51:59.999   1130773.7865  -4831253.5886   3994200.4237   2   8   0.0046   0.0086   0.0048  -0.0029  -0.0044   0.0019   0.00    1.6
2017/08/03 00:52:29.999   1130773.7919  -4831253.5847   3994200.4160   2   8   0.0049   0.0086   0.0047  -0.0028  -0.0045   0.0018   0.00    1.6
2017/08/03 00:52:59.999   1130773.7918  -4831253.5733   3994200.4150   2   8   0.0048   0.0086   0.0047  -0.0027  -0.0045   0.0018   0.00    1.7
2017/08/03 00:53:29.999   1130773.7945  -4831253.5785   3994200.4189   2   8   0.0046   0.0086   0.0047  -0.0029  -0.0044   0.0019   0.00    1.7
2017/08/03 00:53:59.999   1130773.7969  -4831253.5867   3994200.4248   2   8   0.0045   0.0086   0.0046  -0.0028  -0.0044   0.0019   0.00    1.7
2017/08/03 00:54:29.999   1130773.8104  -4831253.5968   3994200.4368   2   8   0.0046   0.0086   0.0046  -0.0028  -0.0045   0.0019   0.00    1.8
2017/08/03 00:54:59.999   1130773.8172  -4831253.6022   3994200.4357   2   8   0.0045   0.0086   0.0047  -0.0030  -0.0044   0.0020   0.00    1.8
2017/08/03 00:55:29.999   1130773.8249  -4831253.6088   3994200.4403   2   8   0.0048   0.0086   0.0046  -0.0027  -0.0045   0.0019   0.00    1.8
2017/08/03 00:55:59.999   1130773.8222  -4831253.6203   3994200.4442   2   8   0.0047   0.0086   0.0045  -0.0028  -0.0044   0.0020   0.00    1.8
2017/08/03 00:56:29.999   1130773.8163  -4831253.6147   3994200.4522   2   8   0.0045   0.0086   0.0047  -0.0029  -0.0044   0.0019   0.00    1.9
2017/08/03 00:56:59.999   1130773.8167  -4831253.6291   3994200.4698   2   8   0.0045   0.0085   0.0047  -0.0028  -0.0044   0.0021   0.00    1.9
2017/08/03 00:57:29.999   1130773.8096  -4831253.6270   3994200.4721   2   8   0.0046   0.0086   0.0047  -0.0028  -0.0044   0.0019   0.00    1.9
2017/08/03 00:57:59.999   1130773.8118  -4831253.6349   3994200.4771   2   8   0.0046   0.0086   0.0046  -0.0029  -0.0044   0.0020   0.00    2.0
2017/08/03 00:58:29.999   1130773.8158  -4831253.6255   3994200.4794   2   8   0.0047   0.0086   0.0045  -0.0028  -0.0044   0.0021   0.00    2.0
2017/08/03 00:58:59.999   1130773.8155  -4831253.6349   3994200.4856   2   8   0.0044   0.0086   0.0046  -0.0029  -0.0044   0.0020   0.00    2.0
2017/08/03 00:59:29.999   1130773.8191  -4831253.6479   3994200.5030   2   8   0.0045   0.0086   0.0046  -0.0028  -0.0044   0.0020   0.00    2.1
2017/08/03 00:59:59.999   1130773.8155  -4831253.6464   3994200.5078   2   8   0.0045   0.0085   0.0046  -0.0030  -0.0044   0.0021   0.00    2.2
2017/08/03 01:00:29.999   1130773.8230  -4831253.6626   3994200.5200   2   8   0.0046   0.0086   0.0046  -0.0030  -0.0044   0.0021   0.00    2.2
2017/08/03 01:00:59.999   1130773.8250  -4831253.6683   3994200.5197   2   8   0.0048   0.0086   0.0046  -0.0029  -0.0044   0.0021   0.00    2.3
2017/08/03 01:01:29.999   1130773.8189  -4831253.6634   3994200.5167   2   8   0.0044   0.0086   0.0045  -0.0029  -0.0044   0.0021   0.00    2.4
2017/08/03 01:01:59.999   1130773.8168  -4831253.6766   3994200.5187   2   8   0.0047   0.0086   0.0045  -0.0029  -0.0044   0.0021   0.00    2.4
2017/08/03 01:02:29.999   1130773.8144  -4831253.7001   3994200.5276   2   8   0.0044   0.0086   0.0047  -0.0030  -0.0044   0.0022   0.00    2.5
2017/08/03 01:02:59.999   1130773.8008  -4831253.6669   3994200.5126   2   8   0.0044   0.0086   0.0046  -0.0029  -0.0044   0.0022   0.00    2.6
2017/08/03 01:03:29.999   1130773.8025  -4831253.6627   3994200.5102   2   8   0.0047   0.0086   0.0045  -0.0030  -0.0045   0.0021   0.00    2.7
2017/08/03 01:03:59.999   1130773.7985  -4831253.6681   3994200.5104   2   8   0.0046   0.0086   0.0045  -0.0030  -0.0044   0.0021   0.00    2.8
2017/08/03 01:04:29.999   1130773.7816  -4831253.6507   3994200.5033   2   8   0.0045   0.0086   0.0047  -0.0029  -0.0044   0.0022   0.00    2.9
2017/08/03 01:04:59.999   1130773.7014  -4831253.4806   3994200.4903   1   8   0.0047   0.0108   0.0062  -0.0049  -0.0058   0.0028   0.00    3.1
2017/08/03 01:05:29.999   1130773.6975  -4831253.4704   3994200.4773   1   8   0.0048   0.0108   0.0063  -0.0050  -0.0058   0.0030   0.00    3.2
2017/08/03 01:05:59.999   1130773.6992  -4831253.4713   3994200.4758   1   8   0.0046   0.0108   0.0060  -0.0047  -0.0059   0.0027   0.00    3.3
2017/08/03 01:06:29.999   1130773.6948  -4831253.4598   3994200.4665   1   8   0.0050   0.0109   0.0063  -0.0049  -0.0059   0.0026   0.00    3.4
2017/08/03 01:06:59.999   1130773.6922  -4831253.4564   3994200.4648   1   8   0.0050   0.0108   0.0062  -0.0050  -0.0058   0.0029   0.00    3.5
2017/08/03 01:07:29.999   1130773.6887  -4831253.4586   3994200.4614   1   8   0.0049   0.0109   0.0061  -0.0050  -0.0060   0.0028   0.00    3.6
2017/08/03 01:07:59.999   1130773.6859  -4831253.4366   3994200.4565   1   8   0.0048   0.0108   0.0063  -0.0050  -0.0058   0.0029   0.00    3.6
2017/08/03 01:08:29.999   1130773.6786  -4831253.4311   3994200.4523   1   8   0.0048   0.0109   0.0061  -0.0051  -0.0058   0.0031   0.00    3.6
2017/08/03 01:08:59.999   1130773.6759  -4831253.4481   3994200.4490   1   8   0.0047   0.0108   0.0063  -0.0051  -0.0059   0.0033   0.00    3.6
2017/08/03 01:09:29.999   1130773.6728  -4831253.4550   3994200.4470   1   8   0.0052   0.0109   0.0062  -0.0049  -0.0060   0.0031   0.00    3.5
2017/08/03 01:09:59.999   1130773.6690  -4831253.4621   3994200.4498   1   8   0.0050   0.0109   0.0061  -0.0052  -0.0060   0.0030   0.00    3.4
2017/08/03 01:10:29.999   1130773.6661  -4831253.4635   3994200.4472   1   8   0.0048   0.0109   0.0062  -0.0051  -0.0059   0.0031   0.00    3.3
2017/08/03 01:10:59.999   1130773.6695  -4831253.4830   3994200.4466   1   8   0.0049   0.0109   0.0062  -0.0050  -0.0059   0.0033   0.00    3.2
2017/08/03 01:11:29.999   1130773.6720  -4831253.5062   3994200.4572   1   8   0.0051   0.0109   0.0061  -0.0051  -0.0059   0.0026   0.00    3.1
2017/08/03 01:11:59.999   1130773.7040  -4831253.6533   3994200.4532   2   8   0.0045   0.0085   0.0046  -0.0031  -0.0045   0.0023   0.00    2.9
2017/08/03 01:12:29.999   1130773.7049  -4831253.6819   3994200.4650   2   8   0.0045   0.0085   0.0046  -0.0031  -0.0045   0.0022   0.00    2.8
2017/08/03 01:12:59.999   1130773.7072  -4831253.7144   3994200.4687   2   8   0.0045   0.0085   0.0047  -0.0032  -0.0045   0.0024   0.00    2.6
2017/08/03 01:13:29.999   1130773.7088  -4831253.7413   3994200.4707   2   8   0.0045   0.0085   0.0047  -0.0031  -0.0045   0.0024   0.00    2.5
2017/08/03 01:13:59.999   1130773.7103  -4831253.7415   3994200.4658   2   8   0.0046   0.0085   0.0047  -0.0031  -0.0046   0.0024   0.00    2.3
2017/08/03 01:14:29.999   1130773.7107  -4831253.7449   3994200.4781   2   8   0.0046   0.0085   0.0047  -0.0031  -0.0045   0.0025   0.00    2.2
2017/08/03 01:14:59.999   1130773.7095  -4831253.7503   3994200.4700   2   8   0.0045   0.0085   0.0048  -0.0032  -0.0046   0.0025   0.00    2.1
2017/08/03 01:15:29.999   1130773.7090  -4831253.7519   3994200.4641   2   8   0.0044   0.0085   0.0048  -0.0031  -0.0046   0.0025   0.00    2.0
2017/08/03 01:15:59.999   1130773.6962  -4831253.7605   3994200.4659   2   8   0.0046   0.0085   0.0049  -0.0032  -0.0046   0.0025   0.00    1.8
2017/08/03 01:16:29.999   1130773.6930  -4831253.7647   3994200.4637   2   8   0.0045   0.0085   0.0049  -0.0031  -0.0046   0.0026   0.00    1.7
2017/08/03 01:16:59.999   1130773.6902  -4831253.7566   3994200.4574   2   8   0.0044   0.0085   0.0049  -0.0032  -0.0046   0.0026   0.00    1.5
2017/08/03 01:17:29.999   1130773.6842  -4831253.7590   3994200.4576   2   8   0.0046   0.0085   0.0048  -0.0032  -0.0046   0.0026   0.00    1.3
2017/08/03 01:17:59.999   1130773.6769  -4831253.7602   3994200.4613   2   8   0.0046   0.0085   0.0049  -0.0032  -0.0046   0.0027   0.00    1.2
2017/08/03 01:18:29.999   1130773.6748  -4831253.7588   3994200.4525   2   8   0.0043   0.0085   0.0048  -0.0032  -0.0047   0.0026   0.00    1.1
2017/08/03 01:18:59.999   1130773.6703  -4831253.7563   3994200.4470   2   8   0.0045   0.0085   0.0050  -0.0031  -0.0047   0.0026   0.00    1.0
2017/08/03 01:19:29.999   1130773.6678  -4831253.7682   3994200.4475   2   8   0.0046   0.0084   0.0049  -0.0032  -0.0047   0.0027   0.00    1.0
2017/08/03 01:19:59.999   1130773.6683  -4831253.7543   3994200.4403   2   8   0.0045   0.0085   0.0051  -0.0032  -0.0047   0.0028   0.00    1.1
2017/08/03 01:20:29.999   1130773.6695  -4831253.7618   3994200.4402   2   8   0.0044   0.0085   0.0050  -0.0032  -0.0048   0.0027   0.00    1.2
2017/08/03 01:20:59.999   1130773.6660  -4831253.7718   3994200.4324   2   8   0.0046   0.0084   0.0050  -0.0032  -0.0047   0.0027   0.00    1.2
2017/08/03 01:21:29.999   1130773.6649  -4831253.7696   3994200.4401   2   8   0.0045   0.0085   0.0052  -0.0033  -0.0048   0.0027   0.00    1.2
2017/08/03 01:21:59.999   1130773.6659  -4831253.7802   3994200.4507   2   8   0.0046   0.0085   0.0052  -0.0033  -0.0048   0.0029   0.00    1.2
2017/08/03 01:22:29.999   1130773.6616  -4831253.7832   3994200.4498   2   8   0.0045   0.0085   0.0052  -0.0033  -0.0049   0.0028   0.00    1.1
2017/08/03 01:22:59.999   1130773.6581  -4831253.7904   3994200.4539   2   8   0.0047   0.0085   0.0053  -0.0033  -0.0049   0.0029   0.00    1.1
2017/08/03 01:23:29.999   1130773.6572  -4831253.7904   3994200.4533   2   8   0.0046   0.0086   0.0053  -0.0034  -0.0050   0.0029   0.00    1.1
2017/08/03 01:23:59.999   1130773.6569  -4831253.7897   3994200.4493   2   8   0.0044   0.0088   0.0058  -0.0033  -0.0053   0.0031   0.00    1.0
2017/08/03 01:24:29.999   1130773.7332  -4831253.7355   3994200.4486   1   6   0.0054   0.0125   0.0093  -0.0059  -0.0086   0.0051   0.00    5.2
2017/08/03 01:24:59.999   1130773.7266  -4831253.7189   3994200.4303   1   6   0.0058   0.0125   0.0094  -0.0060  -0.0086   0.0050   0.00    5.3
2017/08/03 01:25:29.999   1130773.7211  -4831253.7077   3994200.4174   1   6   0.0053   0.0125   0.0094  -0.0060  -0.0087   0.0051   0.00    5.4
2017/08/03 01:25:59.999   1130773.7200  -4831253.7073   3994200.4310   1   6   0.0057   0.0125   0.0094  -0.0060  -0.0087   0.0051   0.00    5.5
2017/08/03 01:26:29.999   1130773.7185  -4831253.7060   3994200.4374   1   6   0.0054   0.0125   0.0095  -0.0061  -0.0088   0.0052   0.00    5.6
2017/08/03 01:26:59.999   1130773.7178  -4831253.6981   3994200.4406   1   6   0.0055   0.0125   0.0096  -0.0061  -0.0088   0.0052   0.00    5.7
2017/08/03 01:27:29.999   1130773.7132  -4831253.6958   3994200.4322   1   6   0.0053   0.0125   0.0096  -0.0062  -0.0088   0.0053   0.00    5.7
2017/08/03 01:27:59.999   1130773.6239  -4831253.7754   3994200.4534   2   7   0.0044   0.0086   0.0065  -0.0028  -0.0056   0.0030   0.00    1.0
2017/08/03 01:28:29.999   1130773.6182  -4831253.7658   3994200.4573   2   7   0.0044   0.0084   0.0063  -0.0025  -0.0054   0.0029   0.00    1.0
2017/08/03 01:28:59.999   1130773.6105  -4831253.7638   3994200.4637   2   7   0.0042   0.0083   0.0063  -0.0024  -0.0054   0.0029   0.00    1.0
2017/08/03 01:29:29.999   1130773.6109  -4831253.7639   3994200.4576   2   7   0.0041   0.0082   0.0064  -0.0023  -0.0053   0.0027   0.00    1.0
2017/08/03 01:29:59.999   1130773.6085  -4831253.7624   3994200.4755   2   7   0.0043   0.0082   0.0063  -0.0024  -0.0053   0.0028   0.00    1.0
2017/08/03 01:30:29.999   1130773.6113  -4831253.7585   3994200.4650   2   7   0.0042   0.0082   0.0063  -0.0023  -0.0053   0.0029   0.00    1.1
2017/08/03 01:30:59.999   1130773.6088  -4831253.7688   3994200.4642   2   7   0.0042   0.0081   0.0063  -0.0023  -0.0053   0.0028   0.00    1.1
2017/08/03 01:31:29.999   1130773.6116  -4831253.7740   3994200.4699   2   7   0.0042   0.0081   0.0064  -0.0023  -0.0053   0.0028   0.00    1.1
2017/08/03 01:31:59.999   1130773.6113  -4831253.7780   3994200.4757   2   7   0.0041   0.0080   0.0064  -0.0024  -0.0053   0.0027   0.00    1.1
2017/08/03 01:32:29.999   1130773.6169  -4831253.7761   3994200.4886   2   7   0.0043   0.0080   0.0064  -0.0023  -0.0053   0.0028   0.00    1.1
2017/08/03 01:32:59.999   1130773.6263  -4831253.7811   3994200.4966   2   7   0.0045   0.0080   0.0065  -0.0023  -0.0053   0.0029   0.00    1.1
2017/08/03 01:33:29.999   1130773.6337  -4831253.7832   3994200.4913   2   7   0.0041   0.0080   0.0065  -0.0023  -0.0053   0.0029   0.00    1.1
2017/08/03 01:33:59.999   1130773.6353  -4831253.7725   3994200.4818   2   7   0.0041   0.0080   0.0065  -0.0023  -0.0053   0.0029   0.00    1.1
2017/08/03 01:34:29.999   1130773.6292  -4831253.7782   3994200.4857   2   7   0.0041   0.0080   0.0065  -0.0023  -0.0053   0.0029   0.00    1.1
2017/08/03 01:34:59.999   1130773.6241  -4831253.7721   3994200.4950   2   7   0.0042   0.0079   0.0065  -0.0023  -0.0053   0.0029   0.00    1.1
2017/08/03 01:35:29.999   1130773.6282  -4831253.7662   3994200.5043   2   7   0.0041   0.0079   0.0066  -0.0023  -0.0053   0.0029   0.00    1.1
2017/08/03 01:35:59.999   1130773.6221  -4831253.7653   3994200.5082   2   7   0.0041   0.0079   0.0066  -0.0023  -0.0053   0.0029   0.00    1.1
2017/08/03 01:36:29.999   1130773.6245  -4831253.7573   3994200.4993   2   7   0.0041   0.0078   0.0066  -0.0023  -0.0054   0.0030   0.00    1.1
2017/08/03 01:36:59.999   1130773.6232  -4831253.7547   3994200.5124   2   7   0.0040   0.0078   0.0067  -0.0023  -0.0054   0.0029   0.00    1.2
2017/08/03 01:37:29.999   1130773.6211  -4831253.7448   3994200.5098   2   7   0.0043   0.0078   0.0067  -0.0023  -0.0054   0.0030   0.00    1.2
2017/08/03 01:37:59.999   1130773.6189  -4831253.7330   3994200.5054   2   7   0.0041   0.0078   0.0067  -0.0023  -0.0054   0.0032   0.00    1.2
2017/08/03 01:38:29.999   1130773.6172  -4831253.7162   3994200.4896   2   7   0.0041   0.0077   0.0067  -0.0024  -0.0054   0.0030   0.00    1.2
2017/08/03 01:38:59.999   1130773.6162  -4831253.7012   3994200.5003   2   7   0.0040   0.0077   0.0068  -0.0025  -0.0055   0.0031   0.00    1.2
2017/08/03 01:39:29.999   1130773.6193  -4831253.6932   3994200.5135   2   7   0.0040   0.0077   0.0068  -0.0025  -0.0055   0.0031   0.00    1.2
2017/08/03 01:39:59.999   1130773.6218  -4831253.6764   3994200.5045   2   7   0.0040   0.0077   0.0069  -0.0022  -0.0055   0.0031   0.00    1.2
2017/08/03 01:40:29.999   1130773.6175  -4831253.6616   3994200.5082   2   7   0.0041   0.0076   0.0069  -0.0026  -0.0055   0.0031   0.00    1.2
2017/08/03 01:40:59.999   1130773.6141  -4831253.6504   3994200.5043   2   7   0.0042   0.0077   0.0069  -0.0023  -0.0055   0.0032   0.00    1.2
2017/08/03 01:41:29.999   1130773.6197  -4831253.6459   3994200.5012   2   7   0.0043   0.0077   0.0069  -0.0024  -0.0055   0.0032   0.00    1.2
2017/08/03 01:41:59.999   1130773.6201  -4831253.6457   3994200.5101   2   7   0.0042   0.0077   0.0070  -0.0025  -0.0055   0.0032   0.00    1.2
2017/08/03 01:42:29.999   1130773.6176  -4831253.6368   3994200.5027   2   7   0.0041   0.0077   0.0071  -0.0025  -0.0056   0.0032   0.00    1.2
2017/08/03 01:42:59.999   1130773.6164  -4831253.6254   3994200.4906   2   7   0.0041   0.0076   0.0070  -0.0023  -0.0056   0.0033   0.00    1.2
2017/08/03 01:43:29.999   1130773.6157  -4831253.6157   3994200.4867   2   7   0.0043   0.0076   0.0071  -0.0024  -0.0056   0.0032   0.00    1.2
2017/08/03 01:43:59.999   1130773.6143  -4831253.6037   3994200.4800   2   7   0.0043   0.0076   0.0072  -0.0024  -0.0056   0.0033   0.00    1.2
2017/08/03 01:44:29.999   1130773.6084  -4831253.5926   3994200.4552   2   7   0.0042   0.0076   0.0072  -0.0025  -0.0057   0.0034   0.00    1.2
2017/08/03 01:44:59.999   1130773.6145  -4831253.5835   3994200.4483   2   7   0.0042   0.0075   0.0072  -0.0027  -0.0057   0.0034   0.00    1.2
2017/08/03 01:45:29.999   1130773.6161  -4831253.5793   3994200.4463   2   7   0.0040   0.0076   0.0073  -0.0026  -0.0057   0.0033   0.00    1.1
2017/08/03 01:45:59.999   1130773.6251  -4831253.5889   3994200.4553   2   7   0.0041   0.0075   0.0073  -0.0027  -0.0058   0.0035   0.00    1.1
2017/08/03 01:46:29.999   1130773.6346  -4831253.5907   3994200.4710   2   7   0.0041   0.0076   0.0074  -0.0025  -0.0058   0.0034   0.00    1.1
2017/08/03 01:46:59.999   1130773.6429  -4831253.6102   3994200.4976   2   7   0.0043   0.0076   0.0074  -0.0027  -0.0057   0.0034   0.00    1.0
2017/08/03 01:47:29.999   1130773.6490  -4831253.6048   3994200.5009   2   7   0.0042   0.0075   0.0075  -0.0027  -0.0058   0.0034   0.00    1.0
2017/08/03 01:47:59.999   1130773.6490  -4831253.5948   3994200.5016   2   7   0.0041   0.0075   0.0075  -0.0027  -0.0058   0.0034   0.00    1.1
2017/08/03 01:48:29.999   1130773.6450  -4831253.5909   3994200.4977   2   7   0.0040   0.0075   0.0075  -0.0027  -0.0059   0.0035   0.00    1.1
2017/08/03 01:48:59.999   1130773.6449  -4831253.5975   3994200.5002   2   7   0.0041   0.0075   0.0076  -0.0026  -0.0059   0.0036   0.00    1.2
2017/08/03 01:49:29.999   1130773.6463  -4831253.5974   3994200.4937   2   7   0.0040   0.0075   0.0076  -0.0027  -0.0059   0.0036   0.00    1.2
2017/08/03 01:49:59.999   1130773.6421  -4831253.5950   3994200.4787   2   7   0.0041   0.0075   0.0077  -0.0027  -0.0059   0.0036   0.00    1.2
2017/08/03 01:50:29.999   1130773.6438  -4831253.6057   3994200.4920   2   7   0.0042   0.0075   0.0077  -0.0028  -0.0060   0.0037   0.00    1.2
2017/08/03 01:50:59.999   1130773.6471  -4831253.6135   3994200.5046   2   7   0.0040   0.0075   0.0078  -0.0027  -0.0060   0.0036   0.00    1.2
2017/08/03 01:51:29.999   1130773.6502  -4831253.6110   3994200.4988   2   7   0.0041   0.0074   0.0078  -0.0027  -0.0060   0.0037   0.00    1.2
2017/08/03 01:51:59.999   1130773.6527  -4831253.6087   3994200.5025   2   7   0.0042   0.0075   0.0079  -0.0028  -0.0060   0.0037   0.00    1.2
2017/08/03 01:52:29.999   1130773.6540  -4831253.6116   3994200.5164   2   7   0.0042   0.0075   0.0079  -0.0028  -0.0061   0.0039   0.00    1.2
2017/08/03 01:52:59.999   1130773.6531  -4831253.6109   3994200.5198   2   7   0.0043   0.0075   0.0080  -0.0030  -0.0061   0.0038   0.00    1.2
2017/08/03 01:53:29.999   1130773.6541  -4831253.6105   3994200.5244   2   7   0.0042   0.0075   0.0080  -0.0028  -0.0062   0.0038   0.00    1.1
2017/08/03 01:53:59.999   1130773.6564  -4831253.6186   3994200.5346   2   7   0.0041   0.0075   0.0081  -0.0030  -0.0062   0.0038   0.00    1.1
2017/08/03 01:54:29.999   1130773.6608  -4831253.6240   3994200.5498   2   7   0.0041   0.0074   0.0081  -0.0030  -0.0062   0.0039   0.00    1.1
2017/08/03 01:54:59.999   1130773.6654  -4831253.6364   3994200.5659   2   7   0.0041   0.0075   0.0082  -0.0029  -0.0062   0.0039   0.00    1.1
2017/08/03 01:55:29.999   1130773.6740  -4831253.6408   3994200.5757   2   7   0.0043   0.0076   0.0083  -0.0028  -0.0063   0.0040   0.00    1.0
2017/08/03 01:55:59.999   1130773.6763  -4831253.6384   3994200.5705   2   7   0.0041   0.0074   0.0083  -0.0031  -0.0063   0.0039   0.00    1.0
2017/08/03 01:56:29.999   1130773.6816  -4831253.6379   3994200.5777   2   7   0.0043   0.0074   0.0083  -0.0031  -0.0063   0.0040   0.00    1.1
2017/08/03 01:56:59.999   1130773.6862  -4831253.6463   3994200.5982   2   7   0.0041   0.0075   0.0084  -0.0031  -0.0064   0.0041   0.00    1.1
2017/08/03 01:57:29.999   1130773.6838  -4831253.6433   3994200.5966   2   7   0.0043   0.0075   0.0085  -0.0030  -0.0064   0.0040   0.00    1.1
2017/08/03 01:57:59.999   1130773.6874  -4831253.6387   3994200.5915   2   7   0.0043   0.0075   0.0085  -0.0031  -0.0065   0.0041   0.00    1.1
2017/08/03 01:58:29.999   1130773.6792  -4831253.6449   3994200.5868   2   7   0.0041   0.0075   0.0086  -0.0031  -0.0065   0.0041   0.00    1.2
2017/08/03 01:58:59.999   1130773.6823  -4831253.6519   3994200.5886   2   7   0.0041   0.0075   0.0086  -0.0032  -0.0065   0.0042   0.00    1.2
2017/08/03 01:59:29.999   1130773.6829  -4831253.6598   3994200.5885   2   7   0.0044   0.0075   0.0087  -0.0031  -0.0066   0.0042   0.00    1.2
2017/08/03 01:59:59.999   1130773.6767  -4831253.6614   3994200.5824   2   7   0.0043   0.0075   0.0087  -0.0031  -0.0066   0.0042   0.00    1.3
2017/08/03 02:00:29.999   1130773.6724  -4831253.6598   3994200.5700   2   7   0.0043   0.0076   0.0088  -0.0031  -0.0066   0.0043   0.00    1.3
2017/08/03 02:00:59.999   1130773.6659  -4831253.6635   3994200.5732   2   7   0.0043   0.0075   0.0088  -0.0032  -0.0066   0.0043   0.00    1.3
2017/08/03 02:01:29.999   1130773.6576  -4831253.6523   3994200.5603   2   7   0.0043   0.0076   0.0089  -0.0033  -0.0067   0.0043   0.00    1.3
2017/08/03 02:01:59.999   1130773.6467  -4831253.6346   3994200.5297   2   7   0.0043   0.0075   0.0089  -0.0034  -0.0067   0.0044   0.00    1.3
2017/08/03 02:02:29.999   1130773.6488  -4831253.6261   3994200.5289   2   7   0.0043   0.0075   0.0090  -0.0033  -0.0068   0.0044   0.00    1.3
2017/08/03 02:02:59.999   1130773.6370  -4831253.6265   3994200.5229   2   7   0.0045   0.0076   0.0090  -0.0033  -0.0068   0.0044   0.00    1.3
2017/08/03 02:03:29.999   1130773.6398  -4831253.6244   3994200.5150   2   7   0.0044   0.0076   0.0091  -0.0034  -0.0068   0.0044   0.00    1.2
2017/08/03 02:03:59.999   1130773.6266  -4831253.6294   3994200.4977   2   7   0.0042   0.0076   0.0091  -0.0034  -0.0069   0.0045   0.00    1.2
2017/08/03 02:04:29.999   1130773.6222  -4831253.6330   3994200.4887   2   7   0.0043   0.0075   0.0092  -0.0035  -0.0069   0.0045   0.00    1.2
2017/08/03 02:04:59.999   1130773.6158  -4831253.6309   3994200.4627   2   7   0.0043   0.0077   0.0093  -0.0035  -0.0069   0.0045   0.00    1.2
2017/08/03 02:05:29.999   1130773.6210  -4831253.6350   3994200.4604   2   7   0.0043   0.0075   0.0093  -0.0035  -0.0070   0.0045   0.00    1.2
2017/08/03 02:05:59.999   1130773.6090  -4831253.6378   3994200.4412   2   7   0.0044   0.0077   0.0094  -0.0034  -0.0070   0.0046   0.00    1.1
2017/08/03 02:06:29.999   1130773.6023  -4831253.6432   3994200.4415   2   7   0.0043   0.0076   0.0094  -0.0035  -0.0071   0.0047   0.00    1.1
2017/08/03 02:06:59.999   1130773.6069  -4831253.6277   3994200.4213   2   7   0.0042   0.0076   0.0095  -0.0036  -0.0071   0.0047   0.00    1.1
2017/08/03 02:07:29.999   1130773.5927  -4831253.6392   3994200.4203   2   7   0.0043   0.0077   0.0095  -0.0034  -0.0071   0.0048   0.00    1.1
2017/08/03 02:07:59.999   1130773.5899  -4831253.6226   3994200.4126   2   7   0.0045   0.0077   0.0095  -0.0037  -0.0071   0.0047   0.00    1.1
2017/08/03 02:08:29.999   1130773.5948  -4831253.6241   3994200.4289   2   7   0.0044   0.0076   0.0096  -0.0036  -0.0072   0.0048   0.00    1.1
2017/08/03 02:08:59.999   1130773.5975  -4831253.6279   3994200.4417   2   7   0.0046   0.0077   0.0096  -0.0036  -0.0072   0.0048   0.00    1.1
2017/08/03 02:09:29.999   1130773.6035  -4831253.6305   3994200.4585   2   7   0.0045   0.0077   0.0097  -0.0037  -0.0072   0.0048   0.00    1.0
2017/08/03 02:09:59.999   1130773.5933  -4831253.6174   3994200.4439   2   7   0.0043   0.0077   0.0097  -0.0038  -0.0073   0.0049   0.00    1.0
2017/08/03 02:10:29.999   1130773.5822  -4831253.6128   3994200.4385   2   7   0.0044   0.0077   0.0098  -0.0038  -0.0073   0.0049   0.00    1.0
2017/08/03 02:10:59.999   1130773.5783  -4831253.6078   3994200.4353   2   7   0.0044   0.0077   0.0098  -0.0038  -0.0073   0.0049   0.00    1.1
2017/08/03 02:11:29.999   1130773.5813  -4831253.6114   3994200.4591   2   7   0.0044   0.0077   0.0098  -0.0038  -0.0074   0.0049   0.00    1.1
2017/08/03 02:11:59.999   1130773.5834  -4831253.6197   3994200.4741   2   7   0.0046   0.0078   0.0099  -0.0038  -0.0074   0.0050   0.00    1.1
2017/08/03 02:12:29.999   1130773.5970  -4831253.6444   3994200.5113   2   7   0.0045   0.0078   0.0099  -0.0037  -0.0074   0.0050   0.00    1.1
2017/08/03 02:12:59.999   1130773.5954  -4831253.6364   3994200.5191   2   7   0.0046   0.0078   0.0100  -0.0038  -0.0074   0.0050   0.00    1.1
2017/08/03 02:13:29.999   1130773.5971  -4831253.6313   3994200.5106   2   7   0.0046   0.0078   0.0100  -0.0038  -0.0075   0.0050   0.00    1.1
2017/08/03 02:13:59.999   1130773.6010  -4831253.6300   3994200.5240   2   7   0.0044   0.0078   0.0100  -0.0039  -0.0075   0.0050   0.00    1.1
2017/08/03 02:14:29.999   1130773.6089  -4831253.6464   3994200.5520   2   7   0.0046   0.0078   0.0100  -0.0039  -0.0075   0.0051   0.00    1.1
2017/08/03 02:14:59.999   1130773.6079  -4831253.6467   3994200.5597   2   7   0.0047   0.0078   0.0101  -0.0039  -0.0076   0.0051   0.00    1.1
2017/08/03 02:15:29.999   1130773.6084  -4831253.6469   3994200.5616   2   7   0.0046   0.0078   0.0101  -0.0040  -0.0076   0.0051   0.00    1.1
2017/08/03 02:15:59.999   1130773.6126  -4831253.6492   3994200.5646   2   7   0.0044   0.0078   0.0101  -0.0040  -0.0076   0.0052   0.00    1.1
2017/08/03 02:16:29.999   1130773.6155  -4831253.6515   3994200.5621   2   7   0.0047   0.0079   0.0102  -0.0040  -0.0076   0.0052   0.00    1.1
2017/08/03 02:16:59.999   1130773.6152  -4831253.6453   3994200.5539   2   7   0.0046   0.0079   0.0102  -0.0041  -0.0077   0.0052   0.00    1.1
2017/08/03 02:17:29.999   1130773.6138  -4831253.6391   3994200.5343   2   7   0.0044   0.0079   0.0102  -0.0041  -0.0077   0.0052   0.00    1.1
2017/08/03 02:17:59.999   1130773.6146  -4831253.6441   3994200.5247   2   7   0.0047   0.0080   0.0102  -0.0041  -0.0077   0.0052   0.00    1.1
2017/08/03 02:18:29.999   1130773.6157  -4831253.6588   3994200.5336   2   7   0.0046   0.0081   0.0102  -0.0040  -0.0078   0.0053   0.00    1.1
2017/08/03 02:18:59.999   1130773.6190  -4831253.6635   3994200.5335   2   7   0.0045   0.0081   0.0103  -0.0041  -0.0078   0.0053   0.00    1.1
2017/08/03 02:19:29.999   1130773.6173  -4831253.6534   3994200.5135   2   7   0.0048   0.0081   0.0103  -0.0042  -0.0078   0.0053   0.00    1.0
2017/08/03 02:19:59.999   1130773.6059  -4831253.6474   3994200.4924   2   7   0.0045   0.0082   0.0104  -0.0042  -0.0079   0.0053   0.00    1.0
2017/08/03 02:20:29.999   1130773.6092  -4831253.6396   3994200.4627   2   7   0.0047   0.0084   0.0105  -0.0044  -0.0082   0.0054   0.00    1.0
2017/08/03 02:20:59.999   1130773.6809  -4831253.7395   3994200.4889   1   6   0.0056   0.0127   0.0149  -0.0068  -0.0121   0.0078   0.00    4.9
2017/08/03 02:21:29.999   1130773.6839  -4831253.7329   3994200.4779   1   6   0.0059   0.0127   0.0149  -0.0067  -0.0121   0.0077   0.00    4.8
2017/08/03 02:21:59.999   1130773.6836  -4831253.7264   3994200.4604   1   6   0.0057   0.0126   0.0149  -0.0068  -0.0121   0.0078   0.00    4.7
2017/08/03 02:22:29.999   1130773.6852  -4831253.7096   3994200.4353   1   6   0.0060   0.0127   0.0149  -0.0068  -0.0121   0.0078   0.00    4.5
2017/08/03 02:22:59.999   1130773.6968  -4831253.7258   3994200.4575   1   6   0.0059   0.0127   0.0149  -0.0067  -0.0121   0.0079   0.00    4.4
2017/08/03 02:23:29.999   1130773.7033  -4831253.7223   3994200.4508   1   6   0.0058   0.0126   0.0149  -0.0067  -0.0121   0.0080   0.00    4.3
2017/08/03 02:23:59.999   1130773.6674  -4831253.6478   3994200.3475   1   7   0.0046   0.0104   0.0102  -0.0045  -0.0083   0.0043   0.00    4.4
2017/08/03 02:24:29.999   1130773.6603  -4831253.6464   3994200.3489   1   7   0.0044   0.0104   0.0102  -0.0044  -0.0083   0.0044   0.00    4.3
2017/08/03 02:24:59.999   1130773.6584  -4831253.6492   3994200.3559   1   7   0.0043   0.0103   0.0101  -0.0043  -0.0083   0.0045   0.00    4.3
2017/08/03 02:25:29.999   1130773.6546  -4831253.6474   3994200.3471   1   7   0.0044   0.0104   0.0101  -0.0042  -0.0083   0.0044   0.00    4.2
2017/08/03 02:25:59.999   1130773.6523  -4831253.6421   3994200.3503   1   7   0.0041   0.0104   0.0101  -0.0046  -0.0082   0.0044   0.00    4.2
2017/08/03 02:26:29.999   1130773.6482  -4831253.6406   3994200.3599   1   7   0.0046   0.0103   0.0101  -0.0043  -0.0082   0.0044   0.00    4.2
2017/08/03 02:26:59.999   1130773.6431  -4831253.6468   3994200.3680   1   7   0.0043   0.0101   0.0100  -0.0047  -0.0083   0.0042   0.00    4.1
2017/08/03 02:27:29.999   1130773.6399  -4831253.6465   3994200.3722   1   7   0.0045   0.0103   0.0100  -0.0043  -0.0081   0.0043   0.00    4.1
2017/08/03 02:27:59.999   1130773.6349  -4831253.6486   3994200.3837   1   7   0.0038   0.0102   0.0099  -0.0044  -0.0081   0.0045   0.00    4.1
2017/08/03 02:28:29.999   1130773.6369  -4831253.6657   3994200.4051   1   7   0.0045   0.0102   0.0101  -0.0042  -0.0081   0.0041   0.00    4.0
2017/08/03 02:28:59.999   1130773.6337  -4831253.6674   3994200.4047   1   7   0.0040   0.0102   0.0099  -0.0044  -0.0080   0.0043   0.00    4.0
2017/08/03 02:29:29.999   1130773.6326  -4831253.6569   3994200.3891   1   7   0.0042   0.0101   0.0098  -0.0044  -0.0080   0.0044   0.00    3.9
2017/08/03 02:29:59.999   1130773.6334  -4831253.6635   3994200.3943   1   7   0.0046   0.0102   0.0098  -0.0044  -0.0080   0.0041   0.00    3.8
2017/08/03 02:30:29.999   1130773.6342  -4831253.6586   3994200.3908   1   7   0.0045   0.0102   0.0098  -0.0043  -0.0080   0.0044   0.00    3.8
2017/08/03 02:30:59.999   1130773.6352  -4831253.6464   3994200.3834   1   7   0.0047   0.0101   0.0098  -0.0043  -0.0080   0.0039   0.00    3.7
2017/08/03 02:31:29.999   1130773.6335  -4831253.6421   3994200.3796   1   7   0.0048   0.0101   0.0096  -0.0044  -0.0079   0.0041   0.00    3.6
2017/08/03 02:31:59.999   1130773.6333  -4831253.6238   3994200.3592   1   7   0.0047   0.0100   0.0097  -0.0044  -0.0079   0.0040   0.00    3.5
2017/08/03 02:32:29.999   1130773.6360  -4831253.6223   3994200.3630   1   7   0.0045   0.0101   0.0096  -0.0043  -0.0079   0.0042   0.00    3.3
2017/08/03 02:32:59.999   1130773.6413  -4831253.6370   3994200.3809   1   7   0.0041   0.0101   0.0095  -0.0043  -0.0078   0.0042   0.00    3.2
2017/08/03 02:33:29.999   1130773.5980  -4831253.5985   3994200.4330   2   7   0.0040   0.0077   0.0072  -0.0030  -0.0059   0.0030   0.00    1.2
2017/08/03 02:33:59.999   1130773.6010  -4831253.6043   3994200.4395   2   7   0.0040   0.0077   0.0072  -0.0031  -0.0059   0.0028   0.00    1.2
2017/08/03 02:34:29.999   1130773.6044  -4831253.6007   3994200.4415   2   7   0.0040   0.0076   0.0072  -0.0030  -0.0059   0.0028   0.00    1.2
2017/08/03 02:34:59.999   1130773.6071  -4831253.6012   3994200.4496   2   7   0.0039   0.0076   0.0071  -0.0029  -0.0059   0.0028   0.00    1.2
2017/08/03 02:35:29.999   1130773.6083  -4831253.5958   3994200.4260   2   7   0.0038   0.0076   0.0071  -0.0030  -0.0059   0.0029   0.00    1.2
2017/08/03 02:35:59.999   1130773.6125  -4831253.5770   3994200.4136   2   7   0.0041   0.0076   0.0070  -0.0029  -0.0059   0.0028   0.00    1.2
2017/08/03 02:36:29.999   1130773.6111  -4831253.5502   3994200.3937   2   7   0.0037   0.0076   0.0070  -0.0029  -0.0059   0.0028   0.00    1.2
2017/08/03 02:36:59.999   1130773.6147  -4831253.5352   3994200.3951   2   7   0.0040   0.0076   0.0069  -0.0030  -0.0058   0.0030   0.00    1.2
2017/08/03 02:37:29.999   1130773.6175  -4831253.5213   3994200.3977   2   7   0.0037   0.0076   0.0069  -0.0030  -0.0058   0.0029   0.00    1.2
2017/08/03 02:37:59.999   1130773.6194  -4831253.5026   3994200.3956   2   7   0.0038   0.0076   0.0069  -0.0029  -0.0058   0.0027   0.00    1.2
2017/08/03 02:38:29.999   1130773.6205  -4831253.4797   3994200.4034   2   7   0.0038   0.0076   0.0069  -0.0030  -0.0058   0.0028   0.00    1.1
2017/08/03 02:38:59.999   1130773.6122  -4831253.4585   3994200.4072   2   7   0.0040   0.0075   0.0069  -0.0031  -0.0057   0.0025   0.00    1.1
2017/08/03 02:39:29.999   1130773.6110  -4831253.4433   3994200.4205   2   7   0.0037   0.0076   0.0068  -0.0030  -0.0058   0.0028   0.00    1.0
2017/08/03 02:39:59.999   1130773.6092  -4831253.4329   3994200.4361   2   7   0.0039   0.0075   0.0068  -0.0030  -0.0057   0.0027   0.00    1.0
2017/08/03 02:40:29.999   1130773.6158  -4831253.4478   3994200.4605   2   7   0.0039   0.0075   0.0068  -0.0030  -0.0057   0.0027   0.00    1.1
2017/08/03 02:40:59.999   1130773.6199  -4831253.4367   3994200.4703   2   7   0.0040   0.0075   0.0067  -0.0031  -0.0057   0.0027   0.00    1.2
2017/08/03 02:41:29.999   1130773.6165  -4831253.4274   3994200.4750   2   7   0.0037   0.0075   0.0067  -0.0031  -0.0056   0.0026   0.00    1.2
2017/08/03 02:41:59.999   1130773.6198  -4831253.4229   3994200.4802   2   7   0.0039   0.0075   0.0067  -0.0030  -0.0057   0.0026   0.00    1.3
2017/08/03 02:42:29.999   1130773.6209  -4831253.4149   3994200.4820   2   7   0.0039   0.0075   0.0067  -0.0030  -0.0056   0.0027   0.00    1.4
2017/08/03 02:42:59.999   1130773.6267  -4831253.3988   3994200.4806   2   7   0.0038   0.0075   0.0066  -0.0030  -0.0055   0.0027   0.00    1.5
2017/08/03 02:43:29.999   1130773.6290  -4831253.3934   3994200.4803   2   7   0.0038   0.0075   0.0067  -0.0031  -0.0056   0.0027   0.00    1.6
2017/08/03 02:43:59.999   1130773.6343  -4831253.3767   3994200.4739   2   7   0.0039   0.0075   0.0065  -0.0031  -0.0056   0.0027   0.00    1.7
2017/08/03 02:44:29.999   1130773.6301  -4831253.3557   3994200.4558   2   7   0.0038   0.0075   0.0065  -0.0030  -0.0056   0.0026   0.00    1.8
2017/08/03 02:44:59.999   1130773.6355  -4831253.3543   3994200.4528   2   7   0.0039   0.0075   0.0065  -0.0030  -0.0055   0.0027   0.00    1.8
2017/08/03 02:45:29.999   1130773.6319  -4831253.3590   3994200.4559   2   7   0.0037   0.0075   0.0065  -0.0030  -0.0056   0.0025   0.00    1.9
2017/08/03 02:45:59.999   1130773.6317  -4831253.3485   3994200.4375   2   7   0.0036   0.0075   0.0065  -0.0030  -0.0055   0.0025   0.00    2.0
2017/08/03 02:46:29.999   1130773.6356  -4831253.3523   3994200.4416   2   7   0.0038   0.0075   0.0065  -0.0031  -0.0055   0.0025   0.00    2.1
2017/08/03 02:46:59.999   1130773.6318  -4831253.3591   3994200.4529   2   7   0.0039   0.0075   0.0064  -0.0031  -0.0054   0.0025   0.00    2.1
2017/08/03 02:47:29.999   1130773.6328  -4831253.3578   3994200.4527   2   7   0.0039   0.0075   0.0063  -0.0032  -0.0055   0.0028   0.00    2.2
2017/08/03 02:47:59.999   1130773.6346  -4831253.3736   3994200.4591   2   7   0.0037   0.0075   0.0063  -0.0032  -0.0054   0.0027   0.00    2.3
2017/08/03 02:48:29.999   1130773.6301  -4831253.3655   3994200.4631   2   7   0.0040   0.0075   0.0063  -0.0031  -0.0055   0.0027   0.00    2.4
2017/08/03 02:48:59.999   1130773.6372  -4831253.3872   3994200.4808   2   7   0.0038   0.0075   0.0063  -0.0031  -0.0055   0.0026   0.00    2.5
2017/08/03 02:49:29.999   1130773.6391  -4831253.4018   3994200.4724   2   7   0.0038   0.0075   0.0062  -0.0031  -0.0055   0.0025   0.00    2.5
2017/08/03 02:49:59.999   1130773.6397  -4831253.4166   3994200.4736   2   7   0.0040   0.0075   0.0062  -0.0031  -0.0055   0.0025   0.00    2.4
2017/08/03 02:50:29.999   1130773.6471  -4831253.4159   3994200.4652   2   7   0.0039   0.0075   0.0062  -0.0031  -0.0055   0.0025   0.00    2.4
2017/08/03 02:50:59.999   1130773.6493  -4831253.4161   3994200.4553   2   7   0.0040   0.0075   0.0062  -0.0032  -0.0054   0.0024   0.00    2.3
2017/08/03 02:51:29.999   1130773.6420  -4831253.4232   3994200.4544   2   7   0.0038   0.0075   0.0062  -0.0032  -0.0053   0.0024   0.00    2.3
2017/08/03 02:51:59.999   1130773.6423  -4831253.4297   3994200.4553   2   7   0.0039   0.0075   0.0062  -0.0032  -0.0054   0.0023   0.00    2.2
2017/08/03 02:52:29.999   1130773.6380  -4831253.4307   3994200.4668   2   7   0.0039   0.0075   0.0061  -0.0032  -0.0053   0.0026   0.00    2.2
2017/08/03 02:52:59.999   1130773.6364  -4831253.4405   3994200.4712   2   7   0.0038   0.0075   0.0061  -0.0032  -0.0053   0.0025   0.00    2.2
2017/08/03 02:53:29.999   1130773.6363  -4831253.4350   3994200.4609   2   7   0.0040   0.0075   0.0063  -0.0032  -0.0053   0.0025   0.00    2.1
2017/08/03 02:53:59.999   1130773.6374  -4831253.4434   3994200.4621   2   7   0.0041   0.0075   0.0061  -0.0032  -0.0053   0.0024   0.00    2.1
2017/08/03 02:54:29.999   1130773.6319  -4831253.4311   3994200.4476   2   7   0.0041   0.0075   0.0061  -0.0033  -0.0053   0.0024   0.00    2.1
2017/08/03 02:54:59.999   1130773.6332  -4831253.4185   3994200.4391   2   7   0.0039   0.0076   0.0061  -0.0032  -0.0053   0.0024   0.00    2.0
2017/08/03 02:55:29.999   1130773.6783  -4831253.4802   3994200.4099   1   7   0.0046   0.0099   0.0078  -0.0048  -0.0069   0.0037   0.00    3.0
2017/08/03 02:55:59.999   1130773.6807  -4831253.4555   3994200.3790   1   7   0.0047   0.0099   0.0080  -0.0047  -0.0070   0.0037   0.00    3.1
2017/08/03 02:56:29.999   1130773.6809  -4831253.4445   3994200.3704   1   7   0.0046   0.0099   0.0082  -0.0047  -0.0068   0.0034   0.00    3.3
2017/08/03 02:56:59.999   1130773.6867  -4831253.4352   3994200.3600   1   7   0.0047   0.0098   0.0080  -0.0049  -0.0068   0.0032   0.00    3.4
2017/08/03 02:57:29.999   1130773.6751  -4831253.4485   3994200.3663   1   7   0.0050   0.0099   0.0079  -0.0048  -0.0069   0.0033   0.00    3.7
2017/08/03 02:57:59.999   1130773.6672  -4831253.4749   3994200.3838   1   7   0.0044   0.0100   0.0078  -0.0047  -0.0067   0.0037   0.00    3.9
2017/08/03 02:58:29.999   1130773.6615  -4831253.4854   3994200.3954   1   7   0.0046   0.0100   0.0080  -0.0048  -0.0068   0.0037   0.00    4.0
2017/08/03 02:58:59.999   1130773.6570  -4831253.4997   3994200.4042   1   7   0.0046   0.0100   0.0077  -0.0047  -0.0069   0.0034   0.00    4.2
2017/08/03 02:59:29.999   1130773.6560  -4831253.5283   3994200.4276   1   7   0.0049   0.0100   0.0079  -0.0047  -0.0067   0.0034   0.00    4.2
2017/08/03 02:59:59.999   1130773.6540  -4831253.5504   3994200.4362   1   7   0.0049   0.0100   0.0079  -0.0049  -0.0069   0.0035   0.00    4.2
2017/08/03 03:00:29.999   1130773.6565  -4831253.5521   3994200.4262   1   7   0.0045   0.0100   0.0078  -0.0049  -0.0067   0.0034   0.00    4.1
2017/08/03 03:00:59.999   1130773.6530  -4831253.5587   3994200.4234   1   7   0.0046   0.0099   0.0076  -0.0050  -0.0068   0.0035   0.00    4.0
2017/08/03 03:01:29.999   1130773.6497  -4831253.5554   3994200.4199   1   7   0.0049   0.0100   0.0078  -0.0049  -0.0068   0.0034   0.00    3.9
2017/08/03 03:01:59.999   1130773.6529  -4831253.5608   3994200.4309   1   7   0.0049   0.0100   0.0076  -0.0049  -0.0067   0.0033   0.00    3.7
2017/08/03 03:02:29.999   1130773.6509  -4831253.5715   3994200.4427   1   7   0.0046   0.0100   0.0075  -0.0049  -0.0068   0.0031   0.00    3.6
2017/08/03 03:02:59.999   1130773.6535  -4831253.5822   3994200.4518   1   7   0.0048   0.0101   0.0076  -0.0048  -0.0069   0.0033   0.00    3.4
2017/08/03 03:03:29.999   1130773.6539  -4831253.5782   3994200.4537   1   7   0.0048   0.0101   0.0074  -0.0050  -0.0067   0.0033   0.00    3.3
2017/08/03 03:03:59.999   1130773.6543  -4831253.5847   3994200.4655   1   7   0.0050   0.0101   0.0076  -0.0050  -0.0066   0.0035   0.00    3.1
2017/08/03 03:04:29.999   1130773.6249  -4831253.5270   3994200.4654   2   7   0.0040   0.0077   0.0057  -0.0035  -0.0050   0.0024   0.00    1.2
2017/08/03 03:04:59.999   1130773.6261  -4831253.5081   3994200.4511   2   7   0.0042   0.0077   0.0057  -0.0036  -0.0051   0.0023   0.00    1.3
2017/08/03 03:05:29.999   1130773.6310  -4831253.5119   3994200.4531   2   7   0.0042   0.0077   0.0057  -0.0036  -0.0051   0.0024   0.00    1.4
2017/08/03 03:05:59.999   1130773.6282  -4831253.5096   3994200.4537   2   7   0.0040   0.0077   0.0056  -0.0036  -0.0051   0.0023   0.00    1.4
2017/08/03 03:06:29.999   1130773.6262  -4831253.4940   3994200.4512   2   7   0.0041   0.0077   0.0056  -0.0037  -0.0051   0.0025   0.00    1.6
2017/08/03 03:06:59.999   1130773.6372  -4831253.4977   3994200.4616   2   7   0.0041   0.0077   0.0056  -0.0036  -0.0050   0.0025   0.00    1.7
2017/08/03 03:07:29.999   1130773.6386  -4831253.5050   3994200.4731   2   7   0.0041   0.0078   0.0055  -0.0036  -0.0050   0.0023   0.00    1.9
2017/08/03 03:07:59.999   1130773.6423  -4831253.5000   3994200.4827   2   7   0.0042   0.0077   0.0055  -0.0038  -0.0050   0.0024   0.00    2.1
2017/08/03 03:08:29.999   1130773.6383  -4831253.4933   3994200.4781   2   7   0.0042   0.0078   0.0056  -0.0037  -0.0051   0.0025   0.00    2.3
2017/08/03 03:08:59.999   1130773.6280  -4831253.4741   3994200.4745   2   7   0.0042   0.0078   0.0055  -0.0037  -0.0051   0.0023   0.00    2.6
2017/08/03 03:09:29.999   1130773.6217  -4831253.4681   3994200.4751   2   7   0.0042   0.0078   0.0054  -0.0038  -0.0049   0.0024   0.00    2.9
2017/08/03 03:09:59.999   1130773.6620  -4831253.5051   3994200.4658   1   7   0.0049   0.0103   0.0072  -0.0051  -0.0067   0.0036   0.00    3.3
2017/08/03 03:10:29.999   1130773.6573  -4831253.5045   3994200.4714   1   7   0.0049   0.0103   0.0073  -0.0054  -0.0066   0.0034   0.00    3.7
2017/08/03 03:10:59.999   1130773.6661  -4831253.5070   3994200.4834   1   7   0.0049   0.0104   0.0073  -0.0052  -0.0068   0.0031   0.00    4.2
2017/08/03 03:11:29.999   1130773.6676  -4831253.4955   3994200.4773   1   7   0.0049   0.0103   0.0073  -0.0054  -0.0066   0.0034   0.00    4.5
2017/08/03 03:11:59.999   1130773.6708  -4831253.5039   3994200.4794   1   7   0.0050   0.0104   0.0074  -0.0053  -0.0066   0.0033   0.00    4.7
2017/08/03 03:12:29.999   1130773.6787  -4831253.5054   3994200.4777   1   7   0.0052   0.0104   0.0071  -0.0053  -0.0065   0.0037   0.00    4.8
2017/08/03 03:12:59.999   1130773.6144  -4831253.4552   3994200.5002   2   8   0.0041   0.0077   0.0052  -0.0036  -0.0047   0.0019   0.00    1.0
2017/08/03 03:13:29.999   1130773.6162  -4831253.4534   3994200.4920   2   8   0.0040   0.0076   0.0052  -0.0035  -0.0046   0.0017   0.00    1.0
2017/08/03 03:13:59.999   1130773.6212  -4831253.4697   3994200.4955   2   8   0.0041   0.0076   0.0051  -0.0034  -0.0044   0.0014   0.00    1.1
2017/08/03 03:14:29.999   1130773.6259  -4831253.4816   3994200.5028   2   8   0.0039   0.0076   0.0051  -0.0034  -0.0045   0.0017   0.00    1.1
2017/08/03 03:14:59.999   1130773.6334  -4831253.4924   3994200.5070   2   8   0.0040   0.0076   0.0050  -0.0034  -0.0045   0.0016   0.00    1.1
2017/08/03 03:15:29.999   1130773.6342  -4831253.4937   3994200.5043   2   8   0.0039   0.0077   0.0048  -0.0034  -0.0044   0.0016   0.00    1.1
2017/08/03 03:15:59.999   1130773.6321  -4831253.5055   3994200.5202   2   8   0.0041   0.0076   0.0050  -0.0035  -0.0044   0.0017   0.00    1.2
2017/08/03 03:16:29.999   1130773.6407  -4831253.5264   3994200.5357   2   8   0.0038   0.0076   0.0050  -0.0034  -0.0044   0.0017   0.00    1.2
2017/08/03 03:16:59.999   1130773.6389  -4831253.5466   3994200.5480   2   8   0.0039   0.0077   0.0050  -0.0034  -0.0045   0.0016   0.00    1.2
2017/08/03 03:17:29.999   1130773.6489  -4831253.5746   3994200.5683   2   8   0.0038   0.0077   0.0049  -0.0035  -0.0044   0.0013   0.00    1.2
2017/08/03 03:17:59.999   1130773.6548  -4831253.5871   3994200.5816   2   8   0.0038   0.0076   0.0049  -0.0035  -0.0044   0.0013   0.00    1.2
2017/08/03 03:18:29.999   1130773.6543  -4831253.5903   3994200.5756   2   8   0.0039   0.0077   0.0048  -0.0035  -0.0044   0.0012   0.00    1.2
2017/08/03 03:18:59.999   1130773.6536  -4831253.5971   3994200.5809   2   8   0.0039   0.0077   0.0050  -0.0035  -0.0043   0.0014   0.00    1.3
2017/08/03 03:19:29.999   1130773.6455  -4831253.5881   3994200.5699   2   8   0.0039   0.0077   0.0048  -0.0035  -0.0044   0.0013   0.00    1.3
2017/08/03 03:19:59.999   1130773.6404  -4831253.5675   3994200.5569   2   8   0.0038   0.0077   0.0049  -0.0034  -0.0044   0.0014   0.00    1.3
2017/08/03 03:20:29.999   1130773.6356  -4831253.5499   3994200.5467   2   8   0.0039   0.0077   0.0050  -0.0035  -0.0043   0.0012   0.00    1.3
2017/08/03 03:20:59.999   1130773.6270  -4831253.5395   3994200.5455   2   8   0.0040   0.0077   0.0048  -0.0036  -0.0043   0.0012   0.00    1.3
2017/08/03 03:21:29.999   1130773.6225  -4831253.5205   3994200.5377   2   8   0.0040   0.0078   0.0049  -0.0034  -0.0043   0.0014   0.00    1.4
2017/08/03 03:21:59.999   1130773.6125  -4831253.5236   3994200.5284   2   8   0.0039   0.0078   0.0050  -0.0036  -0.0043   0.0013   0.00    1.4
