% program   : RTKPOST ver.2.4.3 b34
% inp file  : C:\Users\Danisimo\Desktop\??????\GODN\godn0030_19o
% inp file  : C:\Users\Danisimo\Desktop\??????\GODS\gods0030_19o
% inp file  : C:\Users\Danisimo\Desktop\??????\BRDM00DLR_R_20190030000_01D_MN.rnx
% inp file  : C:\Users\Danisimo\Desktop\??????\igs20344.sp3
% inp file  : C:\Users\Danisimo\Desktop\??????\igs20344.clk_30s
% obs start : 2019/01/03 00:00:00.0 GPST (week2034 345600.0s)
% obs end   : 2019/01/03 23:59:30.0 GPST (week2034 431970.0s)
% pos mode  : Static
% freqs     : L1+2
% solution  : Combined
% elev mask : 15.0 deg
% dynamics  : off
% tidecorr  : off
% ionos opt : Broadcast
% tropo opt : Saastamoinen
% ephemeris : Precise
% navi sys  : GPS
% amb res   : Continuous
% val thres : 3.0
% antenna1  :                       ( 0.0000  0.0000  0.0083)
% antenna2  :                       ( 0.0000  0.0000  0.0083)
% ref pos   :  1130752.2576  -4831349.1016   3994098.9425
%
% (x/y/z-ecef=WGS84,Q=1:fix,2:float,3:sbas,4:dgps,5:single,6:ppp,ns=# of satellites)
%  GPST                      x-ecef(m)      y-ecef(m)      z-ecef(m)   Q  ns   sdx(m)   sdy(m)   sdz(m)  sdxy(m)  sdyz(m)  sdzx(m) age(s)  ratio
2019/01/03 00:00:00.000   1130760.8221  -4831298.6701   3994155.1842   1   7   0.0004   0.0004   0.0003  -0.0001  -0.0002   0.0001   0.00   49.2
2019/01/03 00:00:30.000   1130760.8221  -4831298.6701   3994155.1841   1   7   0.0004   0.0004   0.0003  -0.0001  -0.0002   0.0001   0.00  131.8
2019/01/03 00:01:00.000   1130760.8221  -4831298.6701   3994155.1842   1   7   0.0004   0.0004   0.0003  -0.0001  -0.0002   0.0001   0.00  324.2
2019/01/03 00:01:30.000   1130760.8221  -4831298.6701   3994155.1842   1   7   0.0004   0.0004   0.0003  -0.0001  -0.0002   0.0001   0.00  301.7
2019/01/03 00:02:00.000   1130760.8221  -4831298.6701   3994155.1842   1   7   0.0004   0.0004   0.0003  -0.0001  -0.0002   0.0001   0.00  302.4
2019/01/03 00:02:30.000   1130760.8221  -4831298.6701   3994155.1841   1   7   0.0004   0.0004   0.0003  -0.0001  -0.0002   0.0001   0.00  350.9
2019/01/03 00:03:00.000   1130760.8221  -4831298.6701   3994155.1842   1   7   0.0004   0.0004   0.0003  -0.0001  -0.0002   0.0001   0.00  528.2
2019/01/03 00:03:30.000   1130760.8221  -4831298.6701   3994155.1841   1   7   0.0004   0.0004   0.0003  -0.0001  -0.0002   0.0001   0.00  571.7
2019/01/03 00:04:00.000   1130760.8221  -4831298.6701   3994155.1842   1   7   0.0004   0.0004   0.0003  -0.0001  -0.0002   0.0001   0.00  708.8
2019/01/03 00:04:30.000   1130760.8221  -4831298.6701   3994155.1842   1   7   0.0004   0.0004   0.0003  -0.0001  -0.0002   0.0001   0.00  905.5
2019/01/03 00:05:00.000   1130760.8221  -4831298.6701   3994155.1842   1   7   0.0004   0.0004   0.0003  -0.0001  -0.0002   0.0001   0.00  914.8
2019/01/03 00:05:30.000   1130760.8221  -4831298.6701   3994155.1841   1   7   0.0004   0.0004   0.0003  -0.0001  -0.0002   0.0001   0.00  852.4
2019/01/03 00:06:00.000   1130760.8221  -4831298.6701   3994155.1841   1   7   0.0004   0.0004   0.0003  -0.0001  -0.0002   0.0001   0.00  979.1
2019/01/03 00:06:30.000   1130760.8221  -4831298.6701   3994155.1842   1   7   0.0004   0.0004   0.0003  -0.0001  -0.0002   0.0001   0.00  999.9
2019/01/03 00:07:00.000   1130760.8221  -4831298.6701   3994155.1841   1   7   0.0004   0.0004   0.0003  -0.0001  -0.0002   0.0001   0.00  999.9
2019/01/03 00:07:30.000   1130760.8221  -4831298.6701   3994155.1842   1   7   0.0004   0.0004   0.0003  -0.0001  -0.0002   0.0001   0.00  999.9
2019/01/03 00:08:00.000   1130760.8221  -4831298.6701   3994155.1841   1   7   0.0004   0.0004   0.0003  -0.0001  -0.0002   0.0001   0.00  999.9
2019/01/03 00:08:30.000   1130760.8221  -4831298.6701   3994155.1841   1   7   0.0004   0.0004   0.0003  -0.0001  -0.0002   0.0001   0.00  999.9
2019/01/03 00:09:00.000   1130760.8221  -4831298.6701   3994155.1841   1   7   0.0004   0.0004   0.0003  -0.0001  -0.0002   0.0001   0.00  999.9
2019/01/03 00:09:30.000   1130760.8221  -4831298.6701   3994155.1841   1   7   0.0004   0.0004   0.0003  -0.0001  -0.0002   0.0001   0.00  999.9
2019/01/03 00:10:00.000   1130760.8221  -4831298.6701   3994155.1841   1   7   0.0004   0.0004   0.0003  -0.0001  -0.0002   0.0001   0.00  999.9
2019/01/03 00:10:30.000   1130760.8221  -4831298.6701   3994155.1841   1   7   0.0004   0.0004   0.0003  -0.0001  -0.0002   0.0001   0.00  999.9
2019/01/03 00:11:00.000   1130760.8221  -4831298.6701   3994155.1841   1   7   0.0004   0.0004   0.0003  -0.0001  -0.0002   0.0001   0.00  999.9
2019/01/03 00:11:30.000   1130760.8221  -4831298.6701   3994155.1841   1   7   0.0004   0.0004   0.0003  -0.0001  -0.0002   0.0001   0.00  999.9
2019/01/03 00:12:00.000   1130760.8222  -4831298.6701   3994155.1841   1   7   0.0004   0.0004   0.0003  -0.0001  -0.0002   0.0001   0.00  999.9
2019/01/03 00:12:30.000   1130760.8221  -4831298.6701   3994155.1841   1   7   0.0004   0.0004   0.0003  -0.0001  -0.0002   0.0001   0.00  999.9
2019/01/03 00:13:00.000   1130760.8221  -4831298.6701   3994155.1841   1   7   0.0004   0.0004   0.0003  -0.0001  -0.0002   0.0001   0.00  999.9
2019/01/03 00:13:30.000   1130760.8222  -4831298.6701   3994155.1841   1   7   0.0004   0.0004   0.0003  -0.0001  -0.0002   0.0001   0.00  999.9
2019/01/03 00:14:00.000   1130760.8221  -4831298.6701   3994155.1841   1   7   0.0004   0.0004   0.0003  -0.0001  -0.0002   0.0001   0.00  999.9
2019/01/03 00:14:30.000   1130760.8222  -4831298.6701   3994155.1841   1   7   0.0004   0.0004   0.0003  -0.0001  -0.0002   0.0001   0.00  999.9
2019/01/03 00:15:00.000   1130760.8221  -4831298.6701   3994155.1841   1   7   0.0004   0.0004   0.0003  -0.0001  -0.0002   0.0001   0.00  999.9
2019/01/03 00:15:30.000   1130760.8222  -4831298.6701   3994155.1841   1   7   0.0004   0.0004   0.0003  -0.0001  -0.0002   0.0001   0.00  999.9
2019/01/03 00:16:00.000   1130760.8221  -4831298.6701   3994155.1841   1   7   0.0004   0.0004   0.0003  -0.0001  -0.0002   0.0001   0.00  999.9
2019/01/03 00:16:30.000   1130760.8222  -4831298.6701   3994155.1841   1   7   0.0004   0.0004   0.0003  -0.0001  -0.0002   0.0001   0.00  999.9
2019/01/03 00:17:00.000   1130760.8221  -4831298.6701   3994155.1841   1   7   0.0004   0.0004   0.0003  -0.0001  -0.0002   0.0001   0.00  999.9
2019/01/03 00:17:30.000   1130760.8221  -4831298.6701   3994155.1841   1   7   0.0004   0.0004   0.0003  -0.0001  -0.0002   0.0001   0.00  999.9
2019/01/03 00:18:00.000   1130760.8221  -4831298.6701   3994155.1841   1   7   0.0004   0.0004   0.0003  -0.0001  -0.0002   0.0001   0.00  999.9
2019/01/03 00:18:30.000   1130760.8222  -4831298.6701   3994155.1841   1   7   0.0004   0.0004   0.0003  -0.0001  -0.0002   0.0001   0.00  999.9
2019/01/03 00:19:00.000   1130760.8222  -4831298.6701   3994155.1841   1   7   0.0004   0.0004   0.0003  -0.0001  -0.0002   0.0001   0.00  999.9
2019/01/03 00:19:30.000   1130760.8222  -4831298.6701   3994155.1841   1   7   0.0004   0.0004   0.0003  -0.0001  -0.0002   0.0001   0.00  999.9
2019/01/03 00:20:00.000   1130760.8222  -4831298.6701   3994155.1841   1   7   0.0004   0.0004   0.0003  -0.0001  -0.0002   0.0001   0.00  999.9
2019/01/03 00:20:30.000   1130760.8222  -4831298.6701   3994155.1841   1   7   0.0004   0.0004   0.0003  -0.0001  -0.0002   0.0001   0.00  999.9
2019/01/03 00:21:00.000   1130760.8222  -4831298.6701   3994155.1841   1   7   0.0004   0.0004   0.0003  -0.0001  -0.0002   0.0001   0.00  999.9
2019/01/03 00:21:30.000   1130760.8222  -4831298.6701   3994155.1841   1   7   0.0004   0.0004   0.0003  -0.0001  -0.0002   0.0001   0.00  999.9
2019/01/03 00:22:00.000   1130760.8222  -4831298.6701   3994155.1841   1   7   0.0004   0.0004   0.0003  -0.0001  -0.0002   0.0001   0.00  999.9
2019/01/03 00:22:30.000   1130760.8222  -4831298.6701   3994155.1841   1   6   0.0004   0.0004   0.0003  -0.0001  -0.0002   0.0001   0.00  999.9
2019/01/03 00:23:00.000   1130760.8222  -4831298.6701   3994155.1841   1   6   0.0004   0.0004   0.0003  -0.0001  -0.0002   0.0001   0.00  999.9
2019/01/03 00:23:30.000   1130760.8222  -4831298.6701   3994155.1841   1   6   0.0004   0.0004   0.0003  -0.0001  -0.0002   0.0001   0.00  999.9
2019/01/03 00:24:00.000   1130760.8222  -4831298.6701   3994155.1841   1   6   0.0004   0.0004   0.0003  -0.0001  -0.0002   0.0001   0.00  999.9
2019/01/03 00:24:30.000   1130760.8222  -4831298.6701   3994155.1841   1   6   0.0004   0.0004   0.0003  -0.0001  -0.0002   0.0001   0.00  999.9
2019/01/03 00:25:00.000   1130760.8222  -4831298.6701   3994155.1841   1   6   0.0004   0.0004   0.0003  -0.0001  -0.0002   0.0001   0.00  999.9
2019/01/03 00:25:30.000   1130760.8222  -4831298.6701   3994155.1841   1   6   0.0004   0.0004   0.0003  -0.0001  -0.0002   0.0001   0.00  999.9
2019/01/03 00:26:00.000   1130760.8222  -4831298.6701   3994155.1841   1   6   0.0004   0.0004   0.0003  -0.0001  -0.0002   0.0001   0.00  999.9
2019/01/03 00:26:30.000   1130760.8222  -4831298.6701   3994155.1842   1   7   0.0004   0.0004   0.0003  -0.0001  -0.0002   0.0001   0.00   58.5
2019/01/03 00:27:00.000   1130760.8222  -4831298.6701   3994155.1842   1   7   0.0004   0.0004   0.0003  -0.0001  -0.0002   0.0001   0.00  128.1
2019/01/03 00:27:30.000   1130760.8222  -4831298.6701   3994155.1842   1   7   0.0004   0.0004   0.0003  -0.0001  -0.0002   0.0001   0.00  164.9
2019/01/03 00:28:00.000   1130760.8222  -4831298.6700   3994155.1842   1   7   0.0004   0.0004   0.0003  -0.0001  -0.0002   0.0001   0.00  192.9
2019/01/03 00:28:30.000   1130760.8222  -4831298.6700   3994155.1842   1   7   0.0004   0.0004   0.0003  -0.0001  -0.0002   0.0001   0.00  253.4
2019/01/03 00:29:00.000   1130760.8222  -4831298.6701   3994155.1842   1   7   0.0004   0.0004   0.0003  -0.0001  -0.0002   0.0001   0.00  333.5
2019/01/03 00:29:30.000   1130760.8222  -4831298.6701   3994155.1842   1   7   0.0004   0.0004   0.0003  -0.0001  -0.0002   0.0001   0.00  372.7
2019/01/03 00:30:00.000   1130760.8222  -4831298.6700   3994155.1842   1   7   0.0004   0.0004   0.0003  -0.0001  -0.0002   0.0001   0.00  367.8
2019/01/03 00:30:30.000   1130760.8222  -4831298.6700   3994155.1842   1   7   0.0004   0.0004   0.0003  -0.0001  -0.0002   0.0001   0.00  406.4
2019/01/03 00:31:00.000   1130760.8222  -4831298.6700   3994155.1842   1   7   0.0004   0.0004   0.0003  -0.0001  -0.0002   0.0001   0.00  461.8
2019/01/03 00:31:30.000   1130760.8222  -4831298.6700   3994155.1842   1   7   0.0004   0.0004   0.0003  -0.0001  -0.0002   0.0001   0.00  473.3
2019/01/03 00:32:00.000   1130760.8222  -4831298.6700   3994155.1842   1   7   0.0004   0.0004   0.0003  -0.0001  -0.0002   0.0001   0.00  596.3
2019/01/03 00:32:30.000   1130760.8222  -4831298.6700   3994155.1842   1   7   0.0004   0.0004   0.0003  -0.0001  -0.0002   0.0001   0.00  714.4
2019/01/03 00:33:00.000   1130760.8222  -4831298.6700   3994155.1842   1   7   0.0004   0.0004   0.0003  -0.0001  -0.0002   0.0001   0.00  814.8
2019/01/03 00:33:30.000   1130760.8222  -4831298.6700   3994155.1842   1   7   0.0004   0.0004   0.0003  -0.0001  -0.0002   0.0001   0.00  895.1
2019/01/03 00:34:00.000   1130760.8222  -4831298.6700   3994155.1842   1   7   0.0004   0.0004   0.0003  -0.0001  -0.0002   0.0001   0.00  901.9
2019/01/03 00:34:30.000   1130760.8222  -4831298.6700   3994155.1842   1   7   0.0004   0.0004   0.0003  -0.0001  -0.0002   0.0001   0.00  936.1
2019/01/03 00:35:00.000   1130760.8222  -4831298.6700   3994155.1842   1   7   0.0004   0.0004   0.0003  -0.0001  -0.0002   0.0001   0.00  982.9
2019/01/03 00:35:30.000   1130760.8222  -4831298.6700   3994155.1842   1   7   0.0004   0.0004   0.0003  -0.0001  -0.0002   0.0001   0.00  999.9
2019/01/03 00:36:00.000   1130760.8222  -4831298.6700   3994155.1842   1   7   0.0004   0.0004   0.0003  -0.0001  -0.0002   0.0001   0.00  999.9
2019/01/03 00:36:30.000   1130760.8222  -4831298.6700   3994155.1842   1   7   0.0004   0.0004   0.0003  -0.0001  -0.0002   0.0001   0.00  999.9
2019/01/03 00:37:00.000   1130760.8223  -4831298.6701   3994155.1842   1   8   0.0003   0.0004   0.0003  -0.0001  -0.0002   0.0001   0.00   50.2
2019/01/03 00:37:30.000   1130760.8223  -4831298.6701   3994155.1842   1   8   0.0003   0.0004   0.0003  -0.0001  -0.0002   0.0001   0.00  109.3
2019/01/03 00:38:00.000   1130760.8223  -4831298.6701   3994155.1841   1   8   0.0003   0.0004   0.0003  -0.0001  -0.0002   0.0001   0.00  160.8
2019/01/03 00:38:30.000   1130760.8223  -4831298.6701   3994155.1842   1   8   0.0003   0.0004   0.0003  -0.0001  -0.0002   0.0001   0.00  197.8
2019/01/03 00:39:00.000   1130760.8223  -4831298.6701   3994155.1842   1   8   0.0003   0.0004   0.0003  -0.0001  -0.0002   0.0001   0.00  225.6
2019/01/03 00:39:30.000   1130760.8223  -4831298.6701   3994155.1842   1   8   0.0003   0.0004   0.0003  -0.0001  -0.0002   0.0001   0.00  237.8
2019/01/03 00:40:00.000   1130760.8223  -4831298.6701   3994155.1842   1   8   0.0003   0.0004   0.0003  -0.0001  -0.0002   0.0001   0.00  236.9
2019/01/03 00:40:30.000   1130760.8223  -4831298.6701   3994155.1842   1   8   0.0003   0.0004   0.0003  -0.0001  -0.0002   0.0001   0.00  248.9
2019/01/03 00:41:00.000   1130760.8223  -4831298.6700   3994155.1841   1   8   0.0003   0.0004   0.0003  -0.0001  -0.0002   0.0001   0.00  281.3
2019/01/03 00:41:30.000   1130760.8223  -4831298.6701   3994155.1842   1   8   0.0003   0.0004   0.0003  -0.0001  -0.0002   0.0001   0.00  325.7
2019/01/03 00:42:00.000   1130760.8223  -4831298.6701   3994155.1842   1   8   0.0003   0.0004   0.0003  -0.0001  -0.0002   0.0001   0.00  402.9
2019/01/03 00:42:30.000   1130760.8223  -4831298.6701   3994155.1842   1   8   0.0003   0.0004   0.0003  -0.0001  -0.0002   0.0001   0.00  431.0
2019/01/03 00:43:00.000   1130760.8223  -4831298.6701   3994155.1842   1   8   0.0003   0.0004   0.0003  -0.0001  -0.0002   0.0001   0.00  461.2
2019/01/03 00:43:30.000   1130760.8223  -4831298.6701   3994155.1842   1   8   0.0003   0.0004   0.0003  -0.0001  -0.0002   0.0001   0.00  571.0
2019/01/03 00:44:00.000   1130760.8223  -4831298.6701   3994155.1842   1   9   0.0003   0.0004   0.0003  -0.0001  -0.0002   0.0001   0.00   47.3
2019/01/03 00:44:30.000   1130760.8223  -4831298.6701   3994155.1842   1   9   0.0003   0.0004   0.0003  -0.0001  -0.0002   0.0001   0.00  103.5
2019/01/03 00:45:00.000   1130760.8223  -4831298.6701   3994155.1842   1   9   0.0003   0.0004   0.0003  -0.0001  -0.0002   0.0001   0.00  154.8
2019/01/03 00:45:30.000   1130760.8223  -4831298.6701   3994155.1842   1   9   0.0003   0.0004   0.0003  -0.0001  -0.0002   0.0001   0.00  211.1
2019/01/03 00:46:00.000   1130760.8223  -4831298.6701   3994155.1842   1   9   0.0003   0.0004   0.0003  -0.0001  -0.0002   0.0001   0.00  273.5
2019/01/03 00:46:30.000   1130760.8223  -4831298.6701   3994155.1842   1   9   0.0003   0.0004   0.0003  -0.0001  -0.0002   0.0001   0.00  332.1
2019/01/03 00:47:00.000   1130760.8223  -4831298.6701   3994155.1842   1   9   0.0003   0.0004   0.0003  -0.0001  -0.0002   0.0001   0.00  362.5
2019/01/03 00:47:30.000   1130760.8223  -4831298.6701   3994155.1842   1   9   0.0003   0.0004   0.0003  -0.0001  -0.0002   0.0001   0.00  443.7
2019/01/03 00:48:00.000   1130760.8223  -4831298.6701   3994155.1842   1   9   0.0003   0.0004   0.0003  -0.0001  -0.0002   0.0001   0.00  459.9
2019/01/03 00:48:30.000   1130760.8223  -4831298.6700   3994155.1842   1   9   0.0003   0.0004   0.0003  -0.0001  -0.0002   0.0001   0.00  613.0
2019/01/03 00:49:00.000   1130760.8223  -4831298.6700   3994155.1842   1   9   0.0003   0.0004   0.0003  -0.0001  -0.0002   0.0001   0.00  678.0
2019/01/03 00:49:30.000   1130760.8223  -4831298.6700   3994155.1842   1   9   0.0003   0.0004   0.0003  -0.0001  -0.0002   0.0001   0.00  638.1
2019/01/03 00:50:00.000   1130760.8223  -4831298.6700   3994155.1842   1   9   0.0003   0.0004   0.0003  -0.0001  -0.0002   0.0001   0.00  649.3
2019/01/03 00:50:30.000   1130760.8223  -4831298.6700   3994155.1842   1   9   0.0003   0.0004   0.0003  -0.0001  -0.0002   0.0001   0.00  630.2
2019/01/03 00:51:00.000   1130760.8223  -4831298.6701   3994155.1842   1   9   0.0003   0.0004   0.0003  -0.0001  -0.0002   0.0001   0.00  673.4
2019/01/03 00:51:30.000   1130760.8223  -4831298.6701   3994155.1842   1   9   0.0003   0.0004   0.0003  -0.0001  -0.0002   0.0001   0.00  704.7
2019/01/03 00:52:00.000   1130760.8223  -4831298.6701   3994155.1842   1   9   0.0003   0.0004   0.0003  -0.0001  -0.0002   0.0001   0.00  755.9
2019/01/03 00:52:30.000   1130760.8223  -4831298.6700   3994155.1842   1   9   0.0003   0.0004   0.0003  -0.0001  -0.0002   0.0001   0.00  782.6
2019/01/03 00:53:00.000   1130760.8223  -4831298.6700   3994155.1842   1   9   0.0003   0.0004   0.0003  -0.0001  -0.0002   0.0001   0.00  868.7
2019/01/03 00:53:30.000   1130760.8223  -4831298.6700   3994155.1842   1   9   0.0003   0.0004   0.0003  -0.0001  -0.0002   0.0001   0.00  888.2
2019/01/03 00:54:00.000   1130760.8223  -4831298.6700   3994155.1842   1   9   0.0003   0.0004   0.0003  -0.0001  -0.0002   0.0001   0.00  952.5
2019/01/03 00:54:30.000   1130760.8223  -4831298.6701   3994155.1842   1   9   0.0003   0.0004   0.0003  -0.0001  -0.0002   0.0001   0.00  994.8
2019/01/03 00:55:00.000   1130760.8223  -4831298.6700   3994155.1842   1   9   0.0003   0.0004   0.0003  -0.0001  -0.0002   0.0001   0.00  999.9
2019/01/03 00:55:30.000   1130760.8223  -4831298.6701   3994155.1842   1   9   0.0003   0.0004   0.0003  -0.0001  -0.0002   0.0001   0.00  999.9
2019/01/03 00:56:00.000   1130760.8223  -4831298.6700   3994155.1842   1   9   0.0003   0.0004   0.0003  -0.0001  -0.0002   0.0001   0.00  999.9
2019/01/03 00:56:30.000   1130760.8223  -4831298.6700   3994155.1842   1   9   0.0003   0.0004   0.0003  -0.0001  -0.0002   0.0001   0.00  999.9
2019/01/03 00:57:00.000   1130760.8223  -4831298.6700   3994155.1842   1   9   0.0003   0.0004   0.0003  -0.0001  -0.0002   0.0001   0.00  999.9
2019/01/03 00:57:30.000   1130760.8223  -4831298.6700   3994155.1842   1   9   0.0003   0.0004   0.0003  -0.0001  -0.0002   0.0001   0.00  999.9
2019/01/03 00:58:00.000   1130760.8223  -4831298.6700   3994155.1842   1   9   0.0003   0.0004   0.0003  -0.0001  -0.0002   0.0001   0.00  999.9
2019/01/03 00:58:30.000   1130760.8223  -4831298.6700   3994155.1842   1   9   0.0003   0.0004   0.0003  -0.0001  -0.0002   0.0001   0.00  999.9
2019/01/03 00:59:00.000   1130760.8223  -4831298.6700   3994155.1842   1   9   0.0003   0.0004   0.0003  -0.0001  -0.0002   0.0001   0.00  999.9
2019/01/03 00:59:30.000   1130760.8223  -4831298.6700   3994155.1842   1   9   0.0003   0.0004   0.0003  -0.0001  -0.0002   0.0001   0.00  999.9
2019/01/03 01:00:00.000   1130760.8223  -4831298.6700   3994155.1842   1   9   0.0003   0.0004   0.0003  -0.0001  -0.0002   0.0001   0.00  999.9
2019/01/03 01:00:30.000   1130760.8223  -4831298.6700   3994155.1842   1   9   0.0003   0.0004   0.0003  -0.0001  -0.0002   0.0001   0.00  999.9
2019/01/03 01:01:00.000   1130760.8223  -4831298.6700   3994155.1842   1   9   0.0003   0.0004   0.0003  -0.0001  -0.0002   0.0001   0.00  999.9
2019/01/03 01:01:30.000   1130760.8223  -4831298.6700   3994155.1842   1   9   0.0003   0.0004   0.0003  -0.0001  -0.0002   0.0001   0.00  999.9
2019/01/03 01:02:00.000   1130760.8223  -4831298.6700   3994155.1842   1   9   0.0003   0.0004   0.0003  -0.0001  -0.0002   0.0001   0.00  999.9
2019/01/03 01:02:30.000   1130760.8223  -4831298.6700   3994155.1842   1   9   0.0003   0.0004   0.0003  -0.0001  -0.0002   0.0001   0.00  999.9
2019/01/03 01:03:00.000   1130760.8223  -4831298.6700   3994155.1842   1   9   0.0003   0.0004   0.0003  -0.0001  -0.0002   0.0001   0.00  999.9
2019/01/03 01:03:30.000   1130760.8223  -4831298.6700   3994155.1842   1   9   0.0003   0.0004   0.0003  -0.0001  -0.0002   0.0001   0.00  999.9
2019/01/03 01:04:00.000   1130760.8223  -4831298.6700   3994155.1842   1   9   0.0003   0.0004   0.0003  -0.0001  -0.0002   0.0001   0.00  999.9
2019/01/03 01:04:30.000   1130760.8223  -4831298.6700   3994155.1842   1   9   0.0003   0.0004   0.0003  -0.0001  -0.0002   0.0001   0.00  999.9
2019/01/03 01:05:00.000   1130760.8223  -4831298.6700   3994155.1842   1   9   0.0003   0.0004   0.0003  -0.0001  -0.0002   0.0001   0.00  999.9
2019/01/03 01:05:30.000   1130760.8223  -4831298.6700   3994155.1842   1   9   0.0003   0.0004   0.0003  -0.0001  -0.0002   0.0001   0.00  999.9
2019/01/03 01:06:00.000   1130760.8223  -4831298.6700   3994155.1842   1   9   0.0003   0.0004   0.0003  -0.0001  -0.0002   0.0001   0.00  999.9
2019/01/03 01:06:30.000   1130760.8223  -4831298.6700   3994155.1842   1   9   0.0003   0.0004   0.0003  -0.0001  -0.0002   0.0001   0.00  999.9
2019/01/03 01:07:00.000   1130760.8223  -4831298.6700   3994155.1842   1   9   0.0003   0.0004   0.0003  -0.0001  -0.0002   0.0001   0.00  999.9
2019/01/03 01:07:30.000   1130760.8223  -4831298.6700   3994155.1842   1   9   0.0003   0.0004   0.0003  -0.0001  -0.0002   0.0001   0.00  999.9
2019/01/03 01:08:00.000   1130760.8223  -4831298.6700   3994155.1842   1   9   0.0003   0.0004   0.0003  -0.0001  -0.0002   0.0001   0.00  999.9
2019/01/03 01:08:30.000   1130760.8223  -4831298.6700   3994155.1842   1   9   0.0003   0.0004   0.0003  -0.0001  -0.0002   0.0001   0.00  999.9
2019/01/03 01:09:00.000   1130760.8223  -4831298.6700   3994155.1842   1   9   0.0003   0.0004   0.0003  -0.0001  -0.0002   0.0001   0.00  999.9
2019/01/03 01:09:30.000   1130760.8223  -4831298.6700   3994155.1842   1   9   0.0003   0.0004   0.0003  -0.0001  -0.0002   0.0001   0.00  999.9
2019/01/03 01:10:00.000   1130760.8223  -4831298.6700   3994155.1842   1   9   0.0003   0.0004   0.0003  -0.0001  -0.0002   0.0001   0.00  999.9
2019/01/03 01:10:30.000   1130760.8223  -4831298.6700   3994155.1842   1   9   0.0003   0.0004   0.0003  -0.0001  -0.0002   0.0001   0.00  999.9
2019/01/03 01:11:00.000   1130760.8222  -4831298.6700   3994155.1842   1   9   0.0003   0.0004   0.0003  -0.0001  -0.0002   0.0001   0.00  999.9
2019/01/03 01:11:30.000   1130760.8223  -4831298.6700   3994155.1842   1   9   0.0003   0.0004   0.0003  -0.0001  -0.0002   0.0001   0.00  999.9
2019/01/03 01:12:00.000   1130760.8222  -4831298.6700   3994155.1842   1   9   0.0003   0.0004   0.0003  -0.0001  -0.0002   0.0001   0.00  999.9
2019/01/03 01:12:30.000   1130760.8223  -4831298.6700   3994155.1842   1   9   0.0003   0.0004   0.0003  -0.0001  -0.0002   0.0001   0.00  999.9
2019/01/03 01:13:00.000   1130760.8223  -4831298.6700   3994155.1842   1   9   0.0003   0.0004   0.0003  -0.0001  -0.0002   0.0001   0.00  999.9
2019/01/03 01:13:30.000   1130760.8223  -4831298.6700   3994155.1842   1   9   0.0003   0.0004   0.0003  -0.0001  -0.0002   0.0001   0.00  999.9
2019/01/03 01:14:00.000   1130760.8223  -4831298.6700   3994155.1842   1   9   0.0003   0.0004   0.0003  -0.0001  -0.0002   0.0001   0.00  999.9
2019/01/03 01:14:30.000   1130760.8223  -4831298.6700   3994155.1842   1   9   0.0003   0.0004   0.0003  -0.0001  -0.0002   0.0001   0.00  999.9
2019/01/03 01:15:00.000   1130760.8223  -4831298.6700   3994155.1842   1   9   0.0003   0.0004   0.0003  -0.0001  -0.0002   0.0001   0.00  999.9
2019/01/03 01:15:30.000   1130760.8223  -4831298.6700   3994155.1842   1   9   0.0003   0.0004   0.0003  -0.0001  -0.0002   0.0001   0.00  999.9
2019/01/03 01:16:00.000   1130760.8223  -4831298.6700   3994155.1842   1   9   0.0003   0.0004   0.0003  -0.0001  -0.0002   0.0001   0.00  999.9
2019/01/03 01:16:30.000   1130760.8223  -4831298.6700   3994155.1842   1   9   0.0003   0.0004   0.0003  -0.0001  -0.0002   0.0001   0.00  999.9
2019/01/03 01:17:00.000   1130760.8222  -4831298.6700   3994155.1842   1   9   0.0003   0.0004   0.0003  -0.0001  -0.0002   0.0001   0.00  999.9
2019/01/03 01:17:30.000   1130760.8222  -4831298.6700   3994155.1842   1   9   0.0003   0.0004   0.0003  -0.0001  -0.0002   0.0001   0.00  999.9
2019/01/03 01:18:00.000   1130760.8222  -4831298.6700   3994155.1842   1   9   0.0003   0.0004   0.0003  -0.0001  -0.0002   0.0001   0.00  999.9
2019/01/03 01:18:30.000   1130760.8222  -4831298.6700   3994155.1842   1   9   0.0003   0.0004   0.0003  -0.0001  -0.0002   0.0001   0.00  999.9
2019/01/03 01:19:00.000   1130760.8222  -4831298.6700   3994155.1842   1   9   0.0003   0.0004   0.0003  -0.0001  -0.0002   0.0001   0.00  999.9
2019/01/03 01:19:30.000   1130760.8222  -4831298.6700   3994155.1842   1   9   0.0003   0.0004   0.0003  -0.0001  -0.0002   0.0001   0.00  999.9
2019/01/03 01:20:00.000   1130760.8222  -4831298.6700   3994155.1842   1   9   0.0003   0.0004   0.0003  -0.0001  -0.0002   0.0001   0.00  999.9
2019/01/03 01:20:30.000   1130760.8222  -4831298.6700   3994155.1842   1   9   0.0003   0.0004   0.0003  -0.0001  -0.0002   0.0001   0.00  999.9
2019/01/03 01:21:00.000   1130760.8222  -4831298.6700   3994155.1842   1   9   0.0003   0.0004   0.0003  -0.0001  -0.0002   0.0001   0.00  999.9
2019/01/03 01:21:30.000   1130760.8223  -4831298.6700   3994155.1842   1  10   0.0003   0.0004   0.0003  -0.0001  -0.0002   0.0001   0.00   23.5
2019/01/03 01:22:00.000   1130760.8223  -4831298.6700   3994155.1842   1  10   0.0003   0.0004   0.0003  -0.0001  -0.0002   0.0001   0.00   56.1
2019/01/03 01:22:30.000   1130760.8223  -4831298.6700   3994155.1842   1  10   0.0003   0.0004   0.0003  -0.0001  -0.0002   0.0001   0.00   89.2
2019/01/03 01:23:00.000   1130760.8223  -4831298.6700   3994155.1842   1  10   0.0003   0.0004   0.0003  -0.0001  -0.0002   0.0001   0.00  126.5
2019/01/03 01:23:30.000   1130760.8223  -4831298.6700   3994155.1842   1  10   0.0003   0.0004   0.0003  -0.0001  -0.0002   0.0001   0.00  169.1
2019/01/03 01:24:00.000   1130760.8223  -4831298.6700   3994155.1842   1  10   0.0003   0.0004   0.0003  -0.0001  -0.0002   0.0001   0.00  210.0
2019/01/03 01:24:30.000   1130760.8223  -4831298.6700   3994155.1842   1  10   0.0003   0.0004   0.0003  -0.0001  -0.0002   0.0001   0.00  230.4
2019/01/03 01:25:00.000   1130760.8223  -4831298.6700   3994155.1842   1  10   0.0003   0.0004   0.0003  -0.0001  -0.0002   0.0001   0.00  241.0
2019/01/03 01:25:30.000   1130760.8223  -4831298.6700   3994155.1842   1  10   0.0003   0.0004   0.0003  -0.0001  -0.0002   0.0001   0.00  250.4
2019/01/03 01:26:00.000   1130760.8223  -4831298.6700   3994155.1842   1  10   0.0003   0.0004   0.0003  -0.0001  -0.0002   0.0001   0.00  251.1
2019/01/03 01:26:30.000   1130760.8223  -4831298.6700   3994155.1842   1   9   0.0003   0.0004   0.0003  -0.0001  -0.0002   0.0001   0.00  307.8
2019/01/03 01:27:00.000   1130760.8223  -4831298.6700   3994155.1842   1   9   0.0003   0.0004   0.0003  -0.0001  -0.0002   0.0001   0.00  326.1
2019/01/03 01:27:30.000   1130760.8223  -4831298.6700   3994155.1842   1   9   0.0003   0.0004   0.0003  -0.0001  -0.0002   0.0001   0.00  344.4
2019/01/03 01:28:00.000   1130760.8223  -4831298.6700   3994155.1842   1   9   0.0003   0.0004   0.0003  -0.0001  -0.0002   0.0001   0.00  351.2
2019/01/03 01:28:30.000   1130760.8223  -4831298.6700   3994155.1842   1  10   0.0003   0.0004   0.0003  -0.0001  -0.0002   0.0001   0.00   21.1
2019/01/03 01:29:00.000   1130760.8222  -4831298.6700   3994155.1842   1  10   0.0003   0.0004   0.0003  -0.0001  -0.0002   0.0001   0.00   41.5
2019/01/03 01:29:30.000   1130760.8223  -4831298.6700   3994155.1842   1  10   0.0003   0.0004   0.0003  -0.0001  -0.0002   0.0001   0.00   48.7
2019/01/03 01:30:00.000   1130760.8222  -4831298.6700   3994155.1842   1  10   0.0003   0.0004   0.0003  -0.0001  -0.0002   0.0001   0.00   65.0
2019/01/03 01:30:30.000   1130760.8223  -4831298.6700   3994155.1842   1  10   0.0003   0.0004   0.0003  -0.0001  -0.0002   0.0001   0.00   72.9
2019/01/03 01:31:00.000   1130760.8222  -4831298.6700   3994155.1842   1  10   0.0003   0.0004   0.0003  -0.0001  -0.0002   0.0001   0.00   94.2
2019/01/03 01:31:30.000   1130760.8223  -4831298.6700   3994155.1842   1  10   0.0003   0.0004   0.0003  -0.0001  -0.0002   0.0001   0.00  116.7
2019/01/03 01:32:00.000   1130760.8222  -4831298.6701   3994155.1842   1   9   0.0003   0.0004   0.0003  -0.0000  -0.0002   0.0001   0.00  153.9
2019/01/03 01:32:30.000   1130760.8222  -4831298.6700   3994155.1842   1   9   0.0003   0.0004   0.0003  -0.0000  -0.0002   0.0001   0.00  195.7
2019/01/03 01:33:00.000   1130760.8222  -4831298.6700   3994155.1842   1   9   0.0003   0.0004   0.0003  -0.0000  -0.0002   0.0001   0.00  260.8
2019/01/03 01:33:30.000   1130760.8222  -4831298.6700   3994155.1842   1   9   0.0003   0.0004   0.0003  -0.0000  -0.0002   0.0001   0.00  336.2
2019/01/03 01:34:00.000   1130760.8222  -4831298.6700   3994155.1842   1   9   0.0003   0.0004   0.0003  -0.0000  -0.0002   0.0001   0.00  396.1
2019/01/03 01:34:30.000   1130760.8222  -4831298.6700   3994155.1842   1   9   0.0003   0.0004   0.0003  -0.0000  -0.0002   0.0001   0.00  440.8
2019/01/03 01:35:00.000   1130760.8222  -4831298.6700   3994155.1842   1   9   0.0003   0.0004   0.0003  -0.0000  -0.0002   0.0001   0.00  503.9
2019/01/03 01:35:30.000   1130760.8222  -4831298.6700   3994155.1842   1   9   0.0003   0.0004   0.0003  -0.0000  -0.0002   0.0001   0.00  565.1
2019/01/03 01:36:00.000   1130760.8222  -4831298.6700   3994155.1842   1   9   0.0003   0.0004   0.0003  -0.0000  -0.0002   0.0001   0.00  634.2
2019/01/03 01:36:30.000   1130760.8222  -4831298.6700   3994155.1842   1   9   0.0003   0.0004   0.0003  -0.0000  -0.0002   0.0001   0.00  743.9
2019/01/03 01:37:00.000   1130760.8222  -4831298.6700   3994155.1842   1   9   0.0003   0.0004   0.0003  -0.0001  -0.0002   0.0001   0.00  824.4
2019/01/03 01:37:30.000   1130760.8222  -4831298.6700   3994155.1842   1   9   0.0003   0.0004   0.0003  -0.0001  -0.0002   0.0001   0.00  882.2
2019/01/03 01:38:00.000   1130760.8222  -4831298.6700   3994155.1842   1   9   0.0003   0.0004   0.0003  -0.0001  -0.0002   0.0001   0.00  841.8
2019/01/03 01:38:30.000   1130760.8222  -4831298.6700   3994155.1842   1   9   0.0003   0.0004   0.0003  -0.0001  -0.0002   0.0001   0.00  872.9
2019/01/03 01:39:00.000   1130760.8222  -4831298.6700   3994155.1842   1   9   0.0003   0.0004   0.0003  -0.0001  -0.0002   0.0001   0.00  850.1
2019/01/03 01:39:30.000   1130760.8222  -4831298.6700   3994155.1842   1   9   0.0003   0.0004   0.0003  -0.0001  -0.0002   0.0001   0.00  853.2
2019/01/03 01:40:00.000   1130760.8222  -4831298.6700   3994155.1842   1   9   0.0003   0.0004   0.0003  -0.0001  -0.0002   0.0001   0.00  826.6
2019/01/03 01:40:30.000   1130760.8222  -4831298.6700   3994155.1842   1   9   0.0003   0.0004   0.0003  -0.0001  -0.0002   0.0001   0.00  801.0
2019/01/03 01:41:00.000   1130760.8222  -4831298.6700   3994155.1842   1   9   0.0003   0.0004   0.0003  -0.0001  -0.0002   0.0001   0.00  808.5
2019/01/03 01:41:30.000   1130760.8222  -4831298.6700   3994155.1842   1   9   0.0003   0.0004   0.0003  -0.0001  -0.0002   0.0001   0.00  877.0
2019/01/03 01:42:00.000   1130760.8222  -4831298.6700   3994155.1842   1   9   0.0003   0.0004   0.0003  -0.0001  -0.0002   0.0001   0.00  916.8
2019/01/03 01:42:30.000   1130760.8222  -4831298.6700   3994155.1842   1   9   0.0003   0.0004   0.0003  -0.0001  -0.0002   0.0001   0.00  959.5
2019/01/03 01:43:00.000   1130760.8222  -4831298.6700   3994155.1842   1   9   0.0003   0.0004   0.0003  -0.0001  -0.0002   0.0001   0.00  999.9
2019/01/03 01:43:30.000   1130760.8222  -4831298.6700   3994155.1842   1   9   0.0003   0.0004   0.0003  -0.0001  -0.0002   0.0001   0.00  999.9
2019/01/03 01:44:00.000   1130760.8222  -4831298.6700   3994155.1842   1   9   0.0003   0.0004   0.0003  -0.0001  -0.0002   0.0001   0.00  999.9
2019/01/03 01:44:30.000   1130760.8222  -4831298.6700   3994155.1842   1   9   0.0003   0.0004   0.0003  -0.0001  -0.0002   0.0001   0.00  999.9
2019/01/03 01:45:00.000   1130760.8222  -4831298.6700   3994155.1842   1   9   0.0003   0.0004   0.0003  -0.0001  -0.0002   0.0001   0.00  999.9
2019/01/03 01:45:30.000   1130760.8222  -4831298.6700   3994155.1842   1   9   0.0003   0.0004   0.0003  -0.0001  -0.0002   0.0001   0.00  999.9
2019/01/03 01:46:00.000   1130760.8222  -4831298.6700   3994155.1842   1   9   0.0003   0.0004   0.0003  -0.0001  -0.0002   0.0001   0.00  999.9
2019/01/03 01:46:30.000   1130760.8222  -4831298.6700   3994155.1842   1   9   0.0003   0.0004   0.0003  -0.0001  -0.0002   0.0001   0.00  999.9
2019/01/03 01:47:00.000   1130760.8222  -4831298.6700   3994155.1842   1   9   0.0003   0.0004   0.0003  -0.0001  -0.0002   0.0001   0.00  999.9
2019/01/03 01:47:30.000   1130760.8222  -4831298.6700   3994155.1842   1   9   0.0003   0.0004   0.0003  -0.0001  -0.0002   0.0001   0.00  999.9
2019/01/03 01:48:00.000   1130760.8222  -4831298.6700   3994155.1842   1   9   0.0003   0.0004   0.0003  -0.0001  -0.0002   0.0001   0.00  999.9
2019/01/03 01:48:30.000   1130760.8222  -4831298.6700   3994155.1842   1   9   0.0003   0.0004   0.0003  -0.0001  -0.0002   0.0001   0.00  999.9
2019/01/03 01:49:00.000   1130760.8222  -4831298.6700   3994155.1842   1   9   0.0003   0.0004   0.0003  -0.0001  -0.0002   0.0001   0.00  999.9
2019/01/03 01:49:30.000   1130760.8222  -4831298.6700   3994155.1842   1   9   0.0003   0.0004   0.0003  -0.0001  -0.0002   0.0001   0.00  999.9
2019/01/03 01:50:00.000   1130760.8222  -4831298.6700   3994155.1842   1   9   0.0003   0.0004   0.0003  -0.0001  -0.0002   0.0001   0.00  999.9
2019/01/03 01:50:30.000   1130760.8222  -4831298.6700   3994155.1842   1   9   0.0003   0.0004   0.0003  -0.0001  -0.0002   0.0001   0.00  999.9
2019/01/03 01:51:00.000   1130760.8222  -4831298.6700   3994155.1842   1   9   0.0003   0.0004   0.0003  -0.0001  -0.0002   0.0001   0.00  999.9
2019/01/03 01:51:30.000   1130760.8222  -4831298.6700   3994155.1842   1   9   0.0003   0.0004   0.0003  -0.0001  -0.0002   0.0001   0.00  999.9
2019/01/03 01:52:00.000   1130760.8222  -4831298.6700   3994155.1842   1   9   0.0003   0.0004   0.0003  -0.0001  -0.0002   0.0001   0.00  999.9
2019/01/03 01:52:30.000   1130760.8222  -4831298.6700   3994155.1842   1   9   0.0003   0.0004   0.0003  -0.0001  -0.0002   0.0001   0.00  999.9
2019/01/03 01:53:00.000   1130760.8222  -4831298.6700   3994155.1842   1   9   0.0003   0.0004   0.0003  -0.0001  -0.0002   0.0001   0.00  999.9
2019/01/03 01:53:30.000   1130760.8222  -4831298.6700   3994155.1842   1   9   0.0003   0.0004   0.0003  -0.0001  -0.0002   0.0001   0.00  999.9
2019/01/03 01:54:00.000   1130760.8222  -4831298.6700   3994155.1842   1   9   0.0003   0.0004   0.0003  -0.0001  -0.0002   0.0001   0.00  999.9
2019/01/03 01:54:30.000   1130760.8222  -4831298.6700   3994155.1842   1   9   0.0003   0.0004   0.0003  -0.0001  -0.0002   0.0001   0.00  999.9
2019/01/03 01:55:00.000   1130760.8222  -4831298.6700   3994155.1842   1   9   0.0003   0.0004   0.0003  -0.0001  -0.0002   0.0001   0.00  999.9
2019/01/03 01:55:30.000   1130760.8222  -4831298.6700   3994155.1842   1   9   0.0003   0.0004   0.0003  -0.0001  -0.0002   0.0001   0.00  999.9
2019/01/03 01:56:00.000   1130760.8222  -4831298.6700   3994155.1842   1   9   0.0003   0.0004   0.0003  -0.0001  -0.0002   0.0001   0.00  999.9
2019/01/03 01:56:30.000   1130760.8222  -4831298.6700   3994155.1842   1   9   0.0003   0.0004   0.0003  -0.0001  -0.0002   0.0001   0.00  999.9
2019/01/03 01:57:00.000   1130760.8222  -4831298.6700   3994155.1842   1   9   0.0003   0.0004   0.0003  -0.0001  -0.0002   0.0001   0.00  999.9
2019/01/03 01:57:30.000   1130760.8222  -4831298.6700   3994155.1842   1   9   0.0003   0.0004   0.0003  -0.0001  -0.0002   0.0001   0.00  999.9
2019/01/03 01:58:00.000   1130760.8222  -4831298.6700   3994155.1842   1   9   0.0003   0.0004   0.0003  -0.0001  -0.0002   0.0001   0.00  999.9
2019/01/03 01:58:30.000   1130760.8222  -4831298.6700   3994155.1842   1   9   0.0003   0.0004   0.0003  -0.0001  -0.0002   0.0001   0.00  999.9
2019/01/03 01:59:00.000   1130760.8222  -4831298.6700   3994155.1842   1   9   0.0003   0.0004   0.0003  -0.0001  -0.0002   0.0001   0.00  999.9
2019/01/03 01:59:30.000   1130760.8222  -4831298.6700   3994155.1842   1   9   0.0003   0.0004   0.0003  -0.0001  -0.0002   0.0001   0.00  999.9
2019/01/03 02:00:00.000   1130760.8222  -4831298.6700   3994155.1842   1   9   0.0003   0.0004   0.0003  -0.0001  -0.0002   0.0001   0.00  999.9
2019/01/03 02:00:30.000   1130760.8222  -4831298.6700   3994155.1842   1   9   0.0003   0.0004   0.0003  -0.0001  -0.0002   0.0001   0.00  999.9
2019/01/03 02:01:00.000   1130760.8222  -4831298.6700   3994155.1842   1   9   0.0003   0.0004   0.0003  -0.0001  -0.0002   0.0001   0.00  999.9
2019/01/03 02:01:30.000   1130760.8222  -4831298.6700   3994155.1842   1   9   0.0003   0.0004   0.0003  -0.0001  -0.0002   0.0001   0.00  999.9
2019/01/03 02:02:00.000   1130760.8222  -4831298.6700   3994155.1842   1   9   0.0003   0.0004   0.0003  -0.0001  -0.0002   0.0001   0.00  999.9
2019/01/03 02:02:30.000   1130760.8222  -4831298.6700   3994155.1842   1   9   0.0003   0.0004   0.0003  -0.0001  -0.0002   0.0001   0.00  999.9
2019/01/03 02:03:00.000   1130760.8222  -4831298.6700   3994155.1842   1   9   0.0003   0.0004   0.0003  -0.0001  -0.0002   0.0001   0.00  999.9
2019/01/03 02:03:30.000   1130760.8222  -4831298.6700   3994155.1842   1   9   0.0003   0.0004   0.0003  -0.0001  -0.0002   0.0001   0.00  999.9
2019/01/03 02:04:00.000   1130760.8222  -4831298.6700   3994155.1842   1   9   0.0003   0.0004   0.0003  -0.0001  -0.0002   0.0001   0.00  999.9
2019/01/03 02:04:30.000   1130760.8222  -4831298.6700   3994155.1842   1   9   0.0003   0.0004   0.0003  -0.0001  -0.0002   0.0001   0.00  999.9
2019/01/03 02:05:00.000   1130760.8222  -4831298.6700   3994155.1842   1   9   0.0003   0.0004   0.0003  -0.0001  -0.0002   0.0001   0.00  999.9
2019/01/03 02:05:30.000   1130760.8222  -4831298.6700   3994155.1842   1   9   0.0003   0.0004   0.0003  -0.0001  -0.0002   0.0001   0.00  999.9
2019/01/03 02:06:00.000   1130760.8222  -4831298.6700   3994155.1842   1   9   0.0003   0.0004   0.0003  -0.0001  -0.0002   0.0001   0.00  999.9
2019/01/03 02:06:30.000   1130760.8222  -4831298.6700   3994155.1842   1   9   0.0003   0.0004   0.0003  -0.0001  -0.0002   0.0001   0.00  999.9
2019/01/03 02:07:00.000   1130760.8222  -4831298.6700   3994155.1842   1   9   0.0003   0.0004   0.0003  -0.0001  -0.0002   0.0001   0.00  999.9
2019/01/03 02:07:30.000   1130760.8223  -4831298.6700   3994155.1842   1   8   0.0003   0.0004   0.0003  -0.0001  -0.0002   0.0001   0.00  999.9
2019/01/03 02:08:00.000   1130760.8223  -4831298.6700   3994155.1842   1   8   0.0003   0.0004   0.0003  -0.0001  -0.0002   0.0001   0.00  999.9
2019/01/03 02:08:30.000   1130760.8222  -4831298.6700   3994155.1842   1   8   0.0003   0.0004   0.0003  -0.0001  -0.0002   0.0001   0.00  999.9
2019/01/03 02:09:00.000   1130760.8222  -4831298.6700   3994155.1842   1   8   0.0003   0.0004   0.0003  -0.0001  -0.0002   0.0001   0.00  999.9
2019/01/03 02:09:30.000   1130760.8223  -4831298.6700   3994155.1842   1   8   0.0003   0.0004   0.0003  -0.0001  -0.0002   0.0001   0.00  999.9
2019/01/03 02:10:00.000   1130760.8222  -4831298.6700   3994155.1842   1   8   0.0003   0.0004   0.0003  -0.0001  -0.0002   0.0001   0.00  999.9
2019/01/03 02:10:30.000   1130760.8223  -4831298.6700   3994155.1842   1   7   0.0003   0.0004   0.0003  -0.0000  -0.0002   0.0001   0.00  999.9
2019/01/03 02:11:00.000   1130760.8223  -4831298.6700   3994155.1842   1   7   0.0003   0.0004   0.0003  -0.0001  -0.0002   0.0001   0.00  999.9
2019/01/03 02:11:30.000   1130760.8223  -4831298.6700   3994155.1842   1   7   0.0003   0.0004   0.0003  -0.0001  -0.0002   0.0001   0.00  999.9
2019/01/03 02:12:00.000   1130760.8223  -4831298.6700   3994155.1842   1   7   0.0003   0.0004   0.0003  -0.0001  -0.0002   0.0001   0.00  999.9
2019/01/03 02:12:30.000   1130760.8223  -4831298.6700   3994155.1842   1   7   0.0003   0.0004   0.0003  -0.0001  -0.0002   0.0001   0.00  999.9
2019/01/03 02:13:00.000   1130760.8223  -4831298.6700   3994155.1842   1   7   0.0003   0.0004   0.0003  -0.0001  -0.0002   0.0001   0.00  999.9
2019/01/03 02:13:30.000   1130760.8223  -4831298.6700   3994155.1842   1   7   0.0003   0.0004   0.0003  -0.0001  -0.0002   0.0001   0.00  999.9
2019/01/03 02:14:00.000   1130760.8223  -4831298.6700   3994155.1842   1   7   0.0003   0.0004   0.0003  -0.0001  -0.0002   0.0001   0.00  999.9
2019/01/03 02:14:30.000   1130760.8223  -4831298.6700   3994155.1842   1   7   0.0003   0.0004   0.0003  -0.0001  -0.0002   0.0001   0.00  999.9
2019/01/03 02:15:00.000   1130760.8223  -4831298.6700   3994155.1842   1   7   0.0003   0.0004   0.0003  -0.0001  -0.0002   0.0001   0.00  999.9
2019/01/03 02:15:30.000   1130760.8223  -4831298.6700   3994155.1842   1   7   0.0003   0.0004   0.0003  -0.0001  -0.0002   0.0001   0.00  999.9
2019/01/03 02:16:00.000   1130760.8223  -4831298.6700   3994155.1842   1   7   0.0003   0.0004   0.0003  -0.0001  -0.0002   0.0001   0.00  999.9
2019/01/03 02:16:30.000   1130760.8223  -4831298.6700   3994155.1842   1   7   0.0003   0.0004   0.0003  -0.0001  -0.0002   0.0001   0.00  999.9
2019/01/03 02:17:00.000   1130760.8223  -4831298.6700   3994155.1842   1   8   0.0003   0.0004   0.0003  -0.0001  -0.0002   0.0001   0.00  363.0
2019/01/03 02:17:30.000   1130760.8223  -4831298.6700   3994155.1842   1   8   0.0003   0.0004   0.0003  -0.0001  -0.0002   0.0001   0.00  766.4
2019/01/03 02:18:00.000   1130760.8223  -4831298.6700   3994155.1842   1   8   0.0003   0.0004   0.0003  -0.0001  -0.0002   0.0001   0.00  999.9
2019/01/03 02:18:30.000   1130760.8223  -4831298.6700   3994155.1842   1   8   0.0003   0.0004   0.0003  -0.0001  -0.0002   0.0001   0.00  999.9
2019/01/03 02:19:00.000   1130760.8223  -4831298.6700   3994155.1842   1   8   0.0003   0.0004   0.0003  -0.0001  -0.0002   0.0001   0.00  999.9
2019/01/03 02:19:30.000   1130760.8223  -4831298.6700   3994155.1842   1   8   0.0003   0.0004   0.0003  -0.0001  -0.0002   0.0001   0.00  999.9
2019/01/03 02:20:00.000   1130760.8223  -4831298.6700   3994155.1842   1   8   0.0003   0.0004   0.0003  -0.0001  -0.0002   0.0001   0.00  999.9
2019/01/03 02:20:30.000   1130760.8223  -4831298.6700   3994155.1842   1   8   0.0003   0.0004   0.0003  -0.0001  -0.0002   0.0001   0.00  999.9
2019/01/03 02:21:00.000   1130760.8223  -4831298.6700   3994155.1842   1   8   0.0003   0.0004   0.0003  -0.0001  -0.0002   0.0001   0.00  999.9
2019/01/03 02:21:30.000   1130760.8223  -4831298.6700   3994155.1842   1   8   0.0003   0.0004   0.0003  -0.0001  -0.0002   0.0001   0.00  999.9
2019/01/03 02:22:00.000   1130760.8223  -4831298.6700   3994155.1842   1   8   0.0003   0.0004   0.0003  -0.0001  -0.0002   0.0001   0.00  999.9
2019/01/03 02:22:30.000   1130760.8223  -4831298.6700   3994155.1842   1   8   0.0003   0.0004   0.0003  -0.0001  -0.0002   0.0001   0.00  999.9
2019/01/03 02:23:00.000   1130760.8223  -4831298.6700   3994155.1842   1   8   0.0003   0.0004   0.0003  -0.0001  -0.0002   0.0001   0.00  999.9
2019/01/03 02:23:30.000   1130760.8223  -4831298.6700   3994155.1842   1   8   0.0003   0.0004   0.0003  -0.0001  -0.0002   0.0001   0.00  999.9
2019/01/03 02:24:00.000   1130760.8223  -4831298.6700   3994155.1842   1   8   0.0003   0.0004   0.0003  -0.0001  -0.0002   0.0001   0.00  999.9
2019/01/03 02:24:30.000   1130760.8223  -4831298.6700   3994155.1842   1   8   0.0003   0.0004   0.0003  -0.0001  -0.0002   0.0001   0.00  999.9
2019/01/03 02:25:00.000   1130760.8223  -4831298.6700   3994155.1842   1   8   0.0003   0.0004   0.0003  -0.0001  -0.0002   0.0001   0.00  999.9
2019/01/03 02:25:30.000   1130760.8223  -4831298.6700   3994155.1842   1   8   0.0003   0.0004   0.0003  -0.0001  -0.0002   0.0001   0.00  999.9
2019/01/03 02:26:00.000   1130760.8223  -4831298.6700   3994155.1842   1   8   0.0003   0.0004   0.0003  -0.0001  -0.0002   0.0001   0.00  999.9
2019/01/03 02:26:30.000   1130760.8223  -4831298.6700   3994155.1842   1   8   0.0003   0.0004   0.0003  -0.0001  -0.0002   0.0001   0.00  999.9
2019/01/03 02:27:00.000   1130760.8223  -4831298.6700   3994155.1842   1   8   0.0003   0.0004   0.0003  -0.0001  -0.0002   0.0001   0.00  999.9
2019/01/03 02:27:30.000   1130760.8223  -4831298.6700   3994155.1842   1   8   0.0003   0.0004   0.0003  -0.0001  -0.0002   0.0001   0.00  999.9
2019/01/03 02:28:00.000   1130760.8223  -4831298.6700   3994155.1842   1   8   0.0003   0.0004   0.0003  -0.0001  -0.0002   0.0001   0.00  999.9
2019/01/03 02:28:30.000   1130760.8223  -4831298.6700   3994155.1842   1   8   0.0003   0.0004   0.0003  -0.0001  -0.0002   0.0001   0.00  999.9
2019/01/03 02:29:00.000   1130760.8223  -4831298.6700   3994155.1842   1   8   0.0003   0.0004   0.0003  -0.0001  -0.0002   0.0001   0.00  999.9
2019/01/03 02:29:30.000   1130760.8223  -4831298.6700   3994155.1842   1   8   0.0003   0.0004   0.0003  -0.0001  -0.0002   0.0001   0.00  999.9
2019/01/03 02:30:00.000   1130760.8223  -4831298.6700   3994155.1842   1   8   0.0003   0.0004   0.0003  -0.0001  -0.0002   0.0001   0.00  999.9
2019/01/03 02:30:30.000   1130760.8223  -4831298.6700   3994155.1842   1   8   0.0003   0.0004   0.0003  -0.0001  -0.0002   0.0001   0.00  999.9
2019/01/03 02:31:00.000   1130760.8223  -4831298.6700   3994155.1842   1   8   0.0003   0.0004   0.0003  -0.0001  -0.0002   0.0001   0.00  999.9
2019/01/03 02:31:30.000   1130760.8223  -4831298.6700   3994155.1842   1   8   0.0003   0.0004   0.0003  -0.0001  -0.0002   0.0001   0.00  999.9
2019/01/03 02:32:00.000   1130760.8223  -4831298.6700   3994155.1842   1   9   0.0003   0.0004   0.0003  -0.0001  -0.0002   0.0001   0.00   55.3
2019/01/03 02:32:30.000   1130760.8223  -4831298.6700   3994155.1842   1   8   0.0003   0.0004   0.0003  -0.0000  -0.0002   0.0001   0.00  141.9
2019/01/03 02:33:00.000   1130760.8223  -4831298.6700   3994155.1842   1   8   0.0003   0.0004   0.0003  -0.0000  -0.0002   0.0001   0.00  204.3
2019/01/03 02:33:30.000   1130760.8223  -4831298.6700   3994155.1842   1   8   0.0003   0.0004   0.0003  -0.0000  -0.0002   0.0001   0.00  286.0
2019/01/03 02:34:00.000   1130760.8223  -4831298.6700   3994155.1842   1   8   0.0003   0.0004   0.0003  -0.0000  -0.0002   0.0001   0.00  364.0
2019/01/03 02:34:30.000   1130760.8223  -4831298.6700   3994155.1842   1   8   0.0003   0.0004   0.0003  -0.0001  -0.0002   0.0001   0.00  420.8
2019/01/03 02:35:00.000   1130760.8223  -4831298.6700   3994155.1842   1   8   0.0003   0.0004   0.0003  -0.0001  -0.0002   0.0001   0.00  455.3
2019/01/03 02:35:30.000   1130760.8223  -4831298.6700   3994155.1842   1   8   0.0003   0.0004   0.0003  -0.0001  -0.0002   0.0001   0.00  519.5
2019/01/03 02:36:00.000   1130760.8223  -4831298.6700   3994155.1842   1   8   0.0003   0.0004   0.0003  -0.0001  -0.0002   0.0001   0.00  686.2
2019/01/03 02:36:30.000   1130760.8223  -4831298.6700   3994155.1842   1   8   0.0003   0.0004   0.0003  -0.0001  -0.0002   0.0001   0.00  838.0
2019/01/03 02:37:00.000   1130760.8223  -4831298.6700   3994155.1842   1   8   0.0003   0.0004   0.0003  -0.0001  -0.0002   0.0001   0.00  891.5
2019/01/03 02:37:30.000   1130760.8223  -4831298.6700   3994155.1842   1   8   0.0003   0.0004   0.0003  -0.0001  -0.0002   0.0001   0.00  930.7
2019/01/03 02:38:00.000   1130760.8223  -4831298.6700   3994155.1842   1   8   0.0003   0.0004   0.0003  -0.0001  -0.0002   0.0001   0.00  999.9
2019/01/03 02:38:30.000   1130760.8223  -4831298.6700   3994155.1842   1   8   0.0003   0.0004   0.0003  -0.0001  -0.0002   0.0001   0.00  999.9
2019/01/03 02:39:00.000   1130760.8223  -4831298.6700   3994155.1842   1   8   0.0003   0.0004   0.0003  -0.0001  -0.0002   0.0001   0.00  999.9
2019/01/03 02:39:30.000   1130760.8223  -4831298.6700   3994155.1842   1   8   0.0003   0.0004   0.0003  -0.0001  -0.0002   0.0001   0.00  999.9
2019/01/03 02:40:00.000   1130760.8223  -4831298.6700   3994155.1842   1   8   0.0003   0.0004   0.0003  -0.0001  -0.0002   0.0001   0.00  999.9
2019/01/03 02:40:30.000   1130760.8223  -4831298.6700   3994155.1842   1   8   0.0003   0.0004   0.0003  -0.0001  -0.0002   0.0001   0.00  999.9
2019/01/03 02:41:00.000   1130760.8223  -4831298.6700   3994155.1842   1   8   0.0003   0.0004   0.0003  -0.0001  -0.0002   0.0001   0.00  999.9
2019/01/03 02:41:30.000   1130760.8223  -4831298.6700   3994155.1842   1   8   0.0003   0.0004   0.0003  -0.0001  -0.0002   0.0001   0.00  999.9
2019/01/03 02:42:00.000   1130760.8223  -4831298.6700   3994155.1842   1   8   0.0003   0.0004   0.0003  -0.0001  -0.0002   0.0001   0.00  999.9
2019/01/03 02:42:30.000   1130760.8223  -4831298.6700   3994155.1842   1   8   0.0003   0.0004   0.0003  -0.0001  -0.0002   0.0001   0.00  999.9
2019/01/03 02:43:00.000   1130760.8223  -4831298.6700   3994155.1842   1   8   0.0003   0.0004   0.0003  -0.0001  -0.0002   0.0001   0.00  999.9
2019/01/03 02:43:30.000   1130760.8223  -4831298.6700   3994155.1842   1   8   0.0003   0.0004   0.0003  -0.0001  -0.0002   0.0001   0.00  999.9
2019/01/03 02:44:00.000   1130760.8223  -4831298.6700   3994155.1842   1   8   0.0003   0.0004   0.0003  -0.0001  -0.0002   0.0001   0.00  999.9
2019/01/03 02:44:30.000   1130760.8223  -4831298.6700   3994155.1842   1   8   0.0003   0.0004   0.0003  -0.0001  -0.0002   0.0001   0.00  999.9
2019/01/03 02:45:00.000   1130760.8223  -4831298.6700   3994155.1842   1   8   0.0003   0.0004   0.0003  -0.0001  -0.0002   0.0001   0.00  999.9
2019/01/03 02:45:30.000   1130760.8223  -4831298.6700   3994155.1842   1   8   0.0003   0.0004   0.0003  -0.0001  -0.0002   0.0001   0.00  999.9
2019/01/03 02:46:00.000   1130760.8223  -4831298.6700   3994155.1842   1   8   0.0003   0.0004   0.0003  -0.0001  -0.0002   0.0001   0.00  999.9
2019/01/03 02:46:30.000   1130760.8223  -4831298.6700   3994155.1842   1   8   0.0003   0.0004   0.0003  -0.0001  -0.0002   0.0001   0.00  999.9
2019/01/03 02:47:00.000   1130760.8223  -4831298.6700   3994155.1842   1   8   0.0003   0.0004   0.0003  -0.0001  -0.0002   0.0001   0.00  999.9
2019/01/03 02:47:30.000   1130760.8223  -4831298.6700   3994155.1842   1   8   0.0003   0.0004   0.0003  -0.0001  -0.0002   0.0001   0.00  999.9
2019/01/03 02:48:00.000   1130760.8223  -4831298.6700   3994155.1842   1   8   0.0003   0.0004   0.0003  -0.0001  -0.0002   0.0001   0.00  999.9
2019/01/03 02:48:30.000   1130760.8223  -4831298.6700   3994155.1842   1   8   0.0003   0.0004   0.0003  -0.0001  -0.0002   0.0001   0.00  999.9
2019/01/03 02:49:00.000   1130760.8223  -4831298.6700   3994155.1842   1   8   0.0003   0.0004   0.0003  -0.0001  -0.0002   0.0001   0.00  999.9
2019/01/03 02:49:30.000   1130760.8223  -4831298.6700   3994155.1842   1   8   0.0003   0.0004   0.0003  -0.0001  -0.0002   0.0001   0.00  999.9
2019/01/03 02:50:00.000   1130760.8223  -4831298.6700   3994155.1842   1   8   0.0003   0.0004   0.0003  -0.0001  -0.0002   0.0001   0.00  999.9
2019/01/03 02:50:30.000   1130760.8223  -4831298.6700   3994155.1842   1   8   0.0003   0.0004   0.0003  -0.0001  -0.0002   0.0001   0.00  999.9
2019/01/03 02:51:00.000   1130760.8223  -4831298.6700   3994155.1842   1   8   0.0003   0.0004   0.0003  -0.0001  -0.0002   0.0001   0.00  999.9
2019/01/03 02:51:30.000   1130760.8223  -4831298.6700   3994155.1842   1   8   0.0003   0.0004   0.0003  -0.0001  -0.0002   0.0001   0.00  999.9
2019/01/03 02:52:00.000   1130760.8223  -4831298.6700   3994155.1842   1   8   0.0003   0.0004   0.0003  -0.0001  -0.0002   0.0001   0.00  999.9
2019/01/03 02:52:30.000   1130760.8223  -4831298.6699   3994155.1842   1   8   0.0003   0.0004   0.0003  -0.0001  -0.0002   0.0001   0.00  999.9
2019/01/03 02:53:00.000   1130760.8223  -4831298.6700   3994155.1842   1   8   0.0003   0.0004   0.0003  -0.0001  -0.0002   0.0001   0.00  999.9
2019/01/03 02:53:30.000   1130760.8223  -4831298.6700   3994155.1842   1   8   0.0003   0.0004   0.0003  -0.0001  -0.0002   0.0001   0.00  999.9
2019/01/03 02:54:00.000   1130760.8223  -4831298.6700   3994155.1842   1   8   0.0003   0.0004   0.0003  -0.0001  -0.0002   0.0001   0.00  999.9
2019/01/03 02:54:30.000   1130760.8223  -4831298.6699   3994155.1842   1   8   0.0003   0.0004   0.0003  -0.0001  -0.0002   0.0001   0.00  999.9
2019/01/03 02:55:00.000   1130760.8223  -4831298.6699   3994155.1842   1   8   0.0003   0.0004   0.0003  -0.0001  -0.0002   0.0001   0.00  999.9
2019/01/03 02:55:30.000   1130760.8223  -4831298.6700   3994155.1842   1   8   0.0003   0.0004   0.0003  -0.0001  -0.0002   0.0001   0.00  999.9
2019/01/03 02:56:00.000   1130760.8223  -4831298.6700   3994155.1842   1   8   0.0003   0.0004   0.0003  -0.0001  -0.0002   0.0001   0.00  999.9
2019/01/03 02:56:30.000   1130760.8223  -4831298.6700   3994155.1842   1   8   0.0003   0.0004   0.0003  -0.0001  -0.0002   0.0001   0.00  999.9
2019/01/03 02:57:00.000   1130760.8223  -4831298.6700   3994155.1842   1   8   0.0003   0.0004   0.0003  -0.0001  -0.0002   0.0001   0.00  999.9
2019/01/03 02:57:30.000   1130760.8223  -4831298.6700   3994155.1842   1   8   0.0003   0.0004   0.0003  -0.0001  -0.0002   0.0001   0.00  999.9
2019/01/03 02:58:00.000   1130760.8223  -4831298.6700   3994155.1842   1   7   0.0003   0.0004   0.0003  -0.0001  -0.0002   0.0001   0.00  999.9
2019/01/03 02:58:30.000   1130760.8223  -4831298.6699   3994155.1842   1   7   0.0003   0.0004   0.0003  -0.0001  -0.0002   0.0001   0.00  999.9
2019/01/03 02:59:00.000   1130760.8223  -4831298.6700   3994155.1842   1   7   0.0003   0.0004   0.0003  -0.0001  -0.0002   0.0001   0.00  999.9
2019/01/03 02:59:30.000   1130760.8223  -4831298.6700   3994155.1842   1   7   0.0003   0.0004   0.0003  -0.0001  -0.0002   0.0001   0.00  999.9
2019/01/03 03:00:00.000   1130760.8223  -4831298.6700   3994155.1842   1   7   0.0003   0.0004   0.0003  -0.0001  -0.0002   0.0001   0.00  999.9
2019/01/03 03:00:30.000   1130760.8223  -4831298.6699   3994155.1842   1   7   0.0003   0.0004   0.0003  -0.0001  -0.0002   0.0001   0.00  999.9
2019/01/03 03:01:00.000   1130760.8223  -4831298.6700   3994155.1842   1   7   0.0003   0.0004   0.0003  -0.0001  -0.0002   0.0001   0.00  999.9
2019/01/03 03:01:30.000   1130760.8223  -4831298.6699   3994155.1842   1   7   0.0003   0.0004   0.0003  -0.0001  -0.0002   0.0001   0.00  999.9
2019/01/03 03:02:00.000   1130760.8223  -4831298.6700   3994155.1842   1   7   0.0003   0.0004   0.0003  -0.0001  -0.0002   0.0001   0.00  999.9
2019/01/03 03:02:30.000   1130760.8223  -4831298.6700   3994155.1842   1   7   0.0003   0.0004   0.0003  -0.0001  -0.0002   0.0001   0.00  999.9
2019/01/03 03:03:00.000   1130760.8223  -4831298.6699   3994155.1842   1   7   0.0003   0.0004   0.0003  -0.0001  -0.0002   0.0001   0.00  999.9
2019/01/03 03:03:30.000   1130760.8223  -4831298.6700   3994155.1842   1   7   0.0003   0.0004   0.0003  -0.0001  -0.0002   0.0001   0.00  999.9
2019/01/03 03:04:00.000   1130760.8223  -4831298.6700   3994155.1842   1   7   0.0003   0.0004   0.0003  -0.0001  -0.0002   0.0001   0.00  999.9
2019/01/03 03:04:30.000   1130760.8223  -4831298.6700   3994155.1842   1   7   0.0003   0.0004   0.0003  -0.0001  -0.0002   0.0001   0.00  999.9
2019/01/03 03:05:00.000   1130760.8223  -4831298.6700   3994155.1842   1   7   0.0003   0.0004   0.0003  -0.0001  -0.0002   0.0001   0.00  999.9
2019/01/03 03:05:30.000   1130760.8223  -4831298.6700   3994155.1842   1   7   0.0003   0.0004   0.0003  -0.0001  -0.0002   0.0001   0.00  999.9
2019/01/03 03:06:00.000   1130760.8223  -4831298.6700   3994155.1842   1   7   0.0003   0.0004   0.0003  -0.0001  -0.0002   0.0001   0.00  999.9
2019/01/03 03:06:30.000   1130760.8223  -4831298.6700   3994155.1842   1   7   0.0003   0.0004   0.0003  -0.0001  -0.0002   0.0001   0.00  999.9
2019/01/03 03:07:00.000   1130760.8223  -4831298.6700   3994155.1842   1   7   0.0003   0.0004   0.0003  -0.0001  -0.0002   0.0001   0.00  999.9
2019/01/03 03:07:30.000   1130760.8223  -4831298.6700   3994155.1842   1   7   0.0003   0.0004   0.0003  -0.0001  -0.0002   0.0001   0.00  999.9
2019/01/03 03:08:00.000   1130760.8223  -4831298.6700   3994155.1842   1   7   0.0003   0.0004   0.0003  -0.0001  -0.0002   0.0001   0.00  999.9
2019/01/03 03:08:30.000   1130760.8223  -4831298.6700   3994155.1842   1   7   0.0003   0.0004   0.0003  -0.0001  -0.0002   0.0001   0.00  999.9
2019/01/03 03:09:00.000   1130760.8223  -4831298.6700   3994155.1842   1   7   0.0003   0.0004   0.0003  -0.0001  -0.0002   0.0001   0.00  999.9
2019/01/03 03:09:30.000   1130760.8223  -4831298.6700   3994155.1842   1   7   0.0003   0.0004   0.0003  -0.0001  -0.0002   0.0001   0.00  999.9
2019/01/03 03:10:00.000   1130760.8223  -4831298.6700   3994155.1842   1   7   0.0003   0.0004   0.0003  -0.0001  -0.0002   0.0001   0.00  999.9
2019/01/03 03:10:30.000   1130760.8223  -4831298.6700   3994155.1842   1   7   0.0003   0.0004   0.0003  -0.0001  -0.0002   0.0001   0.00  999.9
2019/01/03 03:11:00.000   1130760.8223  -4831298.6700   3994155.1842   1   7   0.0003   0.0004   0.0003  -0.0001  -0.0002   0.0001   0.00  999.9
2019/01/03 03:11:30.000   1130760.8223  -4831298.6700   3994155.1842   1   7   0.0003   0.0004   0.0003  -0.0001  -0.0002   0.0001   0.00  999.9
2019/01/03 03:12:00.000   1130760.8223  -4831298.6700   3994155.1842   1   7   0.0003   0.0004   0.0003  -0.0001  -0.0002   0.0001   0.00  999.9
2019/01/03 03:12:30.000   1130760.8223  -4831298.6700   3994155.1842   1   7   0.0003   0.0004   0.0003  -0.0001  -0.0002   0.0001   0.00  999.9
2019/01/03 03:13:00.000   1130760.8223  -4831298.6700   3994155.1842   1   7   0.0003   0.0004   0.0003  -0.0001  -0.0002   0.0001   0.00  999.9
2019/01/03 03:13:30.000   1130760.8223  -4831298.6700   3994155.1842   1   7   0.0003   0.0004   0.0003  -0.0001  -0.0002   0.0001   0.00  999.9
2019/01/03 03:14:00.000   1130760.8223  -4831298.6700   3994155.1842   1   7   0.0003   0.0004   0.0003  -0.0001  -0.0002   0.0001   0.00  999.9
2019/01/03 03:14:30.000   1130760.8223  -4831298.6700   3994155.1842   1   7   0.0003   0.0004   0.0003  -0.0001  -0.0002   0.0001   0.00  999.9
2019/01/03 03:15:00.000   1130760.8223  -4831298.6700   3994155.1842   1   7   0.0003   0.0004   0.0003  -0.0001  -0.0002   0.0001   0.00  999.9
2019/01/03 03:15:30.000   1130760.8223  -4831298.6700   3994155.1842   1   7   0.0003   0.0004   0.0003  -0.0001  -0.0002   0.0001   0.00  999.9
2019/01/03 03:16:00.000   1130760.8223  -4831298.6700   3994155.1842   1   7   0.0003   0.0004   0.0003  -0.0001  -0.0002   0.0001   0.00  999.9
2019/01/03 03:16:30.000   1130760.8223  -4831298.6700   3994155.1842   1   7   0.0003   0.0004   0.0003  -0.0001  -0.0002   0.0001   0.00  999.9
2019/01/03 03:17:00.000   1130760.8223  -4831298.6700   3994155.1842   1   7   0.0003   0.0004   0.0003  -0.0001  -0.0002   0.0001   0.00  999.9
2019/01/03 03:17:30.000   1130760.8223  -4831298.6700   3994155.1842   1   7   0.0003   0.0004   0.0003  -0.0001  -0.0002   0.0001   0.00  999.9
2019/01/03 03:18:00.000   1130760.8223  -4831298.6700   3994155.1842   1   7   0.0003   0.0004   0.0003  -0.0001  -0.0002   0.0001   0.00  999.9
2019/01/03 03:18:30.000   1130760.8223  -4831298.6700   3994155.1842   1   7   0.0003   0.0004   0.0003  -0.0001  -0.0002   0.0001   0.00  999.9
2019/01/03 03:19:00.000   1130760.8223  -4831298.6700   3994155.1842   1   7   0.0003   0.0004   0.0003  -0.0001  -0.0002   0.0001   0.00  999.9
2019/01/03 03:19:30.000   1130760.8223  -4831298.6700   3994155.1842   1   7   0.0003   0.0004   0.0003  -0.0001  -0.0002   0.0001   0.00  999.9
2019/01/03 03:20:00.000   1130760.8223  -4831298.6700   3994155.1842   1   7   0.0003   0.0004   0.0003  -0.0001  -0.0002   0.0001   0.00  999.9
2019/01/03 03:20:30.000   1130760.8223  -4831298.6700   3994155.1842   1   7   0.0003   0.0004   0.0003  -0.0001  -0.0002   0.0001   0.00  999.9
2019/01/03 03:21:00.000   1130760.8223  -4831298.6700   3994155.1842   1   7   0.0003   0.0004   0.0003  -0.0001  -0.0002   0.0001   0.00  999.9
2019/01/03 03:21:30.000   1130760.8223  -4831298.6700   3994155.1842   1   7   0.0003   0.0004   0.0003  -0.0001  -0.0002   0.0001   0.00  999.9
2019/01/03 03:22:00.000   1130760.8223  -4831298.6700   3994155.1842   1   7   0.0003   0.0004   0.0003  -0.0001  -0.0002   0.0001   0.00  999.9
