% program   : RTKPOST ver.2.4.3 b34
% inp file  : C:\Users\Danisimo\Desktop\?????\ISHI\ishi1330_20o
% inp file  : C:\Users\Danisimo\Desktop\?????\TSK2\tsk21330_20o
% inp file  : C:\Users\Danisimo\Desktop\?????\mtka1330_20n
% inp file  : C:\Users\Danisimo\Desktop\?????\igs21052.sp3
% inp file  : C:\Users\Danisimo\Desktop\?????\igs21052.clk_30s
% obs start : 2020/05/12 00:00:00.0 GPST (week2105 172800.0s)
% obs end   : 2020/05/12 23:59:30.0 GPST (week2105 259170.0s)
% pos mode  : Static
% freqs     : L1+2
% solution  : Forward
% elev mask : 15.0 deg
% dynamics  : off
% tidecorr  : off
% ionos opt : Broadcast
% tropo opt : Saastamoinen
% ephemeris : Precise
% navi sys  : GPS
% amb res   : Continuous
% val thres : 3.0
% antenna1  :                       ( 0.0000  0.0000  0.0000)
% antenna2  :                       ( 0.0000  0.0000  0.0000)
% ref pos   : -3957184.4466   3310231.2332   3737703.9388
%
% (x/y/z-ecef=WGS84,Q=1:fix,2:float,3:sbas,4:dgps,5:single,6:ppp,ns=# of satellites)
%  GPST                      x-ecef(m)      y-ecef(m)      z-ecef(m)   Q  ns   sdx(m)   sdy(m)   sdz(m)  sdxy(m)  sdyz(m)  sdzx(m) age(s)  ratio
2020/05/12 00:00:00.000  -3959648.4466   3296836.5554   3747005.5774   1  10   0.0074   0.0061   0.0053  -0.0053   0.0038  -0.0046   0.00    3.3
2020/05/12 00:00:30.000  -3959648.4427   3296836.5513   3747005.5784   1  10   0.0052   0.0043   0.0038  -0.0038   0.0027  -0.0032   0.00    3.9
2020/05/12 00:01:00.000  -3959648.4410   3296836.5491   3747005.5788   1  10   0.0042   0.0035   0.0031  -0.0031   0.0022  -0.0026   0.00    4.8
2020/05/12 00:01:30.000  -3959648.4421   3296836.5495   3747005.5793   1  10   0.0037   0.0030   0.0027  -0.0027   0.0019  -0.0023   0.00    5.5
2020/05/12 00:02:00.000  -3959648.4419   3296836.5494   3747005.5789   1  10   0.0033   0.0027   0.0024  -0.0024   0.0017  -0.0020   0.00    5.4
2020/05/12 00:02:30.000  -3959648.4423   3296836.5501   3747005.5801   1  10   0.0030   0.0025   0.0022  -0.0022   0.0015  -0.0019   0.00    5.3
2020/05/12 00:03:00.000  -3959648.4424   3296836.5512   3747005.5809   1  10   0.0028   0.0023   0.0020  -0.0020   0.0014  -0.0017   0.00    5.3
2020/05/12 00:03:30.000  -3959648.4425   3296836.5516   3747005.5813   1  10   0.0026   0.0021   0.0019  -0.0019   0.0013  -0.0016   0.00    5.0
2020/05/12 00:04:00.000  -3959648.4431   3296836.5518   3747005.5816   1  10   0.0024   0.0020   0.0018  -0.0018   0.0013  -0.0015   0.00    4.7
2020/05/12 00:04:30.000  -3959648.4440   3296836.5528   3747005.5819   1  10   0.0023   0.0019   0.0017  -0.0017   0.0012  -0.0015   0.00    4.6
2020/05/12 00:05:00.000  -3959648.4436   3296836.5526   3747005.5822   1  10   0.0022   0.0018   0.0016  -0.0016   0.0011  -0.0014   0.00    4.8
2020/05/12 00:05:30.000  -3959648.4451   3296836.5534   3747005.5867   1   9   0.0021   0.0018   0.0017  -0.0016   0.0011  -0.0014   0.00    4.9
2020/05/12 00:06:00.000  -3959648.4452   3296836.5529   3747005.5872   1   9   0.0020   0.0017   0.0016  -0.0015   0.0011  -0.0013   0.00    5.2
2020/05/12 00:06:30.000  -3959648.4454   3296836.5523   3747005.5875   1   9   0.0020   0.0016   0.0016  -0.0014   0.0011  -0.0013   0.00    5.9
2020/05/12 00:07:00.000  -3959648.4457   3296836.5517   3747005.5877   1   9   0.0019   0.0016   0.0015  -0.0014   0.0010  -0.0012   0.00    6.5
2020/05/12 00:07:30.000  -3959648.4463   3296836.5514   3747005.5881   1   9   0.0018   0.0015   0.0015  -0.0013   0.0010  -0.0012   0.00    7.3
2020/05/12 00:08:00.000  -3959648.4466   3296836.5505   3747005.5884   1   9   0.0018   0.0015   0.0014  -0.0013   0.0010  -0.0012   0.00    8.6
2020/05/12 00:08:30.000  -3959648.4473   3296836.5498   3747005.5889   1   9   0.0017   0.0014   0.0014  -0.0013   0.0009  -0.0011   0.00    9.7
2020/05/12 00:09:00.000  -3959648.4473   3296836.5488   3747005.5887   1   9   0.0017   0.0014   0.0013  -0.0012   0.0009  -0.0011   0.00   11.3
2020/05/12 00:09:30.000  -3959648.4472   3296836.5477   3747005.5883   1   9   0.0017   0.0014   0.0013  -0.0012   0.0009  -0.0011   0.00   12.7
2020/05/12 00:10:00.000  -3959648.4470   3296836.5468   3747005.5879   1   9   0.0016   0.0013   0.0013  -0.0012   0.0009  -0.0011   0.00   14.3
2020/05/12 00:10:30.000  -3959648.4467   3296836.5461   3747005.5876   1   9   0.0016   0.0013   0.0012  -0.0012   0.0008  -0.0010   0.00   15.8
2020/05/12 00:11:00.000  -3959648.4466   3296836.5457   3747005.5874   1   9   0.0015   0.0013   0.0012  -0.0011   0.0008  -0.0010   0.00   17.9
2020/05/12 00:11:30.000  -3959648.4464   3296836.5452   3747005.5871   1   9   0.0015   0.0013   0.0012  -0.0011   0.0008  -0.0010   0.00   19.2
2020/05/12 00:12:00.000  -3959648.4465   3296836.5453   3747005.5869   1   9   0.0015   0.0012   0.0012  -0.0011   0.0008  -0.0010   0.00   21.0
2020/05/12 00:12:30.000  -3959648.4466   3296836.5454   3747005.5867   1   9   0.0015   0.0012   0.0012  -0.0011   0.0008  -0.0010   0.00   22.7
2020/05/12 00:13:00.000  -3959648.4464   3296836.5452   3747005.5864   1   9   0.0014   0.0012   0.0011  -0.0011   0.0008  -0.0009   0.00   25.5
2020/05/12 00:13:30.000  -3959648.4464   3296836.5453   3747005.5862   1   9   0.0014   0.0012   0.0011  -0.0010   0.0008  -0.0009   0.00   29.1
2020/05/12 00:14:00.000  -3959648.4466   3296836.5455   3747005.5862   1   9   0.0014   0.0012   0.0011  -0.0010   0.0008  -0.0009   0.00   32.2
2020/05/12 00:14:30.000  -3959648.4466   3296836.5454   3747005.5862   1   9   0.0014   0.0011   0.0011  -0.0010   0.0007  -0.0009   0.00   34.0
2020/05/12 00:15:00.000  -3959648.4466   3296836.5456   3747005.5862   1   9   0.0013   0.0011   0.0011  -0.0010   0.0007  -0.0009   0.00   38.9
2020/05/12 00:15:30.000  -3959648.4466   3296836.5456   3747005.5861   1   9   0.0013   0.0011   0.0011  -0.0010   0.0007  -0.0009   0.00   46.5
2020/05/12 00:16:00.000  -3959648.4466   3296836.5455   3747005.5861   1   9   0.0013   0.0011   0.0010  -0.0010   0.0007  -0.0009   0.00   52.7
2020/05/12 00:16:30.000  -3959648.4469   3296836.5456   3747005.5862   1   9   0.0013   0.0011   0.0010  -0.0010   0.0007  -0.0009   0.00   58.9
2020/05/12 00:17:00.000  -3959648.4472   3296836.5457   3747005.5863   1   9   0.0013   0.0011   0.0010  -0.0009   0.0007  -0.0008   0.00   63.3
2020/05/12 00:17:30.000  -3959648.4475   3296836.5456   3747005.5864   1   9   0.0013   0.0011   0.0010  -0.0009   0.0007  -0.0008   0.00   64.5
2020/05/12 00:18:00.000  -3959648.4476   3296836.5454   3747005.5865   1   9   0.0012   0.0010   0.0010  -0.0009   0.0007  -0.0008   0.00   67.6
2020/05/12 00:18:30.000  -3959648.4477   3296836.5450   3747005.5865   1   9   0.0012   0.0010   0.0010  -0.0009   0.0007  -0.0008   0.00   70.3
2020/05/12 00:19:00.000  -3959648.4474   3296836.5447   3747005.5864   1   9   0.0012   0.0010   0.0010  -0.0009   0.0007  -0.0008   0.00   69.2
2020/05/12 00:19:30.000  -3959648.4474   3296836.5445   3747005.5865   1   9   0.0012   0.0010   0.0010  -0.0009   0.0007  -0.0008   0.00   67.3
2020/05/12 00:20:00.000  -3959648.4474   3296836.5444   3747005.5866   1   9   0.0012   0.0010   0.0010  -0.0009   0.0007  -0.0008   0.00   64.9
2020/05/12 00:20:30.000  -3959648.4474   3296836.5443   3747005.5868   1   9   0.0012   0.0010   0.0009  -0.0009   0.0007  -0.0008   0.00   66.8
2020/05/12 00:21:00.000  -3959648.4475   3296836.5441   3747005.5869   1   9   0.0012   0.0010   0.0009  -0.0009   0.0006  -0.0008   0.00   70.0
2020/05/12 00:21:30.000  -3959648.4475   3296836.5440   3747005.5870   1   9   0.0012   0.0010   0.0009  -0.0009   0.0006  -0.0008   0.00   75.1
2020/05/12 00:22:00.000  -3959648.4475   3296836.5440   3747005.5871   1   9   0.0012   0.0010   0.0009  -0.0009   0.0006  -0.0008   0.00   83.9
2020/05/12 00:22:30.000  -3959648.4471   3296836.5437   3747005.5870   1   9   0.0011   0.0010   0.0009  -0.0009   0.0006  -0.0008   0.00   92.6
2020/05/12 00:23:00.000  -3959648.4469   3296836.5436   3747005.5868   1   9   0.0011   0.0009   0.0009  -0.0008   0.0006  -0.0008   0.00  100.7
2020/05/12 00:23:30.000  -3959648.4467   3296836.5435   3747005.5868   1   9   0.0011   0.0009   0.0009  -0.0008   0.0006  -0.0008   0.00  107.3
2020/05/12 00:24:00.000  -3959648.4466   3296836.5434   3747005.5867   1   9   0.0011   0.0009   0.0009  -0.0008   0.0006  -0.0008   0.00  112.1
2020/05/12 00:24:30.000  -3959648.4465   3296836.5434   3747005.5866   1   9   0.0011   0.0009   0.0009  -0.0008   0.0006  -0.0007   0.00  116.5
2020/05/12 00:25:00.000  -3959648.4463   3296836.5433   3747005.5865   1   9   0.0011   0.0009   0.0009  -0.0008   0.0006  -0.0007   0.00  118.0
2020/05/12 00:25:30.000  -3959648.4462   3296836.5433   3747005.5864   1   9   0.0011   0.0009   0.0009  -0.0008   0.0006  -0.0007   0.00  114.2
2020/05/12 00:26:00.000  -3959648.4462   3296836.5433   3747005.5864   1   9   0.0011   0.0009   0.0009  -0.0008   0.0006  -0.0007   0.00  106.4
2020/05/12 00:26:30.000  -3959648.4462   3296836.5432   3747005.5864   1   9   0.0011   0.0009   0.0009  -0.0008   0.0006  -0.0007   0.00  100.6
2020/05/12 00:27:00.000  -3959648.4462   3296836.5432   3747005.5864   1   9   0.0011   0.0009   0.0009  -0.0008   0.0006  -0.0007   0.00   95.5
2020/05/12 00:27:30.000  -3959648.4461   3296836.5432   3747005.5863   1   9   0.0011   0.0009   0.0009  -0.0008   0.0006  -0.0007   0.00   92.2
2020/05/12 00:28:00.000  -3959648.4462   3296836.5432   3747005.5862   1   9   0.0011   0.0009   0.0009  -0.0008   0.0006  -0.0007   0.00   85.9
2020/05/12 00:28:30.000  -3959648.4462   3296836.5433   3747005.5863   1   9   0.0011   0.0009   0.0009  -0.0008   0.0006  -0.0007   0.00   82.7
2020/05/12 00:29:00.000  -3959648.4463   3296836.5434   3747005.5863   1   9   0.0011   0.0009   0.0008  -0.0008   0.0006  -0.0007   0.00   82.1
2020/05/12 00:29:30.000  -3959648.4462   3296836.5434   3747005.5861   1   9   0.0010   0.0009   0.0008  -0.0008   0.0006  -0.0007   0.00   81.7
2020/05/12 00:30:00.000  -3959648.4462   3296836.5433   3747005.5860   1   9   0.0010   0.0009   0.0008  -0.0008   0.0006  -0.0007   0.00   83.9
2020/05/12 00:30:30.000  -3959648.4461   3296836.5433   3747005.5860   1   9   0.0010   0.0009   0.0008  -0.0008   0.0006  -0.0007   0.00   88.3
2020/05/12 00:31:00.000  -3959648.4459   3296836.5432   3747005.5859   1   9   0.0010   0.0009   0.0008  -0.0008   0.0006  -0.0007   0.00   91.8
2020/05/12 00:31:30.000  -3959648.4459   3296836.5431   3747005.5857   1   9   0.0010   0.0009   0.0008  -0.0008   0.0006  -0.0007   0.00   96.6
2020/05/12 00:32:00.000  -3959648.4458   3296836.5430   3747005.5856   1   9   0.0010   0.0009   0.0008  -0.0008   0.0006  -0.0007   0.00  103.1
2020/05/12 00:32:30.000  -3959648.4458   3296836.5431   3747005.5855   1   9   0.0010   0.0008   0.0008  -0.0008   0.0006  -0.0007   0.00  109.9
2020/05/12 00:33:00.000  -3959648.4457   3296836.5432   3747005.5855   1   9   0.0010   0.0008   0.0008  -0.0008   0.0006  -0.0007   0.00  116.3
2020/05/12 00:33:30.000  -3959648.4457   3296836.5434   3747005.5856   1   9   0.0010   0.0008   0.0008  -0.0008   0.0006  -0.0007   0.00  120.0
2020/05/12 00:34:00.000  -3959648.4456   3296836.5435   3747005.5856   1   9   0.0010   0.0008   0.0008  -0.0008   0.0006  -0.0007   0.00  120.9
2020/05/12 00:34:30.000  -3959648.4456   3296836.5436   3747005.5857   1   9   0.0010   0.0008   0.0008  -0.0008   0.0006  -0.0007   0.00  121.6
2020/05/12 00:35:00.000  -3959648.4454   3296836.5437   3747005.5855   1   9   0.0010   0.0008   0.0008  -0.0008   0.0006  -0.0007   0.00  121.8
2020/05/12 00:35:30.000  -3959648.4453   3296836.5437   3747005.5855   1   9   0.0010   0.0008   0.0008  -0.0008   0.0006  -0.0007   0.00  119.8
2020/05/12 00:36:00.000  -3959648.4451   3296836.5437   3747005.5855   1   9   0.0010   0.0008   0.0008  -0.0008   0.0006  -0.0007   0.00  118.4
2020/05/12 00:36:30.000  -3959648.4449   3296836.5438   3747005.5854   1   9   0.0010   0.0008   0.0008  -0.0007   0.0006  -0.0007   0.00  112.8
2020/05/12 00:37:00.000  -3959648.4447   3296836.5438   3747005.5853   1   9   0.0010   0.0008   0.0008  -0.0007   0.0006  -0.0007   0.00  109.8
2020/05/12 00:37:30.000  -3959648.4444   3296836.5437   3747005.5853   1   9   0.0010   0.0008   0.0008  -0.0007   0.0006  -0.0007   0.00  106.3
2020/05/12 00:38:00.000  -3959648.4441   3296836.5437   3747005.5851   1   9   0.0010   0.0008   0.0008  -0.0007   0.0006  -0.0007   0.00  101.5
2020/05/12 00:38:30.000  -3959648.4439   3296836.5436   3747005.5849   1   9   0.0010   0.0008   0.0008  -0.0007   0.0006  -0.0007   0.00   96.9
2020/05/12 00:39:00.000  -3959648.4434   3296836.5434   3747005.5847   1   9   0.0010   0.0008   0.0008  -0.0007   0.0006  -0.0007   0.00   92.2
2020/05/12 00:39:30.000  -3959648.4432   3296836.5432   3747005.5846   1   9   0.0010   0.0008   0.0008  -0.0007   0.0006  -0.0007   0.00   87.6
2020/05/12 00:40:00.000  -3959648.4429   3296836.5431   3747005.5845   1   9   0.0010   0.0008   0.0008  -0.0007   0.0006  -0.0007   0.00   83.1
2020/05/12 00:40:30.000  -3959648.4427   3296836.5430   3747005.5844   1   9   0.0010   0.0008   0.0008  -0.0007   0.0006  -0.0007   0.00   81.6
2020/05/12 00:41:00.000  -3959648.4425   3296836.5429   3747005.5844   1   9   0.0010   0.0008   0.0008  -0.0007   0.0006  -0.0007   0.00   81.1
2020/05/12 00:41:30.000  -3959648.4465   3296836.5485   3747005.5848   1   8   0.0011   0.0010   0.0008  -0.0009   0.0006  -0.0007   0.00  189.5
2020/05/12 00:42:00.000  -3959648.4462   3296836.5485   3747005.5847   1   8   0.0011   0.0010   0.0008  -0.0009   0.0006  -0.0007   0.00  202.5
2020/05/12 00:42:30.000  -3959648.4458   3296836.5483   3747005.5845   1   8   0.0011   0.0010   0.0008  -0.0009   0.0006  -0.0007   0.00  214.7
2020/05/12 00:43:00.000  -3959648.4455   3296836.5481   3747005.5843   1   8   0.0011   0.0010   0.0008  -0.0009   0.0006  -0.0007   0.00  227.4
2020/05/12 00:43:30.000  -3959648.4452   3296836.5480   3747005.5842   1   8   0.0011   0.0010   0.0008  -0.0009   0.0006  -0.0007   0.00  240.7
2020/05/12 00:44:00.000  -3959648.4447   3296836.5477   3747005.5839   1   8   0.0011   0.0010   0.0008  -0.0009   0.0006  -0.0007   0.00  245.4
2020/05/12 00:44:30.000  -3959648.4442   3296836.5473   3747005.5837   1   8   0.0011   0.0010   0.0008  -0.0009   0.0006  -0.0007   0.00  245.4
2020/05/12 00:45:00.000  -3959648.4438   3296836.5471   3747005.5835   1   8   0.0011   0.0010   0.0008  -0.0009   0.0006  -0.0007   0.00  249.0
2020/05/12 00:45:30.000  -3959648.4435   3296836.5468   3747005.5833   1   8   0.0011   0.0010   0.0008  -0.0009   0.0006  -0.0007   0.00  249.4
2020/05/12 00:46:00.000  -3959648.4432   3296836.5466   3747005.5833   1   8   0.0011   0.0010   0.0008  -0.0009   0.0006  -0.0007   0.00  251.2
2020/05/12 00:46:30.000  -3959648.4431   3296836.5465   3747005.5833   1   8   0.0011   0.0010   0.0008  -0.0009   0.0006  -0.0007   0.00  246.9
2020/05/12 00:47:00.000  -3959648.4428   3296836.5464   3747005.5832   1   8   0.0011   0.0010   0.0008  -0.0009   0.0006  -0.0007   0.00  237.6
2020/05/12 00:47:30.000  -3959648.4427   3296836.5463   3747005.5832   1   8   0.0011   0.0010   0.0008  -0.0009   0.0006  -0.0007   0.00  243.0
2020/05/12 00:48:00.000  -3959648.4424   3296836.5462   3747005.5832   1   8   0.0011   0.0010   0.0008  -0.0009   0.0006  -0.0007   0.00  248.2
2020/05/12 00:48:30.000  -3959648.4422   3296836.5461   3747005.5832   1   8   0.0011   0.0010   0.0008  -0.0009   0.0006  -0.0007   0.00  250.5
2020/05/12 00:49:00.000  -3959648.4420   3296836.5461   3747005.5831   1   8   0.0011   0.0010   0.0008  -0.0009   0.0006  -0.0007   0.00  247.6
2020/05/12 00:49:30.000  -3959648.4419   3296836.5460   3747005.5831   1   8   0.0011   0.0010   0.0008  -0.0009   0.0006  -0.0007   0.00  247.1
2020/05/12 00:50:00.000  -3959648.4416   3296836.5458   3747005.5831   1   8   0.0010   0.0010   0.0008  -0.0009   0.0006  -0.0007   0.00  246.1
2020/05/12 00:50:30.000  -3959648.4414   3296836.5457   3747005.5831   1   8   0.0010   0.0010   0.0008  -0.0009   0.0006  -0.0007   0.00  246.5
2020/05/12 00:51:00.000  -3959648.4413   3296836.5457   3747005.5831   1   8   0.0010   0.0009   0.0008  -0.0009   0.0006  -0.0007   0.00  251.4
2020/05/12 00:51:30.000  -3959648.4410   3296836.5455   3747005.5829   1   8   0.0010   0.0009   0.0008  -0.0009   0.0006  -0.0007   0.00  257.2
2020/05/12 00:52:00.000  -3959648.4410   3296836.5456   3747005.5829   1   8   0.0010   0.0009   0.0008  -0.0009   0.0006  -0.0007   0.00  263.7
2020/05/12 00:52:30.000  -3959648.4410   3296836.5460   3747005.5823   1   7   0.0010   0.0010   0.0009  -0.0009   0.0005  -0.0007   0.00  255.0
2020/05/12 00:53:00.000  -3959648.4410   3296836.5460   3747005.5824   1   7   0.0010   0.0009   0.0009  -0.0009   0.0006  -0.0007   0.00  269.6
2020/05/12 00:53:30.000  -3959648.4410   3296836.5462   3747005.5826   1   7   0.0010   0.0009   0.0009  -0.0009   0.0006  -0.0007   0.00  287.7
2020/05/12 00:54:00.000  -3959648.4410   3296836.5462   3747005.5827   1   7   0.0010   0.0009   0.0009  -0.0009   0.0006  -0.0007   0.00  298.7
2020/05/12 00:54:30.000  -3959648.4411   3296836.5464   3747005.5829   1   7   0.0010   0.0009   0.0009  -0.0009   0.0006  -0.0007   0.00  316.0
2020/05/12 00:55:00.000  -3959648.4412   3296836.5466   3747005.5831   1   7   0.0010   0.0009   0.0009  -0.0009   0.0006  -0.0007   0.00  321.1
2020/05/12 00:55:30.000  -3959648.4413   3296836.5469   3747005.5833   1   7   0.0010   0.0009   0.0009  -0.0009   0.0006  -0.0007   0.00  323.1
2020/05/12 00:56:00.000  -3959648.4414   3296836.5472   3747005.5834   1   7   0.0010   0.0009   0.0009  -0.0009   0.0006  -0.0007   0.00  328.4
2020/05/12 00:56:30.000  -3959648.4415   3296836.5475   3747005.5836   1   7   0.0010   0.0009   0.0009  -0.0009   0.0006  -0.0007   0.00  328.2
2020/05/12 00:57:00.000  -3959648.4416   3296836.5477   3747005.5838   1   7   0.0010   0.0009   0.0009  -0.0009   0.0006  -0.0007   0.00  327.3
2020/05/12 00:57:30.000  -3959648.4417   3296836.5479   3747005.5839   1   7   0.0010   0.0009   0.0009  -0.0009   0.0006  -0.0007   0.00  327.1
2020/05/12 00:58:00.000  -3959648.4418   3296836.5482   3747005.5840   1   7   0.0010   0.0009   0.0009  -0.0009   0.0006  -0.0007   0.00  323.0
2020/05/12 00:58:30.000  -3959648.4417   3296836.5483   3747005.5841   1   7   0.0010   0.0009   0.0009  -0.0009   0.0006  -0.0007   0.00  320.5
2020/05/12 00:59:00.000  -3959648.4416   3296836.5483   3747005.5841   1   7   0.0010   0.0009   0.0009  -0.0009   0.0006  -0.0007   0.00  315.6
2020/05/12 00:59:30.000  -3959648.4415   3296836.5484   3747005.5841   1   7   0.0010   0.0009   0.0009  -0.0009   0.0006  -0.0007   0.00  302.8
2020/05/12 01:00:00.000  -3959648.4413   3296836.5483   3747005.5840   1   7   0.0011   0.0009   0.0009  -0.0009   0.0006  -0.0007   0.00  291.6
2020/05/12 01:00:30.000  -3959648.4412   3296836.5483   3747005.5840   1   7   0.0011   0.0009   0.0009  -0.0009   0.0006  -0.0007   0.00  290.8
2020/05/12 01:01:00.000  -3959648.4410   3296836.5482   3747005.5839   1   7   0.0011   0.0009   0.0009  -0.0009   0.0006  -0.0007   0.00  290.3
2020/05/12 01:01:30.000  -3959648.4408   3296836.5482   3747005.5839   1   7   0.0011   0.0009   0.0009  -0.0009   0.0006  -0.0007   0.00  291.9
2020/05/12 01:02:00.000  -3959648.4549   3296836.5540   3747005.5867   2   8   0.0050   0.0035   0.0022  -0.0020   0.0013  -0.0021   0.00    2.6
2020/05/12 01:02:30.000  -3959648.4404   3296836.5482   3747005.5833   1   8   0.0011   0.0009   0.0009  -0.0009   0.0006  -0.0007   0.00    3.9
2020/05/12 01:03:00.000  -3959648.4400   3296836.5481   3747005.5830   1   8   0.0011   0.0009   0.0009  -0.0009   0.0006  -0.0007   0.00    4.7
2020/05/12 01:03:30.000  -3959648.4398   3296836.5481   3747005.5827   1   8   0.0011   0.0009   0.0009  -0.0009   0.0006  -0.0007   0.00    5.2
2020/05/12 01:04:00.000  -3959648.4395   3296836.5480   3747005.5825   1   8   0.0011   0.0009   0.0009  -0.0009   0.0006  -0.0007   0.00    6.0
2020/05/12 01:04:30.000  -3959648.4393   3296836.5480   3747005.5822   1   8   0.0011   0.0009   0.0009  -0.0009   0.0006  -0.0007   0.00    6.5
2020/05/12 01:05:00.000  -3959648.4392   3296836.5480   3747005.5821   1   8   0.0011   0.0009   0.0009  -0.0009   0.0006  -0.0007   0.00    7.3
2020/05/12 01:05:30.000  -3959648.4391   3296836.5479   3747005.5819   1   8   0.0011   0.0009   0.0009  -0.0009   0.0006  -0.0007   0.00    7.7
2020/05/12 01:06:00.000  -3959648.4389   3296836.5479   3747005.5816   1   8   0.0011   0.0009   0.0009  -0.0009   0.0006  -0.0007   0.00    7.6
2020/05/12 01:06:30.000  -3959648.4533   3296836.5551   3747005.5892   2   8   0.0047   0.0033   0.0021  -0.0020   0.0013  -0.0021   0.00    1.0
2020/05/12 01:07:00.000  -3959648.4522   3296836.5545   3747005.5892   2   8   0.0046   0.0032   0.0020  -0.0020   0.0013  -0.0021   0.00    2.7
2020/05/12 01:07:30.000  -3959648.4397   3296836.5477   3747005.5827   1   8   0.0011   0.0009   0.0009  -0.0009   0.0006  -0.0008   0.00    4.0
2020/05/12 01:08:00.000  -3959648.4396   3296836.5477   3747005.5825   1   8   0.0011   0.0009   0.0009  -0.0009   0.0006  -0.0008   0.00    4.8
2020/05/12 01:08:30.000  -3959648.4395   3296836.5476   3747005.5824   1   8   0.0011   0.0009   0.0009  -0.0009   0.0006  -0.0008   0.00    5.7
2020/05/12 01:09:00.000  -3959648.4395   3296836.5475   3747005.5822   1   8   0.0011   0.0009   0.0009  -0.0009   0.0006  -0.0008   0.00    6.5
2020/05/12 01:09:30.000  -3959648.4394   3296836.5475   3747005.5820   1   8   0.0011   0.0009   0.0009  -0.0009   0.0006  -0.0008   0.00    6.8
2020/05/12 01:10:00.000  -3959648.4393   3296836.5474   3747005.5819   1   8   0.0011   0.0009   0.0009  -0.0009   0.0006  -0.0008   0.00    7.5
2020/05/12 01:10:30.000  -3959648.4391   3296836.5473   3747005.5817   1   8   0.0011   0.0009   0.0009  -0.0009   0.0006  -0.0007   0.00    8.2
2020/05/12 01:11:00.000  -3959648.4390   3296836.5472   3747005.5815   1   8   0.0011   0.0009   0.0009  -0.0009   0.0006  -0.0007   0.00    8.6
2020/05/12 01:11:30.000  -3959648.4389   3296836.5472   3747005.5813   1   8   0.0011   0.0009   0.0009  -0.0009   0.0006  -0.0007   0.00    9.3
2020/05/12 01:12:00.000  -3959648.4388   3296836.5472   3747005.5811   1   8   0.0011   0.0009   0.0009  -0.0009   0.0006  -0.0007   0.00    9.9
2020/05/12 01:12:30.000  -3959648.4387   3296836.5472   3747005.5810   1   8   0.0011   0.0009   0.0009  -0.0009   0.0006  -0.0007   0.00   11.3
2020/05/12 01:13:00.000  -3959648.4387   3296836.5472   3747005.5807   1   8   0.0011   0.0009   0.0009  -0.0009   0.0006  -0.0007   0.00   12.0
2020/05/12 01:13:30.000  -3959648.4387   3296836.5473   3747005.5806   1   8   0.0011   0.0009   0.0009  -0.0009   0.0006  -0.0007   0.00   13.0
2020/05/12 01:14:00.000  -3959648.4387   3296836.5474   3747005.5805   1   8   0.0011   0.0009   0.0009  -0.0009   0.0006  -0.0007   0.00   13.9
2020/05/12 01:14:30.000  -3959648.4386   3296836.5474   3747005.5804   1   8   0.0011   0.0009   0.0009  -0.0009   0.0006  -0.0007   0.00   14.6
2020/05/12 01:15:00.000  -3959648.4385   3296836.5474   3747005.5803   1   8   0.0011   0.0009   0.0009  -0.0009   0.0006  -0.0007   0.00   15.1
2020/05/12 01:15:30.000  -3959648.4384   3296836.5474   3747005.5803   1   8   0.0011   0.0009   0.0009  -0.0009   0.0006  -0.0007   0.00   16.4
2020/05/12 01:16:00.000  -3959648.4384   3296836.5475   3747005.5803   1   8   0.0011   0.0009   0.0009  -0.0009   0.0006  -0.0007   0.00   17.6
2020/05/12 01:16:30.000  -3959648.4383   3296836.5474   3747005.5802   1   8   0.0011   0.0009   0.0009  -0.0009   0.0006  -0.0007   0.00   18.6
2020/05/12 01:17:00.000  -3959648.4382   3296836.5474   3747005.5802   1   8   0.0011   0.0009   0.0009  -0.0009   0.0006  -0.0007   0.00   19.2
2020/05/12 01:17:30.000  -3959648.4382   3296836.5475   3747005.5801   1   8   0.0011   0.0009   0.0009  -0.0009   0.0006  -0.0007   0.00   19.7
2020/05/12 01:18:00.000  -3959648.4382   3296836.5476   3747005.5801   1   8   0.0011   0.0009   0.0009  -0.0009   0.0006  -0.0007   0.00   21.0
2020/05/12 01:18:30.000  -3959648.4383   3296836.5476   3747005.5802   1   8   0.0011   0.0009   0.0009  -0.0009   0.0006  -0.0007   0.00   22.3
2020/05/12 01:19:00.000  -3959648.4383   3296836.5475   3747005.5802   1   8   0.0011   0.0009   0.0009  -0.0009   0.0006  -0.0007   0.00   23.5
2020/05/12 01:19:30.000  -3959648.4384   3296836.5475   3747005.5805   1   8   0.0011   0.0009   0.0009  -0.0009   0.0006  -0.0007   0.00   26.1
2020/05/12 01:20:00.000  -3959648.4387   3296836.5476   3747005.5807   1   8   0.0011   0.0009   0.0009  -0.0009   0.0006  -0.0007   0.00   28.5
2020/05/12 01:20:30.000  -3959648.4389   3296836.5477   3747005.5809   1   8   0.0011   0.0009   0.0009  -0.0008   0.0006  -0.0007   0.00   30.8
2020/05/12 01:21:00.000  -3959648.4389   3296836.5477   3747005.5810   1   8   0.0011   0.0009   0.0009  -0.0008   0.0006  -0.0007   0.00   32.8
2020/05/12 01:21:30.000  -3959648.4391   3296836.5478   3747005.5811   1   8   0.0011   0.0009   0.0009  -0.0008   0.0006  -0.0007   0.00   34.4
2020/05/12 01:22:00.000  -3959648.4392   3296836.5479   3747005.5813   1   8   0.0011   0.0009   0.0009  -0.0008   0.0006  -0.0007   0.00   34.9
2020/05/12 01:22:30.000  -3959648.4487   3296836.5458   3747005.5894   2   9   0.0037   0.0027   0.0017  -0.0019   0.0012  -0.0018   0.00    1.8
2020/05/12 01:23:00.000  -3959648.4488   3296836.5455   3747005.5891   2   9   0.0036   0.0027   0.0017  -0.0019   0.0012  -0.0017   0.00    2.5
2020/05/12 01:23:30.000  -3959648.4395   3296836.5481   3747005.5813   1   9   0.0010   0.0009   0.0009  -0.0008   0.0006  -0.0007   0.00    3.4
2020/05/12 01:24:00.000  -3959648.4395   3296836.5481   3747005.5813   1   9   0.0010   0.0009   0.0009  -0.0008   0.0006  -0.0007   0.00    4.2
2020/05/12 01:24:30.000  -3959648.4395   3296836.5481   3747005.5812   1   9   0.0010   0.0008   0.0009  -0.0008   0.0006  -0.0007   0.00    4.9
2020/05/12 01:25:00.000  -3959648.4395   3296836.5482   3747005.5811   1   9   0.0010   0.0008   0.0009  -0.0008   0.0006  -0.0007   0.00    5.5
2020/05/12 01:25:30.000  -3959648.4393   3296836.5482   3747005.5809   1   9   0.0010   0.0008   0.0009  -0.0008   0.0006  -0.0007   0.00    6.0
2020/05/12 01:26:00.000  -3959648.4392   3296836.5481   3747005.5807   1   9   0.0010   0.0008   0.0009  -0.0008   0.0006  -0.0007   0.00    6.6
2020/05/12 01:26:30.000  -3959648.4390   3296836.5481   3747005.5805   1   9   0.0010   0.0008   0.0009  -0.0008   0.0006  -0.0007   0.00    7.2
2020/05/12 01:27:00.000  -3959648.4391   3296836.5482   3747005.5805   1   9   0.0010   0.0008   0.0009  -0.0008   0.0006  -0.0007   0.00    7.8
2020/05/12 01:27:30.000  -3959648.4391   3296836.5481   3747005.5804   1   9   0.0010   0.0008   0.0008  -0.0008   0.0006  -0.0007   0.00    8.5
2020/05/12 01:28:00.000  -3959648.4389   3296836.5481   3747005.5804   1   9   0.0010   0.0008   0.0008  -0.0008   0.0006  -0.0007   0.00    9.3
2020/05/12 01:28:30.000  -3959648.4387   3296836.5481   3747005.5802   1   9   0.0010   0.0008   0.0008  -0.0008   0.0006  -0.0007   0.00   10.2
2020/05/12 01:29:00.000  -3959648.4384   3296836.5479   3747005.5801   1   9   0.0010   0.0008   0.0008  -0.0008   0.0006  -0.0007   0.00   11.1
2020/05/12 01:29:30.000  -3959648.4382   3296836.5479   3747005.5799   1   9   0.0010   0.0008   0.0008  -0.0008   0.0006  -0.0007   0.00   12.0
2020/05/12 01:30:00.000  -3959648.4378   3296836.5478   3747005.5798   1   9   0.0010   0.0008   0.0008  -0.0008   0.0006  -0.0007   0.00   13.0
2020/05/12 01:30:30.000  -3959648.4375   3296836.5476   3747005.5797   1   9   0.0010   0.0008   0.0008  -0.0008   0.0006  -0.0007   0.00   13.8
2020/05/12 01:31:00.000  -3959648.4372   3296836.5474   3747005.5795   1   9   0.0010   0.0008   0.0008  -0.0008   0.0006  -0.0007   0.00   14.6
2020/05/12 01:31:30.000  -3959648.4369   3296836.5473   3747005.5794   1   9   0.0010   0.0008   0.0008  -0.0008   0.0006  -0.0007   0.00   15.0
2020/05/12 01:32:00.000  -3959648.4366   3296836.5472   3747005.5792   1   9   0.0010   0.0008   0.0008  -0.0008   0.0006  -0.0007   0.00   15.2
2020/05/12 01:32:30.000  -3959648.4365   3296836.5471   3747005.5790   1   9   0.0010   0.0008   0.0008  -0.0008   0.0006  -0.0007   0.00   15.4
2020/05/12 01:33:00.000  -3959648.4363   3296836.5471   3747005.5790   1   9   0.0010   0.0008   0.0008  -0.0008   0.0006  -0.0007   0.00   15.5
2020/05/12 01:33:30.000  -3959648.4361   3296836.5470   3747005.5791   1   9   0.0010   0.0008   0.0008  -0.0008   0.0006  -0.0007   0.00   15.4
2020/05/12 01:34:00.000  -3959648.4361   3296836.5471   3747005.5791   1   9   0.0010   0.0008   0.0008  -0.0008   0.0006  -0.0007   0.00   15.2
2020/05/12 01:34:30.000  -3959648.4359   3296836.5470   3747005.5790   1   9   0.0010   0.0008   0.0008  -0.0008   0.0006  -0.0007   0.00   15.4
2020/05/12 01:35:00.000  -3959648.4358   3296836.5470   3747005.5791   1   9   0.0010   0.0008   0.0008  -0.0008   0.0006  -0.0007   0.00   15.9
2020/05/12 01:35:30.000  -3959648.4359   3296836.5471   3747005.5792   1   9   0.0010   0.0008   0.0008  -0.0008   0.0006  -0.0007   0.00   16.6
2020/05/12 01:36:00.000  -3959648.4358   3296836.5470   3747005.5792   1   9   0.0010   0.0008   0.0008  -0.0008   0.0006  -0.0007   0.00   17.1
2020/05/12 01:36:30.000  -3959648.4359   3296836.5471   3747005.5794   1   9   0.0010   0.0008   0.0008  -0.0008   0.0006  -0.0007   0.00   17.8
2020/05/12 01:37:00.000  -3959648.4360   3296836.5471   3747005.5796   1   9   0.0010   0.0008   0.0008  -0.0008   0.0006  -0.0007   0.00   18.7
2020/05/12 01:37:30.000  -3959648.4361   3296836.5471   3747005.5798   1   9   0.0010   0.0008   0.0008  -0.0008   0.0006  -0.0007   0.00   19.5
2020/05/12 01:38:00.000  -3959648.4363   3296836.5473   3747005.5800   1   9   0.0010   0.0008   0.0008  -0.0008   0.0006  -0.0006   0.00   20.4
2020/05/12 01:38:30.000  -3959648.4366   3296836.5474   3747005.5802   1   9   0.0010   0.0008   0.0008  -0.0008   0.0006  -0.0006   0.00   21.2
2020/05/12 01:39:00.000  -3959648.4368   3296836.5476   3747005.5804   1   9   0.0010   0.0008   0.0008  -0.0008   0.0006  -0.0006   0.00   22.0
2020/05/12 01:39:30.000  -3959648.4372   3296836.5478   3747005.5806   1   9   0.0010   0.0008   0.0008  -0.0008   0.0006  -0.0006   0.00   23.1
2020/05/12 01:40:00.000  -3959648.4376   3296836.5480   3747005.5808   1   9   0.0009   0.0008   0.0008  -0.0008   0.0006  -0.0006   0.00   23.8
2020/05/12 01:40:30.000  -3959648.4381   3296836.5483   3747005.5811   1   9   0.0009   0.0008   0.0008  -0.0007   0.0006  -0.0006   0.00   24.6
2020/05/12 01:41:00.000  -3959648.4385   3296836.5485   3747005.5812   1   9   0.0009   0.0008   0.0008  -0.0007   0.0006  -0.0006   0.00   25.4
2020/05/12 01:41:30.000  -3959648.4389   3296836.5488   3747005.5814   1   9   0.0009   0.0008   0.0008  -0.0007   0.0006  -0.0006   0.00   26.8
2020/05/12 01:42:00.000  -3959648.4392   3296836.5490   3747005.5815   1   9   0.0009   0.0008   0.0008  -0.0007   0.0006  -0.0006   0.00   28.0
2020/05/12 01:42:30.000  -3959648.4395   3296836.5492   3747005.5816   1   9   0.0009   0.0008   0.0008  -0.0007   0.0006  -0.0006   0.00   29.4
2020/05/12 01:43:00.000  -3959648.4398   3296836.5494   3747005.5817   1   9   0.0009   0.0008   0.0008  -0.0007   0.0006  -0.0006   0.00   31.7
2020/05/12 01:43:30.000  -3959648.4400   3296836.5495   3747005.5819   1   9   0.0009   0.0008   0.0008  -0.0007   0.0006  -0.0006   0.00   33.7
2020/05/12 01:44:00.000  -3959648.4402   3296836.5496   3747005.5820   1   9   0.0009   0.0008   0.0008  -0.0007   0.0006  -0.0006   0.00   35.2
2020/05/12 01:44:30.000  -3959648.4404   3296836.5497   3747005.5823   1   9   0.0009   0.0008   0.0008  -0.0007   0.0006  -0.0006   0.00   35.9
2020/05/12 01:45:00.000  -3959648.4405   3296836.5496   3747005.5824   1   9   0.0009   0.0008   0.0008  -0.0007   0.0006  -0.0006   0.00   36.5
2020/05/12 01:45:30.000  -3959648.4406   3296836.5496   3747005.5826   1   9   0.0009   0.0008   0.0008  -0.0007   0.0006  -0.0006   0.00   37.8
2020/05/12 01:46:00.000  -3959648.4408   3296836.5495   3747005.5829   1   9   0.0009   0.0008   0.0008  -0.0007   0.0006  -0.0006   0.00   38.7
2020/05/12 01:46:30.000  -3959648.4410   3296836.5496   3747005.5831   1   9   0.0009   0.0008   0.0008  -0.0007   0.0006  -0.0006   0.00   40.1
2020/05/12 01:47:00.000  -3959648.4412   3296836.5496   3747005.5833   1   9   0.0009   0.0007   0.0008  -0.0007   0.0006  -0.0006   0.00   41.3
2020/05/12 01:47:30.000  -3959648.4415   3296836.5497   3747005.5835   1   9   0.0009   0.0007   0.0008  -0.0007   0.0006  -0.0006   0.00   41.6
2020/05/12 01:48:00.000  -3959648.4417   3296836.5497   3747005.5836   1   9   0.0009   0.0007   0.0008  -0.0007   0.0006  -0.0006   0.00   43.2
2020/05/12 01:48:30.000  -3959648.4419   3296836.5498   3747005.5837   1   9   0.0009   0.0007   0.0008  -0.0007   0.0006  -0.0006   0.00   43.4
2020/05/12 01:49:00.000  -3959648.4421   3296836.5499   3747005.5837   1   9   0.0009   0.0007   0.0008  -0.0007   0.0006  -0.0006   0.00   44.7
2020/05/12 01:49:30.000  -3959648.4423   3296836.5500   3747005.5838   1   9   0.0009   0.0007   0.0008  -0.0007   0.0006  -0.0006   0.00   46.0
2020/05/12 01:50:00.000  -3959648.4425   3296836.5500   3747005.5838   1   9   0.0009   0.0007   0.0008  -0.0007   0.0006  -0.0006   0.00   47.5
2020/05/12 01:50:30.000  -3959648.4427   3296836.5502   3747005.5839   1   9   0.0009   0.0007   0.0008  -0.0007   0.0006  -0.0006   0.00   49.3
2020/05/12 01:51:00.000  -3959648.4428   3296836.5503   3747005.5839   1   9   0.0009   0.0007   0.0008  -0.0007   0.0006  -0.0006   0.00   50.9
2020/05/12 01:51:30.000  -3959648.4431   3296836.5505   3747005.5840   1   9   0.0009   0.0007   0.0008  -0.0007   0.0006  -0.0006   0.00   50.7
2020/05/12 01:52:00.000  -3959648.4433   3296836.5507   3747005.5841   1   9   0.0009   0.0007   0.0008  -0.0007   0.0006  -0.0006   0.00   51.0
2020/05/12 01:52:30.000  -3959648.4434   3296836.5509   3747005.5842   1   9   0.0009   0.0007   0.0008  -0.0007   0.0006  -0.0006   0.00   51.4
2020/05/12 01:53:00.000  -3959648.4435   3296836.5510   3747005.5843   1   9   0.0009   0.0007   0.0008  -0.0007   0.0005  -0.0006   0.00   51.9
2020/05/12 01:53:30.000  -3959648.4436   3296836.5512   3747005.5845   1   9   0.0009   0.0007   0.0007  -0.0007   0.0005  -0.0006   0.00   53.2
2020/05/12 01:54:00.000  -3959648.4437   3296836.5514   3747005.5847   1   9   0.0009   0.0007   0.0007  -0.0007   0.0005  -0.0006   0.00   53.5
2020/05/12 01:54:30.000  -3959648.4439   3296836.5516   3747005.5849   1   9   0.0009   0.0007   0.0007  -0.0007   0.0005  -0.0006   0.00   53.2
2020/05/12 01:55:00.000  -3959648.4440   3296836.5517   3747005.5851   1   9   0.0009   0.0007   0.0007  -0.0007   0.0005  -0.0006   0.00   52.8
2020/05/12 01:55:30.000  -3959648.4441   3296836.5519   3747005.5852   1   9   0.0009   0.0007   0.0007  -0.0007   0.0005  -0.0006   0.00   53.8
2020/05/12 01:56:00.000  -3959648.4442   3296836.5520   3747005.5853   1   9   0.0009   0.0007   0.0007  -0.0007   0.0005  -0.0006   0.00   53.9
2020/05/12 01:56:30.000  -3959648.4443   3296836.5521   3747005.5853   1   9   0.0009   0.0007   0.0007  -0.0007   0.0005  -0.0006   0.00   54.2
2020/05/12 01:57:00.000  -3959648.4445   3296836.5523   3747005.5854   1   9   0.0009   0.0007   0.0007  -0.0007   0.0005  -0.0006   0.00   55.0
2020/05/12 01:57:30.000  -3959648.4447   3296836.5524   3747005.5855   1   9   0.0009   0.0007   0.0007  -0.0007   0.0005  -0.0006   0.00   55.4
2020/05/12 01:58:00.000  -3959648.4448   3296836.5525   3747005.5856   1   9   0.0009   0.0007   0.0007  -0.0007   0.0005  -0.0006   0.00   55.9
2020/05/12 01:58:30.000  -3959648.4448   3296836.5525   3747005.5856   1   9   0.0009   0.0007   0.0007  -0.0007   0.0005  -0.0006   0.00   57.4
2020/05/12 01:59:00.000  -3959648.4447   3296836.5524   3747005.5856   1   9   0.0009   0.0007   0.0007  -0.0007   0.0005  -0.0006   0.00   58.8
2020/05/12 01:59:30.000  -3959648.4448   3296836.5525   3747005.5856   1   9   0.0009   0.0007   0.0007  -0.0007   0.0005  -0.0005   0.00   60.2
2020/05/12 02:00:00.000  -3959648.4448   3296836.5525   3747005.5856   1   9   0.0009   0.0007   0.0007  -0.0007   0.0005  -0.0005   0.00   62.2
2020/05/12 02:00:30.000  -3959648.4447   3296836.5524   3747005.5856   1   9   0.0009   0.0007   0.0007  -0.0007   0.0005  -0.0005   0.00   64.2
2020/05/12 02:01:00.000  -3959648.4447   3296836.5524   3747005.5855   1   9   0.0009   0.0007   0.0007  -0.0007   0.0005  -0.0005   0.00   67.7
2020/05/12 02:01:30.000  -3959648.4447   3296836.5523   3747005.5856   1   9   0.0009   0.0007   0.0007  -0.0007   0.0005  -0.0005   0.00   70.4
2020/05/12 02:02:00.000  -3959648.4447   3296836.5523   3747005.5857   1   9   0.0009   0.0007   0.0007  -0.0007   0.0005  -0.0005   0.00   71.3
2020/05/12 02:02:30.000  -3959648.4447   3296836.5523   3747005.5858   1   9   0.0009   0.0007   0.0007  -0.0007   0.0005  -0.0005   0.00   72.6
2020/05/12 02:03:00.000  -3959648.4447   3296836.5523   3747005.5859   1   9   0.0009   0.0007   0.0007  -0.0007   0.0005  -0.0005   0.00   74.2
2020/05/12 02:03:30.000  -3959648.4447   3296836.5524   3747005.5861   1   9   0.0009   0.0007   0.0007  -0.0007   0.0005  -0.0005   0.00   74.5
2020/05/12 02:04:00.000  -3959648.4447   3296836.5526   3747005.5862   1   9   0.0009   0.0007   0.0007  -0.0007   0.0005  -0.0005   0.00   74.8
2020/05/12 02:04:30.000  -3959648.4447   3296836.5527   3747005.5863   1   9   0.0009   0.0007   0.0007  -0.0007   0.0005  -0.0005   0.00   75.6
2020/05/12 02:05:00.000  -3959648.4447   3296836.5528   3747005.5865   1   9   0.0009   0.0007   0.0007  -0.0006   0.0005  -0.0005   0.00   75.3
2020/05/12 02:05:30.000  -3959648.4448   3296836.5529   3747005.5867   1   9   0.0008   0.0007   0.0007  -0.0006   0.0005  -0.0005   0.00   74.8
2020/05/12 02:06:00.000  -3959648.4448   3296836.5529   3747005.5868   1   9   0.0008   0.0007   0.0007  -0.0006   0.0005  -0.0005   0.00   74.7
2020/05/12 02:06:30.000  -3959648.4447   3296836.5530   3747005.5869   1   9   0.0008   0.0007   0.0007  -0.0006   0.0005  -0.0005   0.00   74.7
2020/05/12 02:07:00.000  -3959648.4446   3296836.5530   3747005.5870   1   9   0.0008   0.0007   0.0007  -0.0006   0.0005  -0.0005   0.00   74.5
2020/05/12 02:07:30.000  -3959648.4445   3296836.5531   3747005.5871   1   9   0.0008   0.0007   0.0007  -0.0006   0.0005  -0.0005   0.00   74.1
2020/05/12 02:08:00.000  -3959648.4444   3296836.5531   3747005.5872   1   9   0.0008   0.0007   0.0007  -0.0006   0.0005  -0.0005   0.00   73.4
2020/05/12 02:08:30.000  -3959648.4443   3296836.5531   3747005.5873   1   9   0.0008   0.0007   0.0007  -0.0006   0.0005  -0.0005   0.00   72.9
2020/05/12 02:09:00.000  -3959648.4442   3296836.5531   3747005.5874   1   9   0.0008   0.0007   0.0007  -0.0006   0.0005  -0.0005   0.00   73.1
2020/05/12 02:09:30.000  -3959648.4477   3296836.5421   3747005.5883   2  10   0.0021   0.0020   0.0011  -0.0014   0.0009  -0.0011   0.00    1.2
2020/05/12 02:10:00.000  -3959648.4478   3296836.5421   3747005.5883   2  10   0.0020   0.0020   0.0011  -0.0014   0.0009  -0.0011   0.00    1.3
2020/05/12 02:10:30.000  -3959648.4478   3296836.5420   3747005.5884   2  10   0.0020   0.0020   0.0011  -0.0014   0.0009  -0.0011   0.00    1.2
2020/05/12 02:11:00.000  -3959648.4449   3296836.5534   3747005.5881   1   9   0.0010   0.0007   0.0007  -0.0007   0.0005  -0.0006   0.00    3.9
2020/05/12 02:11:30.000  -3959648.4479   3296836.5417   3747005.5884   2  10   0.0020   0.0019   0.0011  -0.0013   0.0009  -0.0010   0.00    1.9
2020/05/12 02:12:00.000  -3959648.4479   3296836.5415   3747005.5885   2  10   0.0020   0.0019   0.0011  -0.0013   0.0009  -0.0010   0.00    2.7
2020/05/12 02:12:30.000  -3959648.4479   3296836.5412   3747005.5885   2  10   0.0020   0.0019   0.0011  -0.0013   0.0009  -0.0010   0.00    1.7
2020/05/12 02:13:00.000  -3959648.4454   3296836.5536   3747005.5890   1   9   0.0010   0.0007   0.0007  -0.0007   0.0005  -0.0006   0.00    6.8
2020/05/12 02:13:30.000  -3959648.4456   3296836.5536   3747005.5892   1   9   0.0010   0.0007   0.0007  -0.0007   0.0005  -0.0006   0.00    7.5
2020/05/12 02:14:00.000  -3959648.4482   3296836.5408   3747005.5887   2  10   0.0020   0.0019   0.0011  -0.0013   0.0009  -0.0010   0.00    1.3
2020/05/12 02:14:30.000  -3959648.4482   3296836.5408   3747005.5886   2  10   0.0020   0.0019   0.0011  -0.0013   0.0009  -0.0010   0.00    1.9
2020/05/12 02:15:00.000  -3959648.4484   3296836.5408   3747005.5886   2  10   0.0020   0.0019   0.0011  -0.0013   0.0009  -0.0010   0.00    2.6
2020/05/12 02:15:30.000  -3959648.4464   3296836.5541   3747005.5899   1  10   0.0010   0.0007   0.0007  -0.0007   0.0005  -0.0005   0.00    3.4
2020/05/12 02:16:00.000  -3959648.4466   3296836.5543   3747005.5901   1  10   0.0010   0.0007   0.0007  -0.0007   0.0005  -0.0005   0.00    4.1
2020/05/12 02:16:30.000  -3959648.4468   3296836.5545   3747005.5903   1  10   0.0010   0.0007   0.0007  -0.0007   0.0005  -0.0005   0.00    4.8
2020/05/12 02:17:00.000  -3959648.4470   3296836.5547   3747005.5905   1  10   0.0010   0.0007   0.0007  -0.0007   0.0005  -0.0005   0.00    5.6
2020/05/12 02:17:30.000  -3959648.4473   3296836.5550   3747005.5908   1  10   0.0010   0.0007   0.0007  -0.0007   0.0005  -0.0005   0.00    6.3
2020/05/12 02:18:00.000  -3959648.4475   3296836.5552   3747005.5909   1  10   0.0010   0.0007   0.0007  -0.0007   0.0005  -0.0005   0.00    7.0
2020/05/12 02:18:30.000  -3959648.4478   3296836.5554   3747005.5911   1  10   0.0010   0.0007   0.0007  -0.0007   0.0005  -0.0005   0.00    7.7
2020/05/12 02:19:00.000  -3959648.4479   3296836.5556   3747005.5912   1  10   0.0010   0.0007   0.0007  -0.0007   0.0005  -0.0005   0.00    8.6
2020/05/12 02:19:30.000  -3959648.4481   3296836.5558   3747005.5914   1  10   0.0010   0.0007   0.0007  -0.0007   0.0005  -0.0005   0.00    9.4
2020/05/12 02:20:00.000  -3959648.4481   3296836.5559   3747005.5915   1  10   0.0010   0.0007   0.0007  -0.0007   0.0005  -0.0005   0.00   10.3
2020/05/12 02:20:30.000  -3959648.4482   3296836.5560   3747005.5916   1  10   0.0010   0.0007   0.0007  -0.0007   0.0005  -0.0005   0.00   10.8
2020/05/12 02:21:00.000  -3959648.4482   3296836.5562   3747005.5916   1  10   0.0010   0.0007   0.0007  -0.0007   0.0005  -0.0005   0.00   11.4
2020/05/12 02:21:30.000  -3959648.4483   3296836.5563   3747005.5918   1  10   0.0009   0.0007   0.0007  -0.0007   0.0005  -0.0005   0.00   11.8
2020/05/12 02:22:00.000  -3959648.4483   3296836.5564   3747005.5919   1  10   0.0009   0.0007   0.0007  -0.0007   0.0005  -0.0005   0.00   12.3
2020/05/12 02:22:30.000  -3959648.4484   3296836.5565   3747005.5919   1  10   0.0009   0.0007   0.0007  -0.0007   0.0005  -0.0005   0.00   12.8
2020/05/12 02:23:00.000  -3959648.4484   3296836.5566   3747005.5919   1  10   0.0009   0.0007   0.0007  -0.0007   0.0005  -0.0005   0.00   13.2
2020/05/12 02:23:30.000  -3959648.4485   3296836.5566   3747005.5920   1  10   0.0009   0.0007   0.0007  -0.0007   0.0005  -0.0005   0.00   13.5
2020/05/12 02:24:00.000  -3959648.4487   3296836.5568   3747005.5921   1  10   0.0009   0.0007   0.0007  -0.0007   0.0005  -0.0005   0.00   13.8
2020/05/12 02:24:30.000  -3959648.4488   3296836.5569   3747005.5922   1  10   0.0009   0.0007   0.0006  -0.0007   0.0005  -0.0005   0.00   14.0
2020/05/12 02:25:00.000  -3959648.4489   3296836.5570   3747005.5922   1  10   0.0009   0.0007   0.0006  -0.0007   0.0005  -0.0005   0.00   14.4
2020/05/12 02:25:30.000  -3959648.4491   3296836.5571   3747005.5923   1  10   0.0009   0.0007   0.0006  -0.0007   0.0005  -0.0005   0.00   14.9
2020/05/12 02:26:00.000  -3959648.4492   3296836.5572   3747005.5923   1  10   0.0009   0.0007   0.0006  -0.0007   0.0005  -0.0005   0.00   15.4
2020/05/12 02:26:30.000  -3959648.4492   3296836.5573   3747005.5922   1  10   0.0009   0.0007   0.0006  -0.0007   0.0005  -0.0005   0.00   15.8
2020/05/12 02:27:00.000  -3959648.4494   3296836.5574   3747005.5923   1  10   0.0009   0.0007   0.0006  -0.0007   0.0005  -0.0005   0.00   16.2
2020/05/12 02:27:30.000  -3959648.4495   3296836.5575   3747005.5924   1  10   0.0009   0.0007   0.0006  -0.0007   0.0005  -0.0005   0.00   16.5
2020/05/12 02:28:00.000  -3959648.4495   3296836.5575   3747005.5924   1  10   0.0009   0.0007   0.0006  -0.0007   0.0005  -0.0005   0.00   16.9
2020/05/12 02:28:30.000  -3959648.4496   3296836.5576   3747005.5925   1  10   0.0009   0.0007   0.0006  -0.0006   0.0005  -0.0005   0.00   17.3
2020/05/12 02:29:00.000  -3959648.4498   3296836.5578   3747005.5926   1  10   0.0009   0.0007   0.0006  -0.0006   0.0005  -0.0005   0.00   17.7
2020/05/12 02:29:30.000  -3959648.4498   3296836.5578   3747005.5926   1  10   0.0009   0.0007   0.0006  -0.0006   0.0005  -0.0005   0.00   18.1
2020/05/12 02:30:00.000  -3959648.4532   3296836.5418   3747005.5899   2  10   0.0017   0.0018   0.0010  -0.0012   0.0008  -0.0009   0.00    1.5
2020/05/12 02:30:30.000  -3959648.4532   3296836.5418   3747005.5898   2  10   0.0017   0.0018   0.0010  -0.0012   0.0008  -0.0009   0.00    2.2
2020/05/12 02:31:00.000  -3959648.4535   3296836.5588   3747005.5921   1   9   0.0011   0.0007   0.0007  -0.0007   0.0004  -0.0003   0.00    3.1
2020/05/12 02:31:30.000  -3959648.4536   3296836.5589   3747005.5923   1   9   0.0011   0.0007   0.0007  -0.0007   0.0004  -0.0003   0.00    3.7
2020/05/12 02:32:00.000  -3959648.4538   3296836.5593   3747005.5925   1   8   0.0011   0.0008   0.0007  -0.0008   0.0005  -0.0004   0.00    4.4
2020/05/12 02:32:30.000  -3959648.4538   3296836.5594   3747005.5926   1   8   0.0011   0.0008   0.0007  -0.0008   0.0005  -0.0004   0.00    5.0
2020/05/12 02:33:00.000  -3959648.4539   3296836.5595   3747005.5927   1   8   0.0011   0.0008   0.0007  -0.0008   0.0005  -0.0004   0.00    5.6
2020/05/12 02:33:30.000  -3959648.4538   3296836.5595   3747005.5928   1   8   0.0011   0.0008   0.0007  -0.0008   0.0005  -0.0004   0.00    6.2
2020/05/12 02:34:00.000  -3959648.4539   3296836.5596   3747005.5930   1   8   0.0011   0.0008   0.0007  -0.0008   0.0005  -0.0004   0.00    6.7
2020/05/12 02:34:30.000  -3959648.4540   3296836.5598   3747005.5930   1   8   0.0011   0.0008   0.0007  -0.0008   0.0005  -0.0004   0.00    7.2
2020/05/12 02:35:00.000  -3959648.4540   3296836.5597   3747005.5931   1   8   0.0011   0.0008   0.0007  -0.0008   0.0005  -0.0004   0.00    7.7
2020/05/12 02:35:30.000  -3959648.4540   3296836.5597   3747005.5932   1   8   0.0011   0.0008   0.0007  -0.0008   0.0005  -0.0004   0.00    8.3
2020/05/12 02:36:00.000  -3959648.4541   3296836.5597   3747005.5932   1   8   0.0011   0.0008   0.0007  -0.0008   0.0005  -0.0004   0.00    8.9
2020/05/12 02:36:30.000  -3959648.4542   3296836.5597   3747005.5933   1   8   0.0011   0.0008   0.0007  -0.0008   0.0005  -0.0004   0.00    9.4
2020/05/12 02:37:00.000  -3959648.4544   3296836.5598   3747005.5935   1   8   0.0011   0.0008   0.0007  -0.0008   0.0005  -0.0004   0.00   10.1
2020/05/12 02:37:30.000  -3959648.4546   3296836.5598   3747005.5936   1   8   0.0011   0.0008   0.0007  -0.0008   0.0005  -0.0004   0.00   10.7
2020/05/12 02:38:00.000  -3959648.4549   3296836.5598   3747005.5937   1   8   0.0011   0.0008   0.0007  -0.0008   0.0005  -0.0004   0.00   11.0
2020/05/12 02:38:30.000  -3959648.4553   3296836.5599   3747005.5939   1   8   0.0011   0.0008   0.0007  -0.0007   0.0005  -0.0004   0.00   11.2
2020/05/12 02:39:00.000  -3959648.4536   3296836.5408   3747005.5903   2   9   0.0017   0.0018   0.0009  -0.0012   0.0008  -0.0009   0.00    1.4
2020/05/12 02:39:30.000  -3959648.4536   3296836.5406   3747005.5904   2   9   0.0017   0.0018   0.0009  -0.0012   0.0008  -0.0009   0.00    1.8
2020/05/12 02:40:00.000  -3959648.4535   3296836.5405   3747005.5904   2   9   0.0017   0.0018   0.0009  -0.0012   0.0008  -0.0009   0.00    2.2
2020/05/12 02:40:30.000  -3959648.4536   3296836.5403   3747005.5904   2   9   0.0017   0.0018   0.0009  -0.0012   0.0008  -0.0009   0.00    2.5
2020/05/12 02:41:00.000  -3959648.4535   3296836.5400   3747005.5905   2   9   0.0017   0.0018   0.0009  -0.0012   0.0008  -0.0009   0.00    2.9
2020/05/12 02:41:30.000  -3959648.4575   3296836.5604   3747005.5949   1   9   0.0010   0.0008   0.0007  -0.0007   0.0005  -0.0004   0.00    3.3
2020/05/12 02:42:00.000  -3959648.4577   3296836.5605   3747005.5951   1   9   0.0010   0.0008   0.0007  -0.0007   0.0005  -0.0004   0.00    3.8
2020/05/12 02:42:30.000  -3959648.4574   3296836.5604   3747005.5952   1   8   0.0011   0.0008   0.0007  -0.0007   0.0005  -0.0004   0.00    4.3
2020/05/12 02:43:00.000  -3959648.4574   3296836.5605   3747005.5953   1   8   0.0011   0.0008   0.0007  -0.0007   0.0005  -0.0004   0.00    4.8
2020/05/12 02:43:30.000  -3959648.4575   3296836.5605   3747005.5955   1   8   0.0011   0.0008   0.0007  -0.0007   0.0005  -0.0004   0.00    5.1
2020/05/12 02:44:00.000  -3959648.4576   3296836.5607   3747005.5957   1   8   0.0010   0.0008   0.0007  -0.0007   0.0005  -0.0004   0.00    5.5
2020/05/12 02:44:30.000  -3959648.4578   3296836.5608   3747005.5960   1   8   0.0010   0.0008   0.0007  -0.0007   0.0005  -0.0004   0.00    5.8
2020/05/12 02:45:00.000  -3959648.4580   3296836.5610   3747005.5963   1   8   0.0010   0.0008   0.0007  -0.0007   0.0005  -0.0004   0.00    6.1
2020/05/12 02:45:30.000  -3959648.4581   3296836.5611   3747005.5965   1   8   0.0010   0.0008   0.0007  -0.0007   0.0005  -0.0004   0.00    6.4
2020/05/12 02:46:00.000  -3959648.4583   3296836.5611   3747005.5967   1   8   0.0010   0.0008   0.0007  -0.0007   0.0005  -0.0004   0.00    6.8
2020/05/12 02:46:30.000  -3959648.4586   3296836.5613   3747005.5969   1   8   0.0010   0.0008   0.0007  -0.0007   0.0005  -0.0004   0.00    7.0
2020/05/12 02:47:00.000  -3959648.4589   3296836.5615   3747005.5971   1   8   0.0010   0.0008   0.0007  -0.0007   0.0005  -0.0004   0.00    7.4
2020/05/12 02:47:30.000  -3959648.4590   3296836.5615   3747005.5972   1   8   0.0010   0.0008   0.0006  -0.0007   0.0005  -0.0004   0.00    7.7
2020/05/12 02:48:00.000  -3959648.4592   3296836.5616   3747005.5974   1   8   0.0010   0.0008   0.0006  -0.0007   0.0005  -0.0004   0.00    8.0
2020/05/12 02:48:30.000  -3959648.4589   3296836.5610   3747005.5973   1   7   0.0011   0.0010   0.0007  -0.0009   0.0006  -0.0005   0.00    8.3
2020/05/12 02:49:00.000  -3959648.4571   3296836.5602   3747005.5968   1   6   0.0013   0.0010   0.0007  -0.0010   0.0006  -0.0006   0.00    8.3
2020/05/12 02:49:30.000  -3959648.4571   3296836.5601   3747005.5969   1   6   0.0013   0.0010   0.0007  -0.0010   0.0006  -0.0006   0.00    8.7
2020/05/12 02:50:00.000  -3959648.4574   3296836.5601   3747005.5970   1   6   0.0013   0.0010   0.0007  -0.0010   0.0006  -0.0006   0.00    9.0
2020/05/12 02:50:30.000  -3959648.4577   3296836.5601   3747005.5970   1   6   0.0013   0.0010   0.0007  -0.0010   0.0006  -0.0006   0.00    9.3
2020/05/12 02:51:00.000  -3959648.4578   3296836.5601   3747005.5970   1   6   0.0013   0.0010   0.0007  -0.0010   0.0006  -0.0006   0.00    9.7
2020/05/12 02:51:30.000  -3959648.4580   3296836.5600   3747005.5971   1   6   0.0013   0.0010   0.0007  -0.0010   0.0006  -0.0006   0.00   10.1
2020/05/12 02:52:00.000  -3959648.4583   3296836.5600   3747005.5971   1   6   0.0012   0.0010   0.0007  -0.0010   0.0006  -0.0006   0.00   10.5
2020/05/12 02:52:30.000  -3959648.4585   3296836.5601   3747005.5972   1   6   0.0012   0.0010   0.0007  -0.0010   0.0006  -0.0006   0.00   10.8
2020/05/12 02:53:00.000  -3959648.4586   3296836.5601   3747005.5972   1   6   0.0012   0.0010   0.0007  -0.0010   0.0006  -0.0006   0.00   11.3
2020/05/12 02:53:30.000  -3959648.4589   3296836.5602   3747005.5972   1   6   0.0012   0.0010   0.0007  -0.0010   0.0006  -0.0006   0.00   11.6
2020/05/12 02:54:00.000  -3959648.4590   3296836.5603   3747005.5972   1   6   0.0012   0.0010   0.0007  -0.0009   0.0006  -0.0006   0.00   12.1
2020/05/12 02:54:30.000  -3959648.4591   3296836.5604   3747005.5972   1   6   0.0012   0.0010   0.0007  -0.0009   0.0006  -0.0006   0.00   12.6
2020/05/12 02:55:00.000  -3959648.4592   3296836.5604   3747005.5973   1   6   0.0012   0.0010   0.0007  -0.0009   0.0006  -0.0006   0.00   13.0
2020/05/12 02:55:30.000  -3959648.4593   3296836.5606   3747005.5973   1   6   0.0012   0.0010   0.0007  -0.0009   0.0006  -0.0006   0.00   13.6
2020/05/12 02:56:00.000  -3959648.4591   3296836.5605   3747005.5972   1   6   0.0012   0.0010   0.0007  -0.0009   0.0006  -0.0006   0.00   14.4
2020/05/12 02:56:30.000  -3959648.4590   3296836.5605   3747005.5972   1   6   0.0012   0.0010   0.0007  -0.0009   0.0006  -0.0006   0.00   15.1
2020/05/12 02:57:00.000  -3959648.4588   3296836.5605   3747005.5972   1   6   0.0012   0.0010   0.0007  -0.0009   0.0006  -0.0006   0.00   15.8
2020/05/12 02:57:30.000  -3959648.4588   3296836.5606   3747005.5972   1   6   0.0012   0.0010   0.0007  -0.0009   0.0006  -0.0006   0.00   16.4
2020/05/12 02:58:00.000  -3959648.4587   3296836.5607   3747005.5973   1   6   0.0012   0.0010   0.0007  -0.0009   0.0006  -0.0006   0.00   17.0
2020/05/12 02:58:30.000  -3959648.4586   3296836.5608   3747005.5973   1   6   0.0011   0.0010   0.0007  -0.0009   0.0006  -0.0006   0.00   17.6
2020/05/12 02:59:00.000  -3959648.4586   3296836.5607   3747005.5972   1   6   0.0011   0.0010   0.0007  -0.0009   0.0006  -0.0006   0.00   18.5
2020/05/12 02:59:30.000  -3959648.4584   3296836.5607   3747005.5972   1   6   0.0011   0.0010   0.0007  -0.0009   0.0006  -0.0006   0.00   19.4
2020/05/12 03:00:00.000  -3959648.4584   3296836.5607   3747005.5972   1   6   0.0011   0.0010   0.0007  -0.0009   0.0006  -0.0006   0.00   20.1
2020/05/12 03:00:30.000  -3959648.4584   3296836.5608   3747005.5972   1   6   0.0011   0.0010   0.0007  -0.0009   0.0006  -0.0006   0.00   20.7
2020/05/12 03:01:00.000  -3959648.4583   3296836.5608   3747005.5972   1   6   0.0011   0.0010   0.0007  -0.0009   0.0006  -0.0006   0.00   21.6
2020/05/12 03:01:30.000  -3959648.4581   3296836.5608   3747005.5972   1   6   0.0011   0.0010   0.0007  -0.0009   0.0006  -0.0006   0.00   22.4
2020/05/12 03:02:00.000  -3959648.4579   3296836.5609   3747005.5973   1   6   0.0011   0.0010   0.0007  -0.0009   0.0006  -0.0006   0.00   23.0
2020/05/12 03:02:30.000  -3959648.4579   3296836.5611   3747005.5974   1   6   0.0011   0.0010   0.0007  -0.0009   0.0006  -0.0006   0.00   23.7
2020/05/12 03:03:00.000  -3959648.4578   3296836.5613   3747005.5974   1   6   0.0011   0.0010   0.0007  -0.0009   0.0006  -0.0006   0.00   24.2
2020/05/12 03:03:30.000  -3959648.4579   3296836.5615   3747005.5975   1   6   0.0011   0.0010   0.0007  -0.0009   0.0006  -0.0006   0.00   24.6
2020/05/12 03:04:00.000  -3959648.4580   3296836.5616   3747005.5976   1   6   0.0011   0.0010   0.0007  -0.0009   0.0006  -0.0006   0.00   25.1
2020/05/12 03:04:30.000  -3959648.4581   3296836.5616   3747005.5976   1   6   0.0011   0.0010   0.0007  -0.0009   0.0006  -0.0006   0.00   25.9
2020/05/12 03:05:00.000  -3959648.4581   3296836.5616   3747005.5975   1   6   0.0011   0.0009   0.0007  -0.0009   0.0006  -0.0006   0.00   26.7
2020/05/12 03:05:30.000  -3959648.4581   3296836.5614   3747005.5975   1   6   0.0011   0.0009   0.0007  -0.0009   0.0006  -0.0006   0.00   27.8
2020/05/12 03:06:00.000  -3959648.4581   3296836.5613   3747005.5974   1   6   0.0011   0.0009   0.0007  -0.0009   0.0006  -0.0006   0.00   29.0
2020/05/12 03:06:30.000  -3959648.4581   3296836.5611   3747005.5973   1   6   0.0011   0.0009   0.0007  -0.0008   0.0006  -0.0006   0.00   30.2
2020/05/12 03:07:00.000  -3959648.4579   3296836.5609   3747005.5972   1   6   0.0011   0.0009   0.0007  -0.0008   0.0006  -0.0006   0.00   31.4
2020/05/12 03:07:30.000  -3959648.4579   3296836.5608   3747005.5971   1   6   0.0011   0.0009   0.0007  -0.0008   0.0006  -0.0006   0.00   32.8
2020/05/12 03:08:00.000  -3959648.4579   3296836.5607   3747005.5970   1   6   0.0010   0.0009   0.0007  -0.0008   0.0006  -0.0006   0.00   34.1
2020/05/12 03:08:30.000  -3959648.4579   3296836.5605   3747005.5969   1   6   0.0010   0.0009   0.0007  -0.0008   0.0006  -0.0006   0.00   35.9
2020/05/12 03:09:00.000  -3959648.4579   3296836.5604   3747005.5968   1   6   0.0010   0.0009   0.0007  -0.0008   0.0006  -0.0006   0.00   37.9
2020/05/12 03:09:30.000  -3959648.4579   3296836.5603   3747005.5967   1   6   0.0010   0.0009   0.0007  -0.0008   0.0006  -0.0006   0.00   39.6
2020/05/12 03:10:00.000  -3959648.4579   3296836.5603   3747005.5966   1   6   0.0010   0.0009   0.0007  -0.0008   0.0006  -0.0006   0.00   41.7
2020/05/12 03:10:30.000  -3959648.4579   3296836.5602   3747005.5965   1   6   0.0010   0.0009   0.0007  -0.0008   0.0006  -0.0006   0.00   43.4
2020/05/12 03:11:00.000  -3959648.4579   3296836.5601   3747005.5964   1   6   0.0010   0.0009   0.0007  -0.0008   0.0006  -0.0006   0.00   45.0
2020/05/12 03:11:30.000  -3959648.4578   3296836.5600   3747005.5964   1   6   0.0010   0.0009   0.0007  -0.0008   0.0006  -0.0006   0.00   46.4
2020/05/12 03:12:00.000  -3959648.4578   3296836.5599   3747005.5964   1   6   0.0010   0.0009   0.0007  -0.0008   0.0006  -0.0006   0.00   47.8
2020/05/12 03:12:30.000  -3959648.4578   3296836.5599   3747005.5963   1   6   0.0010   0.0009   0.0007  -0.0008   0.0006  -0.0006   0.00   49.4
2020/05/12 03:13:00.000  -3959648.4578   3296836.5599   3747005.5963   1   6   0.0010   0.0009   0.0007  -0.0008   0.0006  -0.0006   0.00   49.8
2020/05/12 03:13:30.000  -3959648.4578   3296836.5599   3747005.5963   1   6   0.0010   0.0009   0.0007  -0.0008   0.0006  -0.0006   0.00   50.6
2020/05/12 03:14:00.000  -3959648.4577   3296836.5598   3747005.5964   1   6   0.0010   0.0009   0.0007  -0.0008   0.0006  -0.0006   0.00   50.7
2020/05/12 03:14:30.000  -3959648.4577   3296836.5598   3747005.5964   1   6   0.0010   0.0009   0.0007  -0.0008   0.0006  -0.0006   0.00   51.8
2020/05/12 03:15:00.000  -3959648.4577   3296836.5597   3747005.5964   1   6   0.0010   0.0009   0.0007  -0.0008   0.0006  -0.0006   0.00   53.3
2020/05/12 03:15:30.000  -3959648.4576   3296836.5596   3747005.5964   1   6   0.0010   0.0009   0.0007  -0.0008   0.0006  -0.0006   0.00   54.5
2020/05/12 03:16:00.000  -3959648.4576   3296836.5596   3747005.5964   1   6   0.0010   0.0009   0.0007  -0.0008   0.0006  -0.0006   0.00   55.9
2020/05/12 03:16:30.000  -3959648.4574   3296836.5595   3747005.5963   1   6   0.0010   0.0009   0.0007  -0.0008   0.0006  -0.0006   0.00   57.9
2020/05/12 03:17:00.000  -3959648.4573   3296836.5596   3747005.5964   1   6   0.0010   0.0009   0.0007  -0.0008   0.0006  -0.0006   0.00   58.6
2020/05/12 03:17:30.000  -3959648.4574   3296836.5598   3747005.5965   1   6   0.0010   0.0009   0.0007  -0.0008   0.0006  -0.0006   0.00   59.5
2020/05/12 03:18:00.000  -3959648.4573   3296836.5598   3747005.5965   1   6   0.0010   0.0009   0.0007  -0.0008   0.0006  -0.0006   0.00   60.8
2020/05/12 03:18:30.000  -3959648.4572   3296836.5599   3747005.5965   1   6   0.0010   0.0009   0.0007  -0.0008   0.0006  -0.0006   0.00   61.9
2020/05/12 03:19:00.000  -3959648.4571   3296836.5599   3747005.5965   1   6   0.0010   0.0009   0.0007  -0.0008   0.0006  -0.0006   0.00   63.7
2020/05/12 03:19:30.000  -3959648.4569   3296836.5599   3747005.5965   1   6   0.0010   0.0009   0.0007  -0.0008   0.0006  -0.0006   0.00   64.7
2020/05/12 03:20:00.000  -3959648.4569   3296836.5599   3747005.5966   1   6   0.0010   0.0009   0.0007  -0.0008   0.0006  -0.0006   0.00   65.5
2020/05/12 03:20:30.000  -3959648.4568   3296836.5599   3747005.5966   1   6   0.0010   0.0009   0.0007  -0.0008   0.0006  -0.0006   0.00   66.2
2020/05/12 03:21:00.000  -3959648.4566   3296836.5599   3747005.5967   1   6   0.0010   0.0009   0.0007  -0.0008   0.0006  -0.0006   0.00   67.0
2020/05/12 03:21:30.000  -3959648.4565   3296836.5600   3747005.5968   1   6   0.0010   0.0009   0.0007  -0.0008   0.0006  -0.0006   0.00   67.4
2020/05/12 03:22:00.000  -3959648.4565   3296836.5600   3747005.5968   1   6   0.0010   0.0009   0.0007  -0.0008   0.0006  -0.0006   0.00   68.4
