% program   : RTKPOST ver.2.4.3 b34
% inp file  : C:\Users\Danisimo\Desktop\Nika\JOG2\jog20100.17o
% inp file  : C:\Users\Danisimo\Desktop\Nika\BRDM00DLR_R_20170100000_01D_MN.rnx
% inp file  : C:\Users\Danisimo\Desktop\Nika\igs19312.sp3
% inp file  : C:\Users\Danisimo\Desktop\Nika\igs19312.clk_30s
% obs start : 2017/01/10 00:00:00.0 GPST (week1931 172800.0s)
% obs end   : 2017/01/10 23:59:30.0 GPST (week1931 259170.0s)
% pos mode  : PPP Static
% solution  : Combined
% elev mask : 15.0 deg
% dynamics  : off
% tidecorr  : on
% tropo opt : Estimate ZTD+Grad
% ephemeris : Precise
% navi sys  : GPS
% antenna1  :                       ( 0.0000  0.0000  0.1206)
%
% (x/y/z-ecef=WGS84,Q=1:fix,2:float,3:sbas,4:dgps,5:single,6:ppp,ns=# of satellites)
%  GPST                      x-ecef(m)      y-ecef(m)      z-ecef(m)   Q  ns   sdx(m)   sdy(m)   sdz(m)  sdxy(m)  sdyz(m)  sdzx(m) age(s)  ratio
2017/01/10 00:00:00.000  -2200208.0127   5924895.5522   -855929.2125   6  10   0.0040   0.0052   0.0016  -0.0022  -0.0017   0.0011   0.00    0.0
2017/01/10 00:00:30.000  -2200208.0127   5924895.5522   -855929.2125   6  10   0.0040   0.0052   0.0016  -0.0022  -0.0017   0.0011   0.00    0.0
2017/01/10 00:01:00.000  -2200208.0127   5924895.5521   -855929.2125   6  10   0.0040   0.0052   0.0016  -0.0022  -0.0017   0.0011   0.00    0.0
2017/01/10 00:01:30.000  -2200208.0127   5924895.5521   -855929.2125   6  10   0.0040   0.0052   0.0016  -0.0022  -0.0017   0.0011   0.00    0.0
2017/01/10 00:02:00.000  -2200208.0127   5924895.5521   -855929.2125   6  10   0.0040   0.0052   0.0016  -0.0022  -0.0017   0.0011   0.00    0.0
2017/01/10 00:02:30.000  -2200208.0127   5924895.5522   -855929.2125   6  10   0.0040   0.0052   0.0016  -0.0022  -0.0017   0.0011   0.00    0.0
2017/01/10 00:03:00.000  -2200208.0127   5924895.5522   -855929.2125   6  10   0.0040   0.0052   0.0016  -0.0022  -0.0017   0.0011   0.00    0.0
2017/01/10 00:03:30.000  -2200208.0127   5924895.5522   -855929.2125   6  10   0.0040   0.0052   0.0016  -0.0022  -0.0017   0.0011   0.00    0.0
2017/01/10 00:04:00.000  -2200208.0127   5924895.5523   -855929.2125   6  10   0.0040   0.0052   0.0017  -0.0022  -0.0017   0.0011   0.00    0.0
2017/01/10 00:04:30.000  -2200208.0128   5924895.5524   -855929.2125   6  10   0.0040   0.0052   0.0017  -0.0022  -0.0017   0.0011   0.00    0.0
2017/01/10 00:05:00.000  -2200208.0128   5924895.5525   -855929.2125   6  10   0.0040   0.0052   0.0017  -0.0022  -0.0017   0.0011   0.00    0.0
2017/01/10 00:05:30.000  -2200208.0128   5924895.5526   -855929.2125   6  10   0.0040   0.0052   0.0017  -0.0022  -0.0017   0.0011   0.00    0.0
2017/01/10 00:06:00.000  -2200208.0128   5924895.5526   -855929.2125   6  10   0.0040   0.0052   0.0017  -0.0022  -0.0017   0.0011   0.00    0.0
2017/01/10 00:06:30.000  -2200208.0128   5924895.5526   -855929.2125   6  10   0.0040   0.0052   0.0017  -0.0022  -0.0017   0.0011   0.00    0.0
2017/01/10 00:07:00.000  -2200208.0127   5924895.5526   -855929.2124   6  10   0.0040   0.0052   0.0017  -0.0022  -0.0017   0.0011   0.00    0.0
2017/01/10 00:07:30.000  -2200208.0127   5924895.5525   -855929.2124   6  10   0.0040   0.0052   0.0017  -0.0022  -0.0017   0.0011   0.00    0.0
2017/01/10 00:08:00.000  -2200208.0126   5924895.5525   -855929.2124   6  10   0.0040   0.0052   0.0017  -0.0022  -0.0017   0.0011   0.00    0.0
2017/01/10 00:08:30.000  -2200208.0126   5924895.5525   -855929.2124   6  10   0.0040   0.0052   0.0017  -0.0022  -0.0017   0.0011   0.00    0.0
2017/01/10 00:09:00.000  -2200208.0126   5924895.5525   -855929.2124   6  10   0.0040   0.0052   0.0017  -0.0022  -0.0017   0.0011   0.00    0.0
2017/01/10 00:09:30.000  -2200208.0126   5924895.5525   -855929.2124   6  10   0.0040   0.0052   0.0017  -0.0022  -0.0017   0.0011   0.00    0.0
2017/01/10 00:10:00.000  -2200208.0126   5924895.5524   -855929.2124   6  10   0.0040   0.0052   0.0017  -0.0022  -0.0017   0.0011   0.00    0.0
2017/01/10 00:10:30.000  -2200208.0126   5924895.5524   -855929.2124   6  10   0.0040   0.0052   0.0017  -0.0022  -0.0017   0.0011   0.00    0.0
2017/01/10 00:11:00.000  -2200208.0126   5924895.5525   -855929.2124   6  10   0.0040   0.0052   0.0017  -0.0022  -0.0017   0.0011   0.00    0.0
2017/01/10 00:11:30.000  -2200208.0126   5924895.5526   -855929.2124   6  10   0.0040   0.0052   0.0017  -0.0022  -0.0017   0.0011   0.00    0.0
2017/01/10 00:12:00.000  -2200208.0126   5924895.5526   -855929.2124   6  10   0.0040   0.0052   0.0017  -0.0022  -0.0017   0.0011   0.00    0.0
2017/01/10 00:12:30.000  -2200208.0126   5924895.5526   -855929.2124   6  10   0.0040   0.0052   0.0017  -0.0022  -0.0017   0.0011   0.00    0.0
2017/01/10 00:13:00.000  -2200208.0125   5924895.5525   -855929.2123   6  10   0.0040   0.0052   0.0017  -0.0022  -0.0017   0.0011   0.00    0.0
2017/01/10 00:13:30.000  -2200208.0125   5924895.5525   -855929.2123   6  10   0.0040   0.0052   0.0017  -0.0022  -0.0017   0.0011   0.00    0.0
2017/01/10 00:14:00.000  -2200208.0124   5924895.5524   -855929.2123   6  10   0.0040   0.0052   0.0017  -0.0022  -0.0017   0.0011   0.00    0.0
2017/01/10 00:14:30.000  -2200208.0124   5924895.5523   -855929.2123   6  10   0.0040   0.0052   0.0017  -0.0022  -0.0017   0.0011   0.00    0.0
2017/01/10 00:15:00.000  -2200208.0122   5924895.5522   -855929.2123   6  10   0.0040   0.0052   0.0017  -0.0022  -0.0017   0.0011   0.00    0.0
2017/01/10 00:15:30.000  -2200208.0122   5924895.5522   -855929.2123   6  10   0.0040   0.0052   0.0017  -0.0022  -0.0017   0.0011   0.00    0.0
2017/01/10 00:16:00.000  -2200208.0122   5924895.5521   -855929.2123   6  10   0.0040   0.0052   0.0017  -0.0022  -0.0017   0.0011   0.00    0.0
2017/01/10 00:16:30.000  -2200208.0121   5924895.5521   -855929.2123   6  10   0.0040   0.0052   0.0017  -0.0022  -0.0017   0.0011   0.00    0.0
2017/01/10 00:17:00.000  -2200208.0121   5924895.5521   -855929.2123   6  10   0.0040   0.0052   0.0017  -0.0022  -0.0017   0.0011   0.00    0.0
2017/01/10 00:17:30.000  -2200208.0120   5924895.5520   -855929.2122   6  10   0.0040   0.0052   0.0017  -0.0022  -0.0017   0.0011   0.00    0.0
2017/01/10 00:18:00.000  -2200208.0120   5924895.5521   -855929.2122   6  10   0.0040   0.0052   0.0017  -0.0022  -0.0017   0.0011   0.00    0.0
2017/01/10 00:18:30.000  -2200208.0120   5924895.5521   -855929.2122   6  10   0.0040   0.0052   0.0017  -0.0022  -0.0017   0.0011   0.00    0.0
2017/01/10 00:19:00.000  -2200208.0120   5924895.5521   -855929.2122   6  10   0.0040   0.0052   0.0017  -0.0022  -0.0017   0.0011   0.00    0.0
2017/01/10 00:19:30.000  -2200208.0119   5924895.5521   -855929.2123   6  10   0.0040   0.0052   0.0017  -0.0022  -0.0017   0.0011   0.00    0.0
2017/01/10 00:20:00.000  -2200208.0119   5924895.5521   -855929.2123   6  10   0.0040   0.0052   0.0017  -0.0022  -0.0017   0.0011   0.00    0.0
2017/01/10 00:20:30.000  -2200208.0119   5924895.5521   -855929.2123   6  10   0.0040   0.0052   0.0017  -0.0022  -0.0017   0.0011   0.00    0.0
2017/01/10 00:21:00.000  -2200208.0119   5924895.5521   -855929.2122   6  10   0.0040   0.0052   0.0017  -0.0022  -0.0017   0.0011   0.00    0.0
2017/01/10 00:21:30.000  -2200208.0118   5924895.5521   -855929.2122   6  10   0.0040   0.0052   0.0017  -0.0022  -0.0017   0.0011   0.00    0.0
2017/01/10 00:22:00.000  -2200208.0118   5924895.5521   -855929.2122   6  10   0.0040   0.0052   0.0017  -0.0022  -0.0017   0.0011   0.00    0.0
2017/01/10 00:22:30.000  -2200208.0118   5924895.5521   -855929.2122   6  10   0.0040   0.0052   0.0017  -0.0022  -0.0017   0.0011   0.00    0.0
2017/01/10 00:23:00.000  -2200208.0118   5924895.5521   -855929.2122   6  10   0.0040   0.0052   0.0017  -0.0022  -0.0017   0.0011   0.00    0.0
2017/01/10 00:23:30.000  -2200208.0118   5924895.5520   -855929.2123   6  10   0.0040   0.0052   0.0017  -0.0022  -0.0017   0.0011   0.00    0.0
2017/01/10 00:24:00.000  -2200208.0117   5924895.5520   -855929.2123   6  10   0.0040   0.0052   0.0017  -0.0022  -0.0017   0.0011   0.00    0.0
2017/01/10 00:24:30.000  -2200208.0117   5924895.5519   -855929.2122   6  10   0.0040   0.0052   0.0017  -0.0022  -0.0017   0.0011   0.00    0.0
2017/01/10 00:25:00.000  -2200208.0116   5924895.5519   -855929.2122   6  10   0.0040   0.0052   0.0017  -0.0022  -0.0017   0.0011   0.00    0.0
2017/01/10 00:25:30.000  -2200208.0116   5924895.5518   -855929.2122   6  10   0.0040   0.0052   0.0017  -0.0022  -0.0017   0.0011   0.00    0.0
2017/01/10 00:26:00.000  -2200208.0115   5924895.5518   -855929.2122   6  10   0.0040   0.0052   0.0017  -0.0022  -0.0017   0.0011   0.00    0.0
2017/01/10 00:26:30.000  -2200208.0115   5924895.5518   -855929.2122   6  10   0.0040   0.0052   0.0017  -0.0022  -0.0017   0.0011   0.00    0.0
2017/01/10 00:27:00.000  -2200208.0115   5924895.5518   -855929.2122   6  10   0.0040   0.0052   0.0017  -0.0022  -0.0017   0.0011   0.00    0.0
2017/01/10 00:27:30.000  -2200208.0115   5924895.5518   -855929.2122   6  10   0.0040   0.0052   0.0017  -0.0022  -0.0017   0.0011   0.00    0.0
2017/01/10 00:28:00.000  -2200208.0114   5924895.5518   -855929.2123   6  10   0.0040   0.0052   0.0017  -0.0022  -0.0017   0.0011   0.00    0.0
2017/01/10 00:28:30.000  -2200208.0114   5924895.5518   -855929.2123   6  10   0.0040   0.0052   0.0017  -0.0022  -0.0017   0.0011   0.00    0.0
2017/01/10 00:29:00.000  -2200208.0114   5924895.5517   -855929.2123   6  10   0.0040   0.0052   0.0017  -0.0022  -0.0017   0.0011   0.00    0.0
2017/01/10 00:29:30.000  -2200208.0114   5924895.5517   -855929.2123   6  10   0.0040   0.0052   0.0017  -0.0022  -0.0017   0.0011   0.00    0.0
2017/01/10 00:30:00.000  -2200208.0113   5924895.5517   -855929.2123   6  10   0.0040   0.0052   0.0017  -0.0022  -0.0017   0.0011   0.00    0.0
2017/01/10 00:30:30.000  -2200208.0113   5924895.5518   -855929.2123   6  10   0.0040   0.0052   0.0017  -0.0022  -0.0017   0.0011   0.00    0.0
2017/01/10 00:31:00.000  -2200208.0113   5924895.5518   -855929.2123   6  10   0.0040   0.0052   0.0017  -0.0022  -0.0017   0.0011   0.00    0.0
2017/01/10 00:31:30.000  -2200208.0113   5924895.5518   -855929.2123   6  10   0.0040   0.0052   0.0017  -0.0022  -0.0017   0.0011   0.00    0.0
2017/01/10 00:32:00.000  -2200208.0113   5924895.5519   -855929.2123   6  10   0.0040   0.0052   0.0017  -0.0022  -0.0017   0.0011   0.00    0.0
2017/01/10 00:32:30.000  -2200208.0112   5924895.5518   -855929.2123   6  10   0.0040   0.0052   0.0017  -0.0022  -0.0017   0.0011   0.00    0.0
2017/01/10 00:33:00.000  -2200208.0112   5924895.5518   -855929.2122   6  10   0.0040   0.0052   0.0017  -0.0022  -0.0017   0.0011   0.00    0.0
2017/01/10 00:33:30.000  -2200208.0112   5924895.5518   -855929.2122   6  10   0.0040   0.0052   0.0017  -0.0022  -0.0017   0.0011   0.00    0.0
2017/01/10 00:34:00.000  -2200208.0111   5924895.5518   -855929.2122   6  10   0.0040   0.0052   0.0017  -0.0022  -0.0017   0.0011   0.00    0.0
2017/01/10 00:34:30.000  -2200208.0111   5924895.5518   -855929.2122   6  10   0.0040   0.0052   0.0017  -0.0022  -0.0017   0.0011   0.00    0.0
2017/01/10 00:35:00.000  -2200208.0110   5924895.5518   -855929.2122   6  10   0.0040   0.0052   0.0017  -0.0022  -0.0017   0.0011   0.00    0.0
2017/01/10 00:35:30.000  -2200208.0109   5924895.5518   -855929.2122   6  10   0.0040   0.0052   0.0017  -0.0022  -0.0017   0.0011   0.00    0.0
2017/01/10 00:36:00.000  -2200208.0109   5924895.5518   -855929.2122   6  10   0.0040   0.0052   0.0017  -0.0022  -0.0017   0.0011   0.00    0.0
2017/01/10 00:36:30.000  -2200208.0109   5924895.5518   -855929.2122   6  10   0.0040   0.0052   0.0017  -0.0022  -0.0017   0.0011   0.00    0.0
2017/01/10 00:37:00.000  -2200208.0108   5924895.5518   -855929.2122   6  10   0.0040   0.0052   0.0017  -0.0022  -0.0017   0.0011   0.00    0.0
2017/01/10 00:37:30.000  -2200208.0109   5924895.5518   -855929.2122   6  10   0.0040   0.0052   0.0017  -0.0022  -0.0017   0.0011   0.00    0.0
2017/01/10 00:38:00.000  -2200208.0108   5924895.5518   -855929.2122   6  10   0.0040   0.0052   0.0017  -0.0022  -0.0017   0.0011   0.00    0.0
2017/01/10 00:38:30.000  -2200208.0108   5924895.5518   -855929.2122   6  10   0.0040   0.0052   0.0017  -0.0022  -0.0017   0.0011   0.00    0.0
2017/01/10 00:39:00.000  -2200208.0108   5924895.5518   -855929.2122   6  10   0.0040   0.0052   0.0017  -0.0022  -0.0017   0.0011   0.00    0.0
2017/01/10 00:39:30.000  -2200208.0107   5924895.5518   -855929.2122   6  10   0.0040   0.0052   0.0017  -0.0022  -0.0017   0.0011   0.00    0.0
2017/01/10 00:40:00.000  -2200208.0108   5924895.5518   -855929.2121   6   9   0.0040   0.0052   0.0017  -0.0022  -0.0017   0.0011   0.00    0.0
2017/01/10 00:40:30.000  -2200208.0108   5924895.5518   -855929.2121   6   9   0.0040   0.0052   0.0017  -0.0022  -0.0017   0.0011   0.00    0.0
2017/01/10 00:41:00.000  -2200208.0108   5924895.5519   -855929.2121   6   9   0.0040   0.0052   0.0017  -0.0022  -0.0017   0.0011   0.00    0.0
2017/01/10 00:41:30.000  -2200208.0108   5924895.5519   -855929.2121   6   9   0.0040   0.0052   0.0017  -0.0022  -0.0017   0.0011   0.00    0.0
2017/01/10 00:42:00.000  -2200208.0109   5924895.5519   -855929.2121   6   9   0.0040   0.0052   0.0017  -0.0022  -0.0017   0.0011   0.00    0.0
2017/01/10 00:42:30.000  -2200208.0109   5924895.5519   -855929.2121   6   9   0.0040   0.0052   0.0017  -0.0022  -0.0017   0.0011   0.00    0.0
2017/01/10 00:43:00.000  -2200208.0108   5924895.5520   -855929.2121   6   9   0.0040   0.0052   0.0017  -0.0022  -0.0017   0.0011   0.00    0.0
2017/01/10 00:43:30.000  -2200208.0107   5924895.5520   -855929.2121   6   9   0.0040   0.0052   0.0017  -0.0022  -0.0017   0.0011   0.00    0.0
2017/01/10 00:44:00.000  -2200208.0107   5924895.5520   -855929.2121   6   9   0.0040   0.0052   0.0017  -0.0022  -0.0017   0.0011   0.00    0.0
2017/01/10 00:44:30.000  -2200208.0107   5924895.5520   -855929.2121   6   8   0.0040   0.0052   0.0017  -0.0022  -0.0017   0.0011   0.00    0.0
2017/01/10 00:45:00.000  -2200208.0106   5924895.5520   -855929.2121   6   8   0.0040   0.0052   0.0017  -0.0022  -0.0017   0.0011   0.00    0.0
2017/01/10 00:45:30.000  -2200208.0106   5924895.5520   -855929.2121   6   8   0.0040   0.0052   0.0017  -0.0022  -0.0017   0.0011   0.00    0.0
2017/01/10 00:46:00.000  -2200208.0106   5924895.5520   -855929.2121   6   8   0.0040   0.0052   0.0017  -0.0022  -0.0017   0.0011   0.00    0.0
2017/01/10 00:46:30.000  -2200208.0106   5924895.5521   -855929.2121   6   8   0.0040   0.0052   0.0017  -0.0022  -0.0017   0.0011   0.00    0.0
2017/01/10 00:47:00.000  -2200208.0106   5924895.5521   -855929.2121   6   8   0.0040   0.0052   0.0017  -0.0022  -0.0017   0.0011   0.00    0.0
2017/01/10 00:47:30.000  -2200208.0106   5924895.5521   -855929.2121   6   8   0.0040   0.0052   0.0017  -0.0022  -0.0017   0.0011   0.00    0.0
2017/01/10 00:48:00.000  -2200208.0106   5924895.5521   -855929.2121   6   8   0.0040   0.0052   0.0017  -0.0022  -0.0017   0.0011   0.00    0.0
2017/01/10 00:48:30.000  -2200208.0106   5924895.5521   -855929.2121   6   8   0.0040   0.0052   0.0017  -0.0022  -0.0017   0.0011   0.00    0.0
2017/01/10 00:49:00.000  -2200208.0106   5924895.5520   -855929.2121   6   8   0.0040   0.0052   0.0017  -0.0022  -0.0017   0.0011   0.00    0.0
2017/01/10 00:49:30.000  -2200208.0106   5924895.5520   -855929.2121   6   8   0.0040   0.0052   0.0017  -0.0022  -0.0017   0.0011   0.00    0.0
2017/01/10 00:50:00.000  -2200208.0106   5924895.5519   -855929.2121   6   8   0.0040   0.0052   0.0017  -0.0022  -0.0017   0.0011   0.00    0.0
2017/01/10 00:50:30.000  -2200208.0106   5924895.5519   -855929.2121   6   8   0.0040   0.0052   0.0017  -0.0022  -0.0017   0.0011   0.00    0.0
2017/01/10 00:51:00.000  -2200208.0106   5924895.5519   -855929.2121   6   8   0.0040   0.0052   0.0017  -0.0022  -0.0017   0.0011   0.00    0.0
2017/01/10 00:51:30.000  -2200208.0106   5924895.5519   -855929.2121   6   8   0.0040   0.0052   0.0017  -0.0022  -0.0017   0.0011   0.00    0.0
2017/01/10 00:52:00.000  -2200208.0105   5924895.5519   -855929.2121   6   8   0.0040   0.0052   0.0017  -0.0022  -0.0017   0.0011   0.00    0.0
2017/01/10 00:52:30.000  -2200208.0105   5924895.5519   -855929.2121   6   8   0.0040   0.0052   0.0017  -0.0022  -0.0017   0.0011   0.00    0.0
2017/01/10 00:53:00.000  -2200208.0104   5924895.5520   -855929.2121   6   8   0.0040   0.0052   0.0017  -0.0022  -0.0017   0.0011   0.00    0.0
2017/01/10 00:53:30.000  -2200208.0104   5924895.5520   -855929.2121   6   8   0.0040   0.0052   0.0017  -0.0022  -0.0017   0.0011   0.00    0.0
2017/01/10 00:54:00.000  -2200208.0103   5924895.5521   -855929.2121   6   8   0.0040   0.0052   0.0017  -0.0022  -0.0017   0.0011   0.00    0.0
2017/01/10 00:54:30.000  -2200208.0103   5924895.5520   -855929.2121   6   8   0.0040   0.0052   0.0017  -0.0022  -0.0017   0.0011   0.00    0.0
2017/01/10 00:55:00.000  -2200208.0102   5924895.5521   -855929.2121   6   8   0.0040   0.0052   0.0017  -0.0022  -0.0017   0.0011   0.00    0.0
2017/01/10 00:55:30.000  -2200208.0102   5924895.5521   -855929.2121   6   8   0.0040   0.0052   0.0017  -0.0022  -0.0017   0.0011   0.00    0.0
2017/01/10 00:56:00.000  -2200208.0101   5924895.5521   -855929.2121   6   8   0.0040   0.0052   0.0017  -0.0022  -0.0017   0.0011   0.00    0.0
2017/01/10 00:56:30.000  -2200208.0101   5924895.5521   -855929.2121   6   9   0.0040   0.0052   0.0017  -0.0022  -0.0017   0.0011   0.00    0.0
2017/01/10 00:57:00.000  -2200208.0100   5924895.5521   -855929.2121   6   9   0.0040   0.0052   0.0017  -0.0022  -0.0017   0.0011   0.00    0.0
2017/01/10 00:57:30.000  -2200208.0100   5924895.5521   -855929.2121   6   9   0.0040   0.0052   0.0017  -0.0022  -0.0017   0.0011   0.00    0.0
2017/01/10 00:58:00.000  -2200208.0100   5924895.5520   -855929.2121   6   9   0.0040   0.0052   0.0017  -0.0022  -0.0017   0.0011   0.00    0.0
2017/01/10 00:58:30.000  -2200208.0100   5924895.5520   -855929.2121   6  10   0.0040   0.0052   0.0017  -0.0022  -0.0017   0.0011   0.00    0.0
2017/01/10 00:59:00.000  -2200208.0099   5924895.5519   -855929.2120   6  10   0.0040   0.0052   0.0017  -0.0022  -0.0017   0.0011   0.00    0.0
2017/01/10 00:59:30.000  -2200208.0098   5924895.5519   -855929.2120   6  10   0.0040   0.0052   0.0017  -0.0022  -0.0017   0.0011   0.00    0.0
2017/01/10 01:00:00.000  -2200208.0098   5924895.5519   -855929.2120   6  10   0.0040   0.0052   0.0017  -0.0022  -0.0017   0.0011   0.00    0.0
2017/01/10 01:00:30.000  -2200208.0097   5924895.5519   -855929.2120   6  10   0.0040   0.0052   0.0017  -0.0022  -0.0017   0.0011   0.00    0.0
2017/01/10 01:01:00.000  -2200208.0097   5924895.5519   -855929.2120   6  10   0.0040   0.0052   0.0017  -0.0022  -0.0017   0.0011   0.00    0.0
2017/01/10 01:01:30.000  -2200208.0096   5924895.5519   -855929.2120   6  10   0.0040   0.0052   0.0017  -0.0022  -0.0017   0.0012   0.00    0.0
2017/01/10 01:02:00.000  -2200208.0096   5924895.5518   -855929.2120   6  10   0.0040   0.0052   0.0017  -0.0022  -0.0017   0.0012   0.00    0.0
2017/01/10 01:02:30.000  -2200208.0096   5924895.5518   -855929.2120   6  10   0.0041   0.0052   0.0017  -0.0022  -0.0017   0.0012   0.00    0.0
2017/01/10 01:03:00.000  -2200208.0096   5924895.5518   -855929.2120   6  10   0.0041   0.0052   0.0017  -0.0022  -0.0017   0.0012   0.00    0.0
2017/01/10 01:03:30.000  -2200208.0097   5924895.5518   -855929.2120   6  10   0.0041   0.0052   0.0017  -0.0022  -0.0017   0.0012   0.00    0.0
2017/01/10 01:04:00.000  -2200208.0098   5924895.5518   -855929.2120   6  10   0.0041   0.0052   0.0017  -0.0022  -0.0017   0.0012   0.00    0.0
2017/01/10 01:04:30.000  -2200208.0098   5924895.5518   -855929.2120   6  10   0.0041   0.0052   0.0017  -0.0022  -0.0017   0.0012   0.00    0.0
2017/01/10 01:05:00.000  -2200208.0097   5924895.5518   -855929.2120   6  10   0.0041   0.0052   0.0017  -0.0022  -0.0017   0.0012   0.00    0.0
2017/01/10 01:05:30.000  -2200208.0097   5924895.5518   -855929.2120   6  10   0.0041   0.0052   0.0017  -0.0022  -0.0017   0.0012   0.00    0.0
2017/01/10 01:06:00.000  -2200208.0096   5924895.5518   -855929.2120   6  10   0.0041   0.0052   0.0017  -0.0022  -0.0017   0.0012   0.00    0.0
2017/01/10 01:06:30.000  -2200208.0095   5924895.5518   -855929.2120   6  10   0.0041   0.0052   0.0017  -0.0022  -0.0017   0.0012   0.00    0.0
2017/01/10 01:07:00.000  -2200208.0094   5924895.5518   -855929.2119   6  10   0.0041   0.0052   0.0017  -0.0022  -0.0017   0.0012   0.00    0.0
2017/01/10 01:07:30.000  -2200208.0093   5924895.5518   -855929.2119   6  10   0.0041   0.0052   0.0017  -0.0022  -0.0017   0.0012   0.00    0.0
2017/01/10 01:08:00.000  -2200208.0092   5924895.5518   -855929.2119   6  10   0.0041   0.0052   0.0017  -0.0022  -0.0017   0.0012   0.00    0.0
2017/01/10 01:08:30.000  -2200208.0092   5924895.5518   -855929.2119   6  10   0.0041   0.0052   0.0017  -0.0022  -0.0017   0.0012   0.00    0.0
2017/01/10 01:09:00.000  -2200208.0092   5924895.5517   -855929.2120   6  10   0.0041   0.0052   0.0017  -0.0022  -0.0017   0.0012   0.00    0.0
2017/01/10 01:09:30.000  -2200208.0092   5924895.5516   -855929.2120   6  10   0.0041   0.0052   0.0017  -0.0022  -0.0017   0.0012   0.00    0.0
2017/01/10 01:10:00.000  -2200208.0093   5924895.5515   -855929.2120   6  10   0.0041   0.0052   0.0017  -0.0022  -0.0017   0.0012   0.00    0.0
2017/01/10 01:10:30.000  -2200208.0092   5924895.5514   -855929.2120   6  10   0.0041   0.0052   0.0017  -0.0022  -0.0017   0.0012   0.00    0.0
2017/01/10 01:11:00.000  -2200208.0092   5924895.5514   -855929.2120   6  10   0.0041   0.0052   0.0017  -0.0022  -0.0017   0.0012   0.00    0.0
2017/01/10 01:11:30.000  -2200208.0091   5924895.5514   -855929.2120   6  10   0.0041   0.0052   0.0017  -0.0022  -0.0017   0.0012   0.00    0.0
2017/01/10 01:12:00.000  -2200208.0090   5924895.5513   -855929.2120   6  10   0.0041   0.0052   0.0017  -0.0022  -0.0017   0.0012   0.00    0.0
2017/01/10 01:12:30.000  -2200208.0088   5924895.5514   -855929.2119   6  10   0.0041   0.0052   0.0017  -0.0022  -0.0017   0.0012   0.00    0.0
2017/01/10 01:13:00.000  -2200208.0087   5924895.5514   -855929.2119   6  10   0.0041   0.0052   0.0017  -0.0022  -0.0017   0.0012   0.00    0.0
2017/01/10 01:13:30.000  -2200208.0086   5924895.5514   -855929.2119   6  10   0.0041   0.0052   0.0017  -0.0022  -0.0017   0.0012   0.00    0.0
2017/01/10 01:14:00.000  -2200208.0086   5924895.5514   -855929.2120   6  10   0.0041   0.0052   0.0017  -0.0022  -0.0017   0.0012   0.00    0.0
2017/01/10 01:14:30.000  -2200208.0087   5924895.5514   -855929.2120   6  10   0.0041   0.0052   0.0017  -0.0022  -0.0017   0.0012   0.00    0.0
2017/01/10 01:15:00.000  -2200208.0088   5924895.5514   -855929.2120   6  10   0.0041   0.0052   0.0017  -0.0022  -0.0017   0.0012   0.00    0.0
2017/01/10 01:15:30.000  -2200208.0089   5924895.5514   -855929.2121   6  10   0.0041   0.0052   0.0017  -0.0022  -0.0017   0.0012   0.00    0.0
2017/01/10 01:16:00.000  -2200208.0089   5924895.5514   -855929.2121   6  10   0.0041   0.0052   0.0017  -0.0022  -0.0017   0.0012   0.00    0.0
2017/01/10 01:16:30.000  -2200208.0089   5924895.5515   -855929.2121   6  10   0.0041   0.0052   0.0017  -0.0022  -0.0017   0.0012   0.00    0.0
2017/01/10 01:17:00.000  -2200208.0089   5924895.5515   -855929.2121   6  10   0.0041   0.0052   0.0017  -0.0022  -0.0017   0.0012   0.00    0.0
2017/01/10 01:17:30.000  -2200208.0089   5924895.5515   -855929.2121   6  10   0.0041   0.0052   0.0017  -0.0022  -0.0017   0.0012   0.00    0.0
2017/01/10 01:18:00.000  -2200208.0088   5924895.5516   -855929.2121   6  10   0.0041   0.0052   0.0017  -0.0022  -0.0017   0.0012   0.00    0.0
2017/01/10 01:18:30.000  -2200208.0087   5924895.5516   -855929.2121   6  10   0.0041   0.0052   0.0017  -0.0022  -0.0017   0.0012   0.00    0.0
2017/01/10 01:19:00.000  -2200208.0086   5924895.5516   -855929.2121   6  10   0.0041   0.0052   0.0017  -0.0022  -0.0017   0.0012   0.00    0.0
2017/01/10 01:19:30.000  -2200208.0086   5924895.5516   -855929.2121   6  10   0.0041   0.0052   0.0017  -0.0022  -0.0017   0.0012   0.00    0.0
2017/01/10 01:20:00.000  -2200208.0085   5924895.5517   -855929.2121   6  10   0.0041   0.0052   0.0017  -0.0022  -0.0017   0.0012   0.00    0.0
2017/01/10 01:20:30.000  -2200208.0085   5924895.5517   -855929.2121   6  10   0.0041   0.0052   0.0017  -0.0022  -0.0017   0.0012   0.00    0.0
2017/01/10 01:21:00.000  -2200208.0085   5924895.5517   -855929.2121   6  10   0.0041   0.0052   0.0017  -0.0022  -0.0017   0.0012   0.00    0.0
2017/01/10 01:21:30.000  -2200208.0085   5924895.5517   -855929.2121   6   9   0.0041   0.0052   0.0017  -0.0022  -0.0017   0.0012   0.00    0.0
2017/01/10 01:22:00.000  -2200208.0084   5924895.5518   -855929.2121   6   9   0.0041   0.0052   0.0017  -0.0022  -0.0017   0.0012   0.00    0.0
2017/01/10 01:22:30.000  -2200208.0084   5924895.5519   -855929.2121   6   9   0.0041   0.0052   0.0017  -0.0022  -0.0017   0.0012   0.00    0.0
2017/01/10 01:23:00.000  -2200208.0083   5924895.5519   -855929.2121   6   9   0.0041   0.0052   0.0017  -0.0022  -0.0017   0.0012   0.00    0.0
2017/01/10 01:23:30.000  -2200208.0084   5924895.5519   -855929.2121   6   9   0.0041   0.0052   0.0017  -0.0022  -0.0017   0.0012   0.00    0.0
2017/01/10 01:24:00.000  -2200208.0084   5924895.5519   -855929.2121   6   9   0.0041   0.0052   0.0017  -0.0022  -0.0017   0.0012   0.00    0.0
2017/01/10 01:24:30.000  -2200208.0084   5924895.5519   -855929.2122   6   9   0.0041   0.0052   0.0017  -0.0022  -0.0017   0.0012   0.00    0.0
2017/01/10 01:25:00.000  -2200208.0085   5924895.5519   -855929.2122   6   9   0.0041   0.0052   0.0017  -0.0022  -0.0017   0.0011   0.00    0.0
2017/01/10 01:25:30.000  -2200208.0085   5924895.5520   -855929.2122   6   9   0.0041   0.0052   0.0017  -0.0022  -0.0017   0.0011   0.00    0.0
2017/01/10 01:26:00.000  -2200208.0085   5924895.5520   -855929.2122   6   9   0.0041   0.0052   0.0017  -0.0022  -0.0017   0.0011   0.00    0.0
2017/01/10 01:26:30.000  -2200208.0085   5924895.5521   -855929.2122   6   9   0.0041   0.0052   0.0017  -0.0022  -0.0017   0.0011   0.00    0.0
2017/01/10 01:27:00.000  -2200208.0085   5924895.5522   -855929.2122   6   9   0.0041   0.0053   0.0017  -0.0022  -0.0017   0.0011   0.00    0.0
2017/01/10 01:27:30.000  -2200208.0085   5924895.5522   -855929.2122   6   9   0.0041   0.0053   0.0017  -0.0022  -0.0017   0.0011   0.00    0.0
2017/01/10 01:28:00.000  -2200208.0085   5924895.5523   -855929.2123   6   9   0.0041   0.0053   0.0017  -0.0022  -0.0017   0.0011   0.00    0.0
2017/01/10 01:28:30.000  -2200208.0085   5924895.5523   -855929.2123   6   9   0.0041   0.0053   0.0017  -0.0022  -0.0017   0.0011   0.00    0.0
2017/01/10 01:29:00.000  -2200208.0085   5924895.5523   -855929.2123   6   9   0.0041   0.0053   0.0017  -0.0022  -0.0017   0.0011   0.00    0.0
2017/01/10 01:29:30.000  -2200208.0086   5924895.5523   -855929.2123   6   9   0.0041   0.0053   0.0017  -0.0022  -0.0017   0.0011   0.00    0.0
2017/01/10 01:30:00.000  -2200208.0086   5924895.5523   -855929.2123   6   9   0.0041   0.0053   0.0017  -0.0022  -0.0017   0.0011   0.00    0.0
2017/01/10 01:30:30.000  -2200208.0086   5924895.5522   -855929.2123   6   9   0.0041   0.0053   0.0017  -0.0022  -0.0017   0.0011   0.00    0.0
2017/01/10 01:31:00.000  -2200208.0085   5924895.5522   -855929.2123   6   9   0.0041   0.0053   0.0017  -0.0022  -0.0017   0.0011   0.00    0.0
2017/01/10 01:31:30.000  -2200208.0084   5924895.5523   -855929.2123   6   9   0.0041   0.0053   0.0017  -0.0022  -0.0017   0.0011   0.00    0.0
2017/01/10 01:32:00.000  -2200208.0083   5924895.5524   -855929.2123   6   9   0.0041   0.0053   0.0017  -0.0022  -0.0017   0.0011   0.00    0.0
2017/01/10 01:32:30.000  -2200208.0082   5924895.5524   -855929.2124   6   9   0.0041   0.0053   0.0017  -0.0022  -0.0017   0.0011   0.00    0.0
2017/01/10 01:33:00.000  -2200208.0081   5924895.5525   -855929.2124   6   9   0.0041   0.0053   0.0017  -0.0022  -0.0017   0.0011   0.00    0.0
2017/01/10 01:33:30.000  -2200208.0081   5924895.5525   -855929.2124   6   9   0.0041   0.0053   0.0017  -0.0022  -0.0017   0.0011   0.00    0.0
2017/01/10 01:34:00.000  -2200208.0080   5924895.5525   -855929.2124   6   9   0.0041   0.0053   0.0017  -0.0022  -0.0017   0.0011   0.00    0.0
2017/01/10 01:34:30.000  -2200208.0080   5924895.5524   -855929.2124   6   9   0.0041   0.0053   0.0017  -0.0022  -0.0017   0.0011   0.00    0.0
2017/01/10 01:35:00.000  -2200208.0079   5924895.5524   -855929.2124   6   9   0.0041   0.0053   0.0017  -0.0022  -0.0017   0.0011   0.00    0.0
2017/01/10 01:35:30.000  -2200208.0078   5924895.5524   -855929.2124   6   9   0.0041   0.0053   0.0017  -0.0022  -0.0017   0.0011   0.00    0.0
2017/01/10 01:36:00.000  -2200208.0078   5924895.5524   -855929.2124   6   9   0.0041   0.0053   0.0017  -0.0022  -0.0017   0.0011   0.00    0.0
2017/01/10 01:36:30.000  -2200208.0077   5924895.5523   -855929.2124   6   9   0.0041   0.0053   0.0017  -0.0022  -0.0017   0.0011   0.00    0.0
2017/01/10 01:37:00.000  -2200208.0077   5924895.5523   -855929.2124   6   9   0.0041   0.0053   0.0017  -0.0022  -0.0017   0.0011   0.00    0.0
2017/01/10 01:37:30.000  -2200208.0076   5924895.5523   -855929.2124   6   9   0.0041   0.0053   0.0017  -0.0022  -0.0017   0.0011   0.00    0.0
2017/01/10 01:38:00.000  -2200208.0076   5924895.5524   -855929.2124   6   9   0.0041   0.0053   0.0017  -0.0022  -0.0017   0.0011   0.00    0.0
2017/01/10 01:38:30.000  -2200208.0076   5924895.5524   -855929.2124   6   9   0.0041   0.0053   0.0017  -0.0022  -0.0017   0.0011   0.00    0.0
2017/01/10 01:39:00.000  -2200208.0076   5924895.5525   -855929.2125   6   9   0.0041   0.0053   0.0017  -0.0022  -0.0017   0.0011   0.00    0.0
2017/01/10 01:39:30.000  -2200208.0075   5924895.5525   -855929.2124   6   9   0.0041   0.0053   0.0017  -0.0022  -0.0017   0.0011   0.00    0.0
2017/01/10 01:40:00.000  -2200208.0075   5924895.5524   -855929.2124   6   9   0.0041   0.0053   0.0017  -0.0022  -0.0017   0.0011   0.00    0.0
2017/01/10 01:40:30.000  -2200208.0075   5924895.5524   -855929.2124   6   9   0.0041   0.0053   0.0017  -0.0022  -0.0017   0.0011   0.00    0.0
2017/01/10 01:41:00.000  -2200208.0075   5924895.5525   -855929.2125   6   9   0.0041   0.0053   0.0017  -0.0022  -0.0017   0.0011   0.00    0.0
2017/01/10 01:41:30.000  -2200208.0075   5924895.5526   -855929.2125   6   9   0.0041   0.0053   0.0017  -0.0022  -0.0017   0.0011   0.00    0.0
2017/01/10 01:42:00.000  -2200208.0075   5924895.5526   -855929.2125   6   9   0.0041   0.0053   0.0017  -0.0022  -0.0017   0.0011   0.00    0.0
2017/01/10 01:42:30.000  -2200208.0074   5924895.5527   -855929.2125   6   9   0.0041   0.0053   0.0017  -0.0022  -0.0017   0.0011   0.00    0.0
2017/01/10 01:43:00.000  -2200208.0075   5924895.5528   -855929.2125   6   9   0.0041   0.0053   0.0017  -0.0022  -0.0017   0.0011   0.00    0.0
2017/01/10 01:43:30.000  -2200208.0074   5924895.5529   -855929.2125   6   9   0.0041   0.0053   0.0017  -0.0022  -0.0017   0.0011   0.00    0.0
2017/01/10 01:44:00.000  -2200208.0074   5924895.5529   -855929.2125   6   9   0.0041   0.0053   0.0017  -0.0022  -0.0017   0.0011   0.00    0.0
2017/01/10 01:44:30.000  -2200208.0074   5924895.5530   -855929.2125   6   9   0.0041   0.0053   0.0017  -0.0022  -0.0017   0.0011   0.00    0.0
2017/01/10 01:45:00.000  -2200208.0075   5924895.5531   -855929.2125   6   9   0.0041   0.0053   0.0017  -0.0022  -0.0017   0.0011   0.00    0.0
2017/01/10 01:45:30.000  -2200208.0074   5924895.5531   -855929.2125   6   9   0.0041   0.0053   0.0017  -0.0022  -0.0017   0.0011   0.00    0.0
2017/01/10 01:46:00.000  -2200208.0074   5924895.5532   -855929.2125   6   9   0.0041   0.0053   0.0017  -0.0022  -0.0017   0.0011   0.00    0.0
2017/01/10 01:46:30.000  -2200208.0074   5924895.5532   -855929.2125   6   9   0.0041   0.0053   0.0017  -0.0022  -0.0017   0.0011   0.00    0.0
2017/01/10 01:47:00.000  -2200208.0075   5924895.5533   -855929.2125   6   9   0.0041   0.0053   0.0017  -0.0022  -0.0017   0.0011   0.00    0.0
2017/01/10 01:47:30.000  -2200208.0074   5924895.5534   -855929.2125   6   9   0.0041   0.0053   0.0017  -0.0022  -0.0017   0.0011   0.00    0.0
2017/01/10 01:48:00.000  -2200208.0074   5924895.5534   -855929.2125   6   9   0.0041   0.0053   0.0017  -0.0022  -0.0017   0.0011   0.00    0.0
2017/01/10 01:48:30.000  -2200208.0074   5924895.5534   -855929.2125   6   9   0.0041   0.0053   0.0017  -0.0022  -0.0017   0.0011   0.00    0.0
2017/01/10 01:49:00.000  -2200208.0074   5924895.5534   -855929.2125   6   9   0.0041   0.0053   0.0017  -0.0021  -0.0017   0.0011   0.00    0.0
2017/01/10 01:49:30.000  -2200208.0074   5924895.5533   -855929.2125   6   9   0.0041   0.0053   0.0017  -0.0021  -0.0017   0.0011   0.00    0.0
2017/01/10 01:50:00.000  -2200208.0073   5924895.5532   -855929.2124   6   9   0.0041   0.0053   0.0017  -0.0021  -0.0017   0.0011   0.00    0.0
2017/01/10 01:50:30.000  -2200208.0073   5924895.5532   -855929.2124   6   9   0.0041   0.0053   0.0017  -0.0021  -0.0017   0.0011   0.00    0.0
2017/01/10 01:51:00.000  -2200208.0073   5924895.5531   -855929.2124   6   9   0.0041   0.0053   0.0017  -0.0021  -0.0017   0.0011   0.00    0.0
2017/01/10 01:51:30.000  -2200208.0072   5924895.5531   -855929.2125   6   9   0.0041   0.0053   0.0017  -0.0021  -0.0017   0.0011   0.00    0.0
2017/01/10 01:52:00.000  -2200208.0072   5924895.5532   -855929.2125   6   9   0.0041   0.0053   0.0017  -0.0021  -0.0017   0.0011   0.00    0.0
2017/01/10 01:52:30.000  -2200208.0071   5924895.5533   -855929.2125   6   9   0.0041   0.0053   0.0017  -0.0021  -0.0017   0.0011   0.00    0.0
2017/01/10 01:53:00.000  -2200208.0070   5924895.5534   -855929.2125   6   9   0.0041   0.0053   0.0017  -0.0021  -0.0017   0.0011   0.00    0.0
2017/01/10 01:53:30.000  -2200208.0070   5924895.5535   -855929.2125   6   9   0.0041   0.0053   0.0017  -0.0021  -0.0017   0.0011   0.00    0.0
2017/01/10 01:54:00.000  -2200208.0070   5924895.5536   -855929.2125   6   9   0.0041   0.0053   0.0017  -0.0021  -0.0017   0.0011   0.00    0.0
2017/01/10 01:54:30.000  -2200208.0070   5924895.5537   -855929.2125   6   9   0.0041   0.0053   0.0017  -0.0021  -0.0017   0.0011   0.00    0.0
2017/01/10 01:55:00.000  -2200208.0069   5924895.5538   -855929.2125   6   9   0.0041   0.0053   0.0017  -0.0021  -0.0017   0.0011   0.00    0.0
2017/01/10 01:55:30.000  -2200208.0069   5924895.5540   -855929.2125   6   9   0.0041   0.0053   0.0017  -0.0021  -0.0017   0.0011   0.00    0.0
2017/01/10 01:56:00.000  -2200208.0068   5924895.5542   -855929.2126   6   9   0.0041   0.0053   0.0017  -0.0021  -0.0017   0.0011   0.00    0.0
2017/01/10 01:56:30.000  -2200208.0068   5924895.5543   -855929.2126   6   9   0.0041   0.0053   0.0017  -0.0021  -0.0017   0.0011   0.00    0.0
2017/01/10 01:57:00.000  -2200208.0069   5924895.5543   -855929.2126   6   9   0.0041   0.0053   0.0017  -0.0021  -0.0017   0.0011   0.00    0.0
2017/01/10 01:57:30.000  -2200208.0068   5924895.5542   -855929.2126   6   9   0.0041   0.0053   0.0017  -0.0021  -0.0017   0.0011   0.00    0.0
2017/01/10 01:58:00.000  -2200208.0068   5924895.5541   -855929.2126   6   9   0.0041   0.0053   0.0017  -0.0021  -0.0017   0.0011   0.00    0.0
2017/01/10 01:58:30.000  -2200208.0068   5924895.5541   -855929.2126   6   9   0.0041   0.0053   0.0017  -0.0021  -0.0017   0.0011   0.00    0.0
2017/01/10 01:59:00.000  -2200208.0068   5924895.5540   -855929.2126   6   9   0.0041   0.0053   0.0017  -0.0021  -0.0017   0.0011   0.00    0.0
2017/01/10 01:59:30.000  -2200208.0068   5924895.5540   -855929.2126   6   9   0.0041   0.0053   0.0017  -0.0021  -0.0017   0.0011   0.00    0.0
2017/01/10 02:00:00.000  -2200208.0067   5924895.5541   -855929.2126   6   9   0.0041   0.0053   0.0017  -0.0021  -0.0017   0.0011   0.00    0.0
2017/01/10 02:00:30.000  -2200208.0066   5924895.5542   -855929.2126   6   9   0.0041   0.0053   0.0017  -0.0021  -0.0017   0.0011   0.00    0.0
2017/01/10 02:01:00.000  -2200208.0066   5924895.5544   -855929.2126   6   9   0.0041   0.0053   0.0017  -0.0021  -0.0017   0.0011   0.00    0.0
2017/01/10 02:01:30.000  -2200208.0065   5924895.5545   -855929.2126   6   9   0.0041   0.0053   0.0017  -0.0021  -0.0017   0.0011   0.00    0.0
2017/01/10 02:02:00.000  -2200208.0064   5924895.5546   -855929.2126   6   9   0.0041   0.0053   0.0017  -0.0021  -0.0017   0.0011   0.00    0.0
2017/01/10 02:02:30.000  -2200208.0064   5924895.5547   -855929.2126   6   9   0.0041   0.0053   0.0017  -0.0021  -0.0017   0.0011   0.00    0.0
2017/01/10 02:03:00.000  -2200208.0063   5924895.5547   -855929.2126   6   9   0.0041   0.0053   0.0017  -0.0021  -0.0017   0.0011   0.00    0.0
2017/01/10 02:03:30.000  -2200208.0063   5924895.5547   -855929.2126   6   9   0.0041   0.0053   0.0017  -0.0021  -0.0017   0.0011   0.00    0.0
2017/01/10 02:04:00.000  -2200208.0062   5924895.5547   -855929.2126   6   9   0.0041   0.0053   0.0017  -0.0021  -0.0017   0.0011   0.00    0.0
2017/01/10 02:04:30.000  -2200208.0062   5924895.5546   -855929.2126   6   9   0.0041   0.0053   0.0017  -0.0021  -0.0017   0.0010   0.00    0.0
2017/01/10 02:05:00.000  -2200208.0061   5924895.5545   -855929.2126   6   9   0.0041   0.0053   0.0017  -0.0021  -0.0017   0.0010   0.00    0.0
2017/01/10 02:05:30.000  -2200208.0061   5924895.5545   -855929.2126   6   9   0.0041   0.0053   0.0017  -0.0021  -0.0017   0.0010   0.00    0.0
2017/01/10 02:06:00.000  -2200208.0060   5924895.5546   -855929.2126   6   9   0.0041   0.0053   0.0017  -0.0021  -0.0017   0.0010   0.00    0.0
2017/01/10 02:06:30.000  -2200208.0060   5924895.5546   -855929.2126   6   9   0.0041   0.0053   0.0017  -0.0021  -0.0017   0.0010   0.00    0.0
2017/01/10 02:07:00.000  -2200208.0060   5924895.5546   -855929.2126   6   9   0.0041   0.0053   0.0017  -0.0021  -0.0017   0.0010   0.00    0.0
2017/01/10 02:07:30.000  -2200208.0060   5924895.5547   -855929.2126   6   9   0.0041   0.0053   0.0017  -0.0021  -0.0017   0.0010   0.00    0.0
2017/01/10 02:08:00.000  -2200208.0060   5924895.5547   -855929.2126   6   9   0.0041   0.0053   0.0017  -0.0021  -0.0017   0.0010   0.00    0.0
2017/01/10 02:08:30.000  -2200208.0060   5924895.5547   -855929.2126   6   8   0.0041   0.0053   0.0017  -0.0021  -0.0017   0.0010   0.00    0.0
2017/01/10 02:09:00.000  -2200208.0060   5924895.5548   -855929.2126   6   8   0.0041   0.0053   0.0017  -0.0021  -0.0017   0.0010   0.00    0.0
2017/01/10 02:09:30.000  -2200208.0060   5924895.5548   -855929.2126   6   8   0.0041   0.0053   0.0017  -0.0021  -0.0017   0.0010   0.00    0.0
2017/01/10 02:10:00.000  -2200208.0059   5924895.5549   -855929.2126   6   8   0.0041   0.0053   0.0017  -0.0021  -0.0017   0.0010   0.00    0.0
2017/01/10 02:10:30.000  -2200208.0059   5924895.5549   -855929.2126   6   8   0.0041   0.0053   0.0017  -0.0021  -0.0017   0.0010   0.00    0.0
2017/01/10 02:11:00.000  -2200208.0058   5924895.5549   -855929.2126   6   8   0.0041   0.0053   0.0017  -0.0021  -0.0017   0.0010   0.00    0.0
2017/01/10 02:11:30.000  -2200208.0058   5924895.5549   -855929.2126   6   8   0.0041   0.0053   0.0017  -0.0021  -0.0017   0.0010   0.00    0.0
2017/01/10 02:12:00.000  -2200208.0058   5924895.5549   -855929.2126   6   8   0.0041   0.0053   0.0017  -0.0021  -0.0017   0.0010   0.00    0.0
2017/01/10 02:12:30.000  -2200208.0057   5924895.5549   -855929.2126   6   8   0.0041   0.0053   0.0017  -0.0021  -0.0017   0.0010   0.00    0.0
2017/01/10 02:13:00.000  -2200208.0056   5924895.5549   -855929.2126   6   8   0.0041   0.0053   0.0017  -0.0021  -0.0017   0.0010   0.00    0.0
2017/01/10 02:13:30.000  -2200208.0056   5924895.5550   -855929.2126   6   8   0.0041   0.0053   0.0017  -0.0021  -0.0017   0.0010   0.00    0.0
2017/01/10 02:14:00.000  -2200208.0055   5924895.5551   -855929.2126   6   8   0.0041   0.0053   0.0017  -0.0021  -0.0017   0.0010   0.00    0.0
2017/01/10 02:14:30.000  -2200208.0055   5924895.5551   -855929.2126   6   8   0.0041   0.0053   0.0017  -0.0021  -0.0017   0.0010   0.00    0.0
2017/01/10 02:15:00.000  -2200208.0055   5924895.5551   -855929.2126   6   8   0.0041   0.0053   0.0017  -0.0021  -0.0017   0.0010   0.00    0.0
2017/01/10 02:15:30.000  -2200208.0056   5924895.5551   -855929.2126   6   8   0.0041   0.0053   0.0017  -0.0021  -0.0017   0.0010   0.00    0.0
2017/01/10 02:16:00.000  -2200208.0056   5924895.5551   -855929.2126   6   8   0.0041   0.0053   0.0017  -0.0021  -0.0017   0.0010   0.00    0.0
2017/01/10 02:16:30.000  -2200208.0056   5924895.5551   -855929.2126   6   8   0.0041   0.0053   0.0017  -0.0021  -0.0017   0.0010   0.00    0.0
2017/01/10 02:17:00.000  -2200208.0056   5924895.5551   -855929.2126   6   8   0.0041   0.0053   0.0017  -0.0021  -0.0017   0.0010   0.00    0.0
2017/01/10 02:17:30.000  -2200208.0055   5924895.5551   -855929.2126   6   8   0.0041   0.0053   0.0017  -0.0021  -0.0017   0.0010   0.00    0.0
2017/01/10 02:18:00.000  -2200208.0055   5924895.5551   -855929.2126   6   8   0.0041   0.0053   0.0017  -0.0021  -0.0017   0.0010   0.00    0.0
2017/01/10 02:18:30.000  -2200208.0054   5924895.5551   -855929.2126   6   8   0.0041   0.0053   0.0017  -0.0021  -0.0017   0.0010   0.00    0.0
2017/01/10 02:19:00.000  -2200208.0054   5924895.5551   -855929.2126   6   8   0.0041   0.0053   0.0017  -0.0021  -0.0017   0.0010   0.00    0.0
2017/01/10 02:19:30.000  -2200208.0053   5924895.5551   -855929.2126   6   8   0.0041   0.0053   0.0017  -0.0021  -0.0017   0.0010   0.00    0.0
2017/01/10 02:20:00.000  -2200208.0052   5924895.5551   -855929.2126   6   8   0.0041   0.0053   0.0017  -0.0021  -0.0017   0.0010   0.00    0.0
2017/01/10 02:20:30.000  -2200208.0051   5924895.5552   -855929.2126   6   8   0.0041   0.0053   0.0017  -0.0021  -0.0017   0.0010   0.00    0.0
2017/01/10 02:21:00.000  -2200208.0050   5924895.5553   -855929.2126   6   8   0.0041   0.0053   0.0017  -0.0021  -0.0017   0.0010   0.00    0.0
2017/01/10 02:21:30.000  -2200208.0049   5924895.5553   -855929.2126   6   8   0.0041   0.0053   0.0017  -0.0021  -0.0017   0.0010   0.00    0.0
2017/01/10 02:22:00.000  -2200208.0049   5924895.5554   -855929.2126   6   8   0.0041   0.0053   0.0017  -0.0021  -0.0017   0.0010   0.00    0.0
2017/01/10 02:22:30.000  -2200208.0048   5924895.5554   -855929.2126   6   8   0.0041   0.0053   0.0017  -0.0021  -0.0017   0.0010   0.00    0.0
2017/01/10 02:23:00.000  -2200208.0047   5924895.5555   -855929.2126   6   8   0.0041   0.0053   0.0017  -0.0021  -0.0017   0.0010   0.00    0.0
2017/01/10 02:23:30.000  -2200208.0047   5924895.5555   -855929.2126   6   8   0.0041   0.0053   0.0017  -0.0021  -0.0017   0.0010   0.00    0.0
2017/01/10 02:24:00.000  -2200208.0047   5924895.5555   -855929.2125   6   8   0.0041   0.0053   0.0017  -0.0021  -0.0017   0.0010   0.00    0.0
2017/01/10 02:24:30.000  -2200208.0047   5924895.5554   -855929.2125   6   8   0.0041   0.0053   0.0017  -0.0021  -0.0017   0.0010   0.00    0.0
2017/01/10 02:25:00.000  -2200208.0047   5924895.5554   -855929.2125   6   8   0.0041   0.0053   0.0017  -0.0021  -0.0017   0.0010   0.00    0.0
2017/01/10 02:25:30.000  -2200208.0047   5924895.5553   -855929.2125   6   8   0.0041   0.0053   0.0017  -0.0021  -0.0017   0.0010   0.00    0.0
2017/01/10 02:26:00.000  -2200208.0047   5924895.5553   -855929.2125   6   8   0.0041   0.0053   0.0017  -0.0021  -0.0017   0.0010   0.00    0.0
2017/01/10 02:26:30.000  -2200208.0046   5924895.5553   -855929.2125   6   8   0.0041   0.0053   0.0017  -0.0021  -0.0017   0.0010   0.00    0.0
2017/01/10 02:27:00.000  -2200208.0046   5924895.5553   -855929.2125   6   8   0.0041   0.0053   0.0017  -0.0021  -0.0017   0.0010   0.00    0.0
2017/01/10 02:27:30.000  -2200208.0045   5924895.5553   -855929.2125   6   8   0.0041   0.0052   0.0017  -0.0021  -0.0017   0.0010   0.00    0.0
2017/01/10 02:28:00.000  -2200208.0044   5924895.5554   -855929.2125   6   8   0.0041   0.0052   0.0017  -0.0021  -0.0017   0.0010   0.00    0.0
2017/01/10 02:28:30.000  -2200208.0043   5924895.5554   -855929.2126   6   8   0.0041   0.0052   0.0017  -0.0021  -0.0017   0.0010   0.00    0.0
2017/01/10 02:29:00.000  -2200208.0043   5924895.5554   -855929.2126   6   8   0.0041   0.0052   0.0017  -0.0021  -0.0017   0.0010   0.00    0.0
2017/01/10 02:29:30.000  -2200208.0043   5924895.5555   -855929.2126   6   8   0.0041   0.0052   0.0017  -0.0021  -0.0017   0.0010   0.00    0.0
2017/01/10 02:30:00.000  -2200208.0042   5924895.5555   -855929.2126   6   8   0.0041   0.0052   0.0017  -0.0021  -0.0017   0.0010   0.00    0.0
2017/01/10 02:30:30.000  -2200208.0042   5924895.5554   -855929.2126   6   8   0.0041   0.0052   0.0017  -0.0021  -0.0017   0.0010   0.00    0.0
2017/01/10 02:31:00.000  -2200208.0043   5924895.5553   -855929.2126   6   8   0.0041   0.0052   0.0017  -0.0021  -0.0017   0.0010   0.00    0.0
2017/01/10 02:31:30.000  -2200208.0043   5924895.5553   -855929.2126   6   8   0.0041   0.0052   0.0017  -0.0021  -0.0017   0.0010   0.00    0.0
2017/01/10 02:32:00.000  -2200208.0043   5924895.5553   -855929.2126   6   8   0.0041   0.0052   0.0017  -0.0021  -0.0017   0.0010   0.00    0.0
2017/01/10 02:32:30.000  -2200208.0044   5924895.5552   -855929.2126   6   8   0.0041   0.0052   0.0017  -0.0021  -0.0017   0.0010   0.00    0.0
2017/01/10 02:33:00.000  -2200208.0044   5924895.5552   -855929.2125   6   8   0.0041   0.0052   0.0017  -0.0021  -0.0017   0.0010   0.00    0.0
2017/01/10 02:33:30.000  -2200208.0045   5924895.5552   -855929.2126   6   8   0.0041   0.0052   0.0017  -0.0021  -0.0017   0.0010   0.00    0.0
2017/01/10 02:34:00.000  -2200208.0045   5924895.5552   -855929.2126   6   8   0.0041   0.0052   0.0017  -0.0021  -0.0017   0.0010   0.00    0.0
2017/01/10 02:34:30.000  -2200208.0046   5924895.5551   -855929.2126   6   8   0.0041   0.0052   0.0017  -0.0021  -0.0017   0.0010   0.00    0.0
2017/01/10 02:35:00.000  -2200208.0047   5924895.5551   -855929.2126   6   8   0.0041   0.0052   0.0017  -0.0021  -0.0017   0.0010   0.00    0.0
2017/01/10 02:35:30.000  -2200208.0048   5924895.5550   -855929.2125   6   8   0.0041   0.0052   0.0017  -0.0021  -0.0017   0.0010   0.00    0.0
2017/01/10 02:36:00.000  -2200208.0048   5924895.5550   -855929.2125   6   8   0.0041   0.0052   0.0017  -0.0021  -0.0017   0.0010   0.00    0.0
2017/01/10 02:36:30.000  -2200208.0048   5924895.5550   -855929.2125   6   8   0.0041   0.0052   0.0017  -0.0021  -0.0017   0.0010   0.00    0.0
2017/01/10 02:37:00.000  -2200208.0047   5924895.5549   -855929.2125   6   8   0.0041   0.0052   0.0017  -0.0021  -0.0017   0.0010   0.00    0.0
2017/01/10 02:37:30.000  -2200208.0047   5924895.5549   -855929.2125   6   8   0.0041   0.0052   0.0017  -0.0021  -0.0017   0.0010   0.00    0.0
2017/01/10 02:38:00.000  -2200208.0046   5924895.5549   -855929.2125   6   7   0.0041   0.0052   0.0017  -0.0021  -0.0017   0.0010   0.00    0.0
2017/01/10 02:38:30.000  -2200208.0045   5924895.5549   -855929.2125   6   7   0.0041   0.0052   0.0017  -0.0021  -0.0017   0.0010   0.00    0.0
2017/01/10 02:39:00.000  -2200208.0043   5924895.5550   -855929.2125   6   7   0.0041   0.0052   0.0017  -0.0021  -0.0017   0.0010   0.00    0.0
2017/01/10 02:39:30.000  -2200208.0041   5924895.5550   -855929.2125   6   7   0.0041   0.0052   0.0017  -0.0021  -0.0017   0.0010   0.00    0.0
2017/01/10 02:40:00.000  -2200208.0040   5924895.5550   -855929.2125   6   7   0.0041   0.0052   0.0017  -0.0021  -0.0017   0.0010   0.00    0.0
2017/01/10 02:40:30.000  -2200208.0039   5924895.5550   -855929.2124   6   7   0.0041   0.0052   0.0017  -0.0021  -0.0017   0.0010   0.00    0.0
2017/01/10 02:41:00.000  -2200208.0038   5924895.5550   -855929.2125   6   7   0.0041   0.0052   0.0017  -0.0021  -0.0017   0.0010   0.00    0.0
2017/01/10 02:41:30.000  -2200208.0037   5924895.5550   -855929.2125   6   7   0.0041   0.0052   0.0017  -0.0021  -0.0017   0.0010   0.00    0.0
2017/01/10 02:42:00.000  -2200208.0037   5924895.5550   -855929.2125   6   7   0.0041   0.0052   0.0017  -0.0021  -0.0017   0.0010   0.00    0.0
2017/01/10 02:42:30.000  -2200208.0036   5924895.5550   -855929.2125   6   7   0.0041   0.0052   0.0017  -0.0021  -0.0017   0.0010   0.00    0.0
2017/01/10 02:43:00.000  -2200208.0036   5924895.5550   -855929.2125   6   7   0.0041   0.0052   0.0017  -0.0021  -0.0017   0.0010   0.00    0.0
2017/01/10 02:43:30.000  -2200208.0037   5924895.5550   -855929.2125   6   7   0.0041   0.0052   0.0017  -0.0021  -0.0017   0.0010   0.00    0.0
2017/01/10 02:44:00.000  -2200208.0037   5924895.5550   -855929.2124   6   7   0.0041   0.0052   0.0017  -0.0021  -0.0017   0.0010   0.00    0.0
2017/01/10 02:44:30.000  -2200208.0038   5924895.5550   -855929.2124   6   7   0.0041   0.0052   0.0017  -0.0021  -0.0017   0.0010   0.00    0.0
2017/01/10 02:45:00.000  -2200208.0039   5924895.5550   -855929.2124   6   7   0.0041   0.0052   0.0017  -0.0021  -0.0017   0.0010   0.00    0.0
2017/01/10 02:45:30.000  -2200208.0040   5924895.5549   -855929.2124   6   7   0.0041   0.0052   0.0017  -0.0021  -0.0017   0.0010   0.00    0.0
2017/01/10 02:46:00.000  -2200208.0040   5924895.5549   -855929.2124   6   7   0.0041   0.0052   0.0017  -0.0021  -0.0017   0.0010   0.00    0.0
2017/01/10 02:46:30.000  -2200208.0041   5924895.5548   -855929.2124   6   7   0.0041   0.0052   0.0017  -0.0021  -0.0017   0.0010   0.00    0.0
2017/01/10 02:47:00.000  -2200208.0041   5924895.5548   -855929.2124   6   7   0.0041   0.0052   0.0017  -0.0021  -0.0017   0.0010   0.00    0.0
2017/01/10 02:47:30.000  -2200208.0042   5924895.5548   -855929.2124   6   7   0.0041   0.0052   0.0017  -0.0021  -0.0017   0.0010   0.00    0.0
2017/01/10 02:48:00.000  -2200208.0042   5924895.5548   -855929.2124   6   7   0.0041   0.0052   0.0017  -0.0021  -0.0017   0.0010   0.00    0.0
2017/01/10 02:48:30.000  -2200208.0042   5924895.5549   -855929.2124   6   7   0.0041   0.0052   0.0017  -0.0021  -0.0017   0.0010   0.00    0.0
2017/01/10 02:49:00.000  -2200208.0042   5924895.5549   -855929.2124   6   7   0.0041   0.0052   0.0017  -0.0021  -0.0017   0.0010   0.00    0.0
2017/01/10 02:49:30.000  -2200208.0042   5924895.5549   -855929.2124   6   7   0.0041   0.0052   0.0017  -0.0021  -0.0017   0.0010   0.00    0.0
2017/01/10 02:50:00.000  -2200208.0042   5924895.5549   -855929.2124   6   7   0.0041   0.0052   0.0017  -0.0021  -0.0017   0.0010   0.00    0.0
2017/01/10 02:50:30.000  -2200208.0041   5924895.5549   -855929.2124   6   7   0.0041   0.0052   0.0017  -0.0021  -0.0017   0.0010   0.00    0.0
2017/01/10 02:51:00.000  -2200208.0041   5924895.5549   -855929.2125   6   7   0.0041   0.0052   0.0017  -0.0021  -0.0017   0.0010   0.00    0.0
2017/01/10 02:51:30.000  -2200208.0041   5924895.5549   -855929.2125   6   7   0.0041   0.0052   0.0017  -0.0021  -0.0017   0.0010   0.00    0.0
2017/01/10 02:52:00.000  -2200208.0041   5924895.5548   -855929.2125   6   7   0.0041   0.0052   0.0017  -0.0021  -0.0017   0.0010   0.00    0.0
2017/01/10 02:52:30.000  -2200208.0041   5924895.5548   -855929.2125   6   7   0.0041   0.0052   0.0017  -0.0021  -0.0017   0.0010   0.00    0.0
2017/01/10 02:53:00.000  -2200208.0042   5924895.5548   -855929.2125   6   7   0.0041   0.0052   0.0017  -0.0021  -0.0017   0.0011   0.00    0.0
2017/01/10 02:53:30.000  -2200208.0043   5924895.5548   -855929.2124   6   7   0.0041   0.0052   0.0017  -0.0021  -0.0017   0.0011   0.00    0.0
2017/01/10 02:54:00.000  -2200208.0043   5924895.5547   -855929.2124   6   7   0.0041   0.0052   0.0017  -0.0021  -0.0017   0.0011   0.00    0.0
2017/01/10 02:54:30.000  -2200208.0043   5924895.5547   -855929.2124   6   7   0.0041   0.0052   0.0017  -0.0021  -0.0017   0.0011   0.00    0.0
2017/01/10 02:55:00.000  -2200208.0043   5924895.5548   -855929.2124   6   7   0.0041   0.0052   0.0017  -0.0021  -0.0017   0.0011   0.00    0.0
2017/01/10 02:55:30.000  -2200208.0042   5924895.5548   -855929.2124   6   7   0.0041   0.0052   0.0017  -0.0021  -0.0017   0.0011   0.00    0.0
2017/01/10 02:56:00.000  -2200208.0041   5924895.5548   -855929.2125   6   7   0.0041   0.0052   0.0017  -0.0021  -0.0017   0.0011   0.00    0.0
2017/01/10 02:56:30.000  -2200208.0040   5924895.5548   -855929.2125   6   7   0.0041   0.0052   0.0017  -0.0021  -0.0017   0.0011   0.00    0.0
2017/01/10 02:57:00.000  -2200208.0039   5924895.5548   -855929.2125   6   7   0.0041   0.0052   0.0017  -0.0021  -0.0017   0.0011   0.00    0.0
2017/01/10 02:57:30.000  -2200208.0037   5924895.5549   -855929.2125   6   7   0.0041   0.0052   0.0017  -0.0021  -0.0017   0.0011   0.00    0.0
2017/01/10 02:58:00.000  -2200208.0035   5924895.5550   -855929.2125   6   7   0.0041   0.0052   0.0017  -0.0021  -0.0017   0.0011   0.00    0.0
2017/01/10 02:58:30.000  -2200208.0034   5924895.5550   -855929.2125   6   7   0.0041   0.0052   0.0017  -0.0021  -0.0017   0.0011   0.00    0.0
2017/01/10 02:59:00.000  -2200208.0033   5924895.5550   -855929.2125   6   7   0.0041   0.0052   0.0017  -0.0021  -0.0017   0.0011   0.00    0.0
2017/01/10 02:59:30.000  -2200208.0033   5924895.5550   -855929.2125   6   7   0.0041   0.0052   0.0017  -0.0021  -0.0017   0.0011   0.00    0.0
2017/01/10 03:00:00.000  -2200208.0033   5924895.5550   -855929.2125   6   7   0.0041   0.0052   0.0017  -0.0021  -0.0017   0.0011   0.00    0.0
2017/01/10 03:00:30.000  -2200208.0033   5924895.5551   -855929.2125   6   7   0.0041   0.0052   0.0017  -0.0021  -0.0017   0.0011   0.00    0.0
2017/01/10 03:01:00.000  -2200208.0033   5924895.5552   -855929.2125   6   7   0.0041   0.0052   0.0017  -0.0021  -0.0017   0.0011   0.00    0.0
2017/01/10 03:01:30.000  -2200208.0034   5924895.5552   -855929.2125   6   7   0.0041   0.0052   0.0017  -0.0021  -0.0017   0.0011   0.00    0.0
2017/01/10 03:02:00.000  -2200208.0035   5924895.5552   -855929.2125   6   7   0.0041   0.0052   0.0017  -0.0021  -0.0017   0.0011   0.00    0.0
2017/01/10 03:02:30.000  -2200208.0035   5924895.5551   -855929.2125   6   7   0.0041   0.0052   0.0017  -0.0021  -0.0017   0.0011   0.00    0.0
2017/01/10 03:03:00.000  -2200208.0036   5924895.5551   -855929.2126   6   7   0.0041   0.0052   0.0017  -0.0021  -0.0017   0.0011   0.00    0.0
2017/01/10 03:03:30.000  -2200208.0036   5924895.5552   -855929.2125   6   7   0.0041   0.0052   0.0017  -0.0021  -0.0017   0.0011   0.00    0.0
2017/01/10 03:04:00.000  -2200208.0036   5924895.5553   -855929.2125   6   7   0.0041   0.0052   0.0017  -0.0021  -0.0017   0.0011   0.00    0.0
2017/01/10 03:04:30.000  -2200208.0037   5924895.5553   -855929.2125   6   7   0.0041   0.0052   0.0017  -0.0021  -0.0017   0.0011   0.00    0.0
2017/01/10 03:05:00.000  -2200208.0037   5924895.5554   -855929.2125   6   7   0.0041   0.0052   0.0017  -0.0021  -0.0017   0.0011   0.00    0.0
2017/01/10 03:05:30.000  -2200208.0038   5924895.5554   -855929.2125   6   7   0.0041   0.0052   0.0017  -0.0021  -0.0017   0.0011   0.00    0.0
2017/01/10 03:06:00.000  -2200208.0039   5924895.5554   -855929.2125   6   7   0.0041   0.0052   0.0017  -0.0021  -0.0017   0.0011   0.00    0.0
2017/01/10 03:06:30.000  -2200208.0040   5924895.5554   -855929.2126   6   7   0.0041   0.0052   0.0017  -0.0021  -0.0017   0.0011   0.00    0.0
2017/01/10 03:07:00.000  -2200208.0040   5924895.5554   -855929.2126   6   7   0.0041   0.0052   0.0017  -0.0021  -0.0017   0.0011   0.00    0.0
2017/01/10 03:07:30.000  -2200208.0041   5924895.5554   -855929.2126   6   7   0.0041   0.0052   0.0017  -0.0021  -0.0017   0.0011   0.00    0.0
2017/01/10 03:08:00.000  -2200208.0041   5924895.5555   -855929.2126   6   7   0.0041   0.0052   0.0017  -0.0021  -0.0017   0.0011   0.00    0.0
2017/01/10 03:08:30.000  -2200208.0040   5924895.5555   -855929.2126   6   7   0.0041   0.0052   0.0017  -0.0021  -0.0017   0.0011   0.00    0.0
2017/01/10 03:09:00.000  -2200208.0038   5924895.5556   -855929.2126   6   7   0.0041   0.0052   0.0017  -0.0021  -0.0017   0.0011   0.00    0.0
2017/01/10 03:09:30.000  -2200208.0036   5924895.5557   -855929.2126   6   7   0.0041   0.0052   0.0017  -0.0021  -0.0017   0.0011   0.00    0.0
2017/01/10 03:10:00.000  -2200208.0033   5924895.5558   -855929.2127   6   8   0.0041   0.0052   0.0017  -0.0021  -0.0017   0.0011   0.00    0.0
2017/01/10 03:10:30.000  -2200208.0031   5924895.5559   -855929.2127   6   8   0.0041   0.0052   0.0017  -0.0021  -0.0017   0.0011   0.00    0.0
2017/01/10 03:11:00.000  -2200208.0030   5924895.5560   -855929.2127   6   8   0.0041   0.0052   0.0017  -0.0021  -0.0017   0.0011   0.00    0.0
2017/01/10 03:11:30.000  -2200208.0029   5924895.5560   -855929.2127   6   8   0.0041   0.0052   0.0017  -0.0021  -0.0017   0.0011   0.00    0.0
2017/01/10 03:12:00.000  -2200208.0029   5924895.5559   -855929.2127   6   8   0.0041   0.0052   0.0017  -0.0021  -0.0017   0.0011   0.00    0.0
2017/01/10 03:12:30.000  -2200208.0028   5924895.5559   -855929.2126   6   8   0.0041   0.0052   0.0017  -0.0021  -0.0017   0.0011   0.00    0.0
2017/01/10 03:13:00.000  -2200208.0028   5924895.5558   -855929.2127   6   8   0.0041   0.0052   0.0017  -0.0021  -0.0017   0.0011   0.00    0.0
2017/01/10 03:13:30.000  -2200208.0028   5924895.5558   -855929.2127   6   8   0.0041   0.0052   0.0017  -0.0021  -0.0017   0.0011   0.00    0.0
2017/01/10 03:14:00.000  -2200208.0028   5924895.5558   -855929.2127   6   8   0.0041   0.0052   0.0017  -0.0021  -0.0017   0.0011   0.00    0.0
2017/01/10 03:14:30.000  -2200208.0028   5924895.5558   -855929.2127   6   9   0.0041   0.0052   0.0017  -0.0021  -0.0017   0.0011   0.00    0.0
2017/01/10 03:15:00.000  -2200208.0027   5924895.5558   -855929.2127   6   9   0.0041   0.0052   0.0017  -0.0021  -0.0017   0.0011   0.00    0.0
2017/01/10 03:15:30.000  -2200208.0026   5924895.5558   -855929.2126   6   9   0.0041   0.0052   0.0017  -0.0021  -0.0017   0.0011   0.00    0.0
2017/01/10 03:16:00.000  -2200208.0026   5924895.5558   -855929.2126   6   9   0.0041   0.0052   0.0017  -0.0021  -0.0017   0.0011   0.00    0.0
2017/01/10 03:16:30.000  -2200208.0026   5924895.5558   -855929.2127   6   9   0.0041   0.0052   0.0017  -0.0021  -0.0017   0.0011   0.00    0.0
2017/01/10 03:17:00.000  -2200208.0026   5924895.5559   -855929.2127   6   9   0.0041   0.0052   0.0017  -0.0021  -0.0017   0.0011   0.00    0.0
2017/01/10 03:17:30.000  -2200208.0026   5924895.5560   -855929.2127   6   9   0.0041   0.0052   0.0017  -0.0021  -0.0017   0.0011   0.00    0.0
2017/01/10 03:18:00.000  -2200208.0026   5924895.5561   -855929.2127   6   9   0.0041   0.0052   0.0017  -0.0021  -0.0017   0.0011   0.00    0.0
2017/01/10 03:18:30.000  -2200208.0026   5924895.5561   -855929.2127   6   9   0.0041   0.0052   0.0017  -0.0021  -0.0017   0.0011   0.00    0.0
2017/01/10 03:19:00.000  -2200208.0026   5924895.5562   -855929.2127   6   9   0.0041   0.0052   0.0017  -0.0021  -0.0017   0.0011   0.00    0.0
2017/01/10 03:19:30.000  -2200208.0026   5924895.5562   -855929.2127   6   9   0.0041   0.0052   0.0017  -0.0021  -0.0017   0.0011   0.00    0.0
2017/01/10 03:20:00.000  -2200208.0026   5924895.5562   -855929.2127   6   9   0.0041   0.0052   0.0017  -0.0021  -0.0017   0.0011   0.00    0.0
2017/01/10 03:20:30.000  -2200208.0027   5924895.5561   -855929.2127   6   9   0.0041   0.0052   0.0017  -0.0021  -0.0017   0.0011   0.00    0.0
2017/01/10 03:21:00.000  -2200208.0027   5924895.5561   -855929.2127   6   9   0.0041   0.0052   0.0017  -0.0021  -0.0017   0.0011   0.00    0.0
2017/01/10 03:21:30.000  -2200208.0027   5924895.5559   -855929.2127   6   9   0.0041   0.0052   0.0017  -0.0021  -0.0017   0.0011   0.00    0.0
2017/01/10 03:22:00.000  -2200208.0028   5924895.5557   -855929.2127   6   9   0.0041   0.0052   0.0017  -0.0021  -0.0017   0.0011   0.00    0.0
2017/01/10 03:22:30.000  -2200208.0029   5924895.5555   -855929.2127   6   9   0.0041   0.0052   0.0017  -0.0021  -0.0017   0.0011   0.00    0.0
2017/01/10 03:23:00.000  -2200208.0030   5924895.5554   -855929.2127   6   9   0.0041   0.0052   0.0017  -0.0021  -0.0017   0.0011   0.00    0.0
