% program   : RTKPOST ver.2.4.3 b34
% inp file  : C:\Users\Danisimo\Desktop\Nika\JOG2\jog20100.17o
% inp file  : C:\Users\Danisimo\Desktop\Nika\XMIS\xmis0100.17o
% inp file  : C:\Users\Danisimo\Desktop\Nika\BRDM00DLR_R_20170100000_01D_MN.rnx
% inp file  : C:\Users\Danisimo\Desktop\Nika\igs19312.sp3
% inp file  : C:\Users\Danisimo\Desktop\Nika\igs19312.clk_30s
% obs start : 2017/01/10 00:00:00.0 GPST (week1931 172800.0s)
% obs end   : 2017/01/10 23:59:30.0 GPST (week1931 259170.0s)
% pos mode  : Kinematic
% freqs     : L1+2
% solution  : Forward
% elev mask : 15.0 deg
% dynamics  : off
% tidecorr  : off
% ionos opt : Broadcast
% tropo opt : Saastamoinen
% ephemeris : Precise
% navi sys  : GPS
% amb res   : Continuous
% val thres : 3.0
% antenna1  :                       ( 0.0000  0.0000  0.1206)
% antenna2  :                       ( 0.0000  0.0000  0.0015)
% ref pos   : -1696344.3366   6039590.0273  -1149275.6251
%
% (x/y/z-ecef=WGS84,Q=1:fix,2:float,3:sbas,4:dgps,5:single,6:ppp,ns=# of satellites)
%  GPST                      x-ecef(m)      y-ecef(m)      z-ecef(m)   Q  ns   sdx(m)   sdy(m)   sdz(m)  sdxy(m)  sdyz(m)  sdzx(m) age(s)  ratio
2017/01/10 00:00:00.000  -2200208.1815   5924896.0414   -855929.8091   2   9   0.4698   0.9491   0.4299  -0.4587   0.1072  -0.1719   0.00    1.0
2017/01/10 00:00:30.000  -2200208.5367   5924896.2322   -855929.5609   2   9   0.3251   0.6408   0.2942  -0.3010  -0.0497  -0.1047   0.00    1.0
2017/01/10 00:01:00.000  -2200208.4516   5924896.0403   -855929.2185   2   9   0.2566   0.4893   0.2275  -0.2189  -0.0866  -0.0654   0.00    1.2
2017/01/10 00:01:30.000  -2200208.4362   5924896.1809   -855929.3945   2   9   0.2143   0.3928   0.1846  -0.1640  -0.0942  -0.0358   0.00    1.3
2017/01/10 00:02:00.000  -2200208.4706   5924896.0332   -855929.3858   2   9   0.1853   0.3250   0.1539  -0.1235  -0.0926   0.0093   0.00    1.4
2017/01/10 00:02:30.000  -2200208.4802   5924895.9120   -855929.2522   2   9   0.1641   0.2749   0.1307  -0.0919  -0.0872   0.0259   0.00    1.5
2017/01/10 00:03:00.000  -2200208.4586   5924895.9482   -855929.2418   2   9   0.1479   0.2366   0.1126  -0.0656  -0.0805   0.0296   0.00    1.4
2017/01/10 00:03:30.000  -2200208.4182   5924895.9275   -855929.1909   2   9   0.1352   0.2066   0.0982  -0.0416  -0.0736   0.0302   0.00    1.3
2017/01/10 00:04:00.000  -2200208.3242   5924895.8302   -855929.1906   2   9   0.1249   0.1826   0.0864  -0.0095  -0.0670   0.0295   0.00    1.3
2017/01/10 00:04:30.000  -2200208.2593   5924895.7128   -855929.2549   2   9   0.1163   0.1631   0.0767   0.0308  -0.0609   0.0282   0.00    1.1
2017/01/10 00:05:00.000  -2200208.2285   5924895.6053   -855929.3258   2   9   0.1091   0.1471   0.0686   0.0401  -0.0555   0.0267   0.00    1.0
2017/01/10 00:05:30.000  -2200208.1741   5924895.4915   -855929.3628   2   9   0.1028   0.1336   0.0618   0.0450  -0.0506   0.0252   0.00    1.2
2017/01/10 00:06:00.000  -2200208.1667   5924895.4052   -855929.3708   2   9   0.0974   0.1223   0.0559   0.0476  -0.0463   0.0238   0.00    1.2
2017/01/10 00:06:30.000  -2200208.1758   5924895.3417   -855929.3558   2   9   0.0925   0.1126   0.0510   0.0490  -0.0425   0.0224   0.00    1.2
2017/01/10 00:07:00.000  -2200208.1939   5924895.2735   -855929.3659   2   9   0.0883   0.1042   0.0467   0.0495  -0.0391   0.0210   0.00    1.1
2017/01/10 00:07:30.000  -2200208.2089   5924895.1693   -855929.3645   2   9   0.0844   0.0970   0.0429   0.0496  -0.0361   0.0198   0.00    1.0
2017/01/10 00:08:00.000  -2200208.2767   5924895.0426   -855929.3597   2   9   0.0808   0.0906   0.0397   0.0493  -0.0334   0.0187   0.00    1.1
2017/01/10 00:08:30.000  -2200208.3458   5924894.9617   -855929.3488   2   9   0.0776   0.0850   0.0368   0.0488  -0.0310   0.0178   0.00    1.2
2017/01/10 00:09:00.000  -2200208.4054   5924894.8574   -855929.3545   2   9   0.0746   0.0800   0.0342   0.0481  -0.0289   0.0169   0.00    1.1
2017/01/10 00:09:30.000  -2200208.4803   5924894.7261   -855929.3348   2   9   0.0719   0.0756   0.0320   0.0472  -0.0269   0.0159   0.00    1.1
2017/01/10 00:10:00.000  -2200208.5562   5924894.6512   -855929.3248   2   9   0.0693   0.0716   0.0299   0.0463  -0.0252   0.0152   0.00    1.0
2017/01/10 00:10:30.000  -2200208.6285   5924894.5405   -855929.3210   2   9   0.0669   0.0680   0.0282   0.0454  -0.0237   0.0145   0.00    1.0
2017/01/10 00:11:00.000  -2200208.7124   5924894.4542   -855929.3075   2   9   0.0647   0.0647   0.0264   0.0444  -0.0222   0.0138   0.00    1.1
2017/01/10 00:11:30.000  -2200208.7974   5924894.3978   -855929.3041   2   9   0.0626   0.0617   0.0250   0.0434  -0.0210   0.0131   0.00    1.1
2017/01/10 00:12:00.000  -2200208.8806   5924894.3696   -855929.3161   2   9   0.0606   0.0590   0.0236   0.0424  -0.0198   0.0125   0.00    1.1
2017/01/10 00:12:30.000  -2200208.9515   5924894.3494   -855929.3235   2   9   0.0587   0.0564   0.0224   0.0415  -0.0187   0.0120   0.00    1.1
2017/01/10 00:13:00.000  -2200209.0183   5924894.2969   -855929.3269   2   9   0.0570   0.0541   0.0213   0.0405  -0.0177   0.0115   0.00    1.1
2017/01/10 00:13:30.000  -2200209.0933   5924894.2351   -855929.3277   2   9   0.0553   0.0520   0.0203   0.0395  -0.0169   0.0111   0.00    1.1
2017/01/10 00:14:00.000  -2200209.1625   5924894.1833   -855929.3253   2   9   0.0537   0.0499   0.0193   0.0386  -0.0160   0.0106   0.00    1.0
2017/01/10 00:14:30.000  -2200209.2222   5924894.1411   -855929.3158   2   9   0.0521   0.0481   0.0185   0.0377  -0.0153   0.0103   0.00    1.0
2017/01/10 00:15:00.000  -2200209.2927   5924894.1097   -855929.3219   2   9   0.0507   0.0464   0.0177   0.0367  -0.0147   0.0098   0.00    1.1
2017/01/10 00:15:30.000  -2200209.3580   5924894.0814   -855929.3310   2   9   0.0494   0.0447   0.0170   0.0359  -0.0139   0.0094   0.00    1.1
2017/01/10 00:16:00.000  -2200209.4135   5924894.0481   -855929.3455   2   9   0.0480   0.0432   0.0163   0.0350  -0.0134   0.0092   0.00    1.1
2017/01/10 00:16:30.000  -2200209.4679   5924894.0162   -855929.3576   2   9   0.0468   0.0418   0.0156   0.0341  -0.0128   0.0086   0.00    1.1
2017/01/10 00:17:00.000  -2200209.5193   5924893.9737   -855929.3600   2   9   0.0455   0.0404   0.0150   0.0333  -0.0123   0.0085   0.00    1.2
2017/01/10 00:17:30.000  -2200209.5561   5924893.9254   -855929.3582   2   9   0.0445   0.0392   0.0145   0.0325  -0.0118   0.0081   0.00    1.2
2017/01/10 00:18:00.000  -2200209.5866   5924893.8564   -855929.3568   2   9   0.0433   0.0380   0.0140   0.0318  -0.0114   0.0078   0.00    1.2
2017/01/10 00:18:30.000  -2200209.6182   5924893.7904   -855929.3509   2   9   0.0421   0.0369   0.0136   0.0311  -0.0110   0.0079   0.00    1.2
2017/01/10 00:19:00.000  -2200209.6774   5924893.7319   -855929.3347   2   9   0.0412   0.0358   0.0131   0.0303  -0.0107   0.0073   0.00    1.3
2017/01/10 00:19:30.000  -2200209.7059   5924893.6778   -855929.3315   2   9   0.0402   0.0348   0.0128   0.0296  -0.0103   0.0072   0.00    1.3
2017/01/10 00:20:00.000  -2200209.7224   5924893.6323   -855929.3282   2   9   0.0394   0.0338   0.0122   0.0289  -0.0100   0.0069   0.00    1.2
2017/01/10 00:20:30.000  -2200209.7367   5924893.5918   -855929.3215   2   9   0.0384   0.0329   0.0119   0.0283  -0.0096   0.0068   0.00    1.2
2017/01/10 00:21:00.000  -2200209.7556   5924893.5532   -855929.3130   2   9   0.0376   0.0320   0.0116   0.0277  -0.0095   0.0066   0.00    1.2
2017/01/10 00:21:30.000  -2200209.7672   5924893.5198   -855929.3098   2   9   0.0367   0.0312   0.0113   0.0270  -0.0091   0.0064   0.00    1.1
2017/01/10 00:22:00.000  -2200209.7819   5924893.4993   -855929.3009   2   9   0.0358   0.0304   0.0109   0.0265  -0.0089   0.0065   0.00    1.1
2017/01/10 00:22:30.000  -2200209.7879   5924893.4795   -855929.2980   2   9   0.0352   0.0297   0.0108   0.0259  -0.0086   0.0061   0.00    1.1
2017/01/10 00:23:00.000  -2200209.7914   5924893.4700   -855929.3003   2   9   0.0344   0.0289   0.0104   0.0254  -0.0084   0.0060   0.00    1.1
2017/01/10 00:23:30.000  -2200209.7918   5924893.4581   -855929.3063   2   9   0.0337   0.0282   0.0102   0.0248  -0.0082   0.0057   0.00    1.0
2017/01/10 00:24:00.000  -2200209.7999   5924893.4573   -855929.3039   2   9   0.0331   0.0276   0.0099   0.0243  -0.0080   0.0057   0.00    1.0
2017/01/10 00:24:30.000  -2200209.8037   5924893.4673   -855929.3042   2   9   0.0324   0.0269   0.0096   0.0238  -0.0077   0.0055   0.00    1.0
2017/01/10 00:25:00.000  -2200209.8117   5924893.4746   -855929.3071   2   9   0.0318   0.0264   0.0096   0.0233  -0.0076   0.0056   0.00    1.0
2017/01/10 00:25:30.000  -2200209.8156   5924893.4784   -855929.3158   2   9   0.0312   0.0258   0.0092   0.0228  -0.0075   0.0053   0.00    1.0
2017/01/10 00:26:00.000  -2200209.8178   5924893.4751   -855929.3246   2   9   0.0305   0.0252   0.0091   0.0223  -0.0074   0.0054   0.00    1.1
2017/01/10 00:26:30.000  -2200209.8176   5924893.4751   -855929.3289   2   9   0.0301   0.0247   0.0089   0.0219  -0.0072   0.0051   0.00    1.1
2017/01/10 00:27:00.000  -2200209.8151   5924893.4804   -855929.3288   2   9   0.0295   0.0242   0.0088   0.0215  -0.0069   0.0047   0.00    1.1
2017/01/10 00:27:30.000  -2200209.8053   5924893.4842   -855929.3297   2  10   0.0289   0.0237   0.0087   0.0210  -0.0069   0.0047   0.00    1.0
2017/01/10 00:28:00.000  -2200209.7893   5924893.4857   -855929.3281   2  10   0.0283   0.0232   0.0083   0.0206  -0.0066   0.0048   0.00    1.0
2017/01/10 00:28:30.000  -2200209.7684   5924893.5358   -855929.3497   2   9   0.0279   0.0232   0.0089   0.0202  -0.0074   0.0047   0.00    1.0
2017/01/10 00:29:00.000  -2200209.7365   5924893.5703   -855929.3517   2   9   0.0274   0.0229   0.0085   0.0198  -0.0073   0.0048   0.00    1.1
2017/01/10 00:29:30.000  -2200209.7074   5924893.5969   -855929.3545   2   9   0.0270   0.0225   0.0083   0.0195  -0.0073   0.0046   0.00    1.1
2017/01/10 00:30:00.000  -2200209.6731   5924893.6281   -855929.3575   2   9   0.0265   0.0222   0.0083   0.0192  -0.0071   0.0044   0.00    1.1
2017/01/10 00:30:30.000  -2200209.6403   5924893.6617   -855929.3634   2   9   0.0261   0.0218   0.0083   0.0189  -0.0074   0.0043   0.00    1.1
2017/01/10 00:31:00.000  -2200209.5958   5924893.6910   -855929.3628   2   9   0.0258   0.0215   0.0082   0.0186  -0.0072   0.0040   0.00    1.1
2017/01/10 00:31:30.000  -2200209.5625   5924893.7312   -855929.3669   2   9   0.0254   0.0213   0.0081   0.0183  -0.0071   0.0041   0.00    1.1
2017/01/10 00:32:00.000  -2200209.5272   5924893.7719   -855929.3750   2   9   0.0250   0.0210   0.0079   0.0180  -0.0072   0.0038   0.00    1.1
2017/01/10 00:32:30.000  -2200209.4933   5924893.8066   -855929.3808   2   9   0.0247   0.0207   0.0079   0.0178  -0.0071   0.0036   0.00    1.1
2017/01/10 00:33:00.000  -2200209.4569   5924893.8360   -855929.3827   2   9   0.0244   0.0205   0.0079   0.0175  -0.0070   0.0038   0.00    1.1
2017/01/10 00:33:30.000  -2200209.4215   5924893.8555   -855929.3809   2   9   0.0240   0.0202   0.0079   0.0172  -0.0068   0.0037   0.00    1.0
2017/01/10 00:34:00.000  -2200209.3965   5924893.8855   -855929.3759   2   9   0.0237   0.0199   0.0077   0.0169  -0.0070   0.0031   0.00    1.0
2017/01/10 00:34:30.000  -2200209.3673   5924893.9090   -855929.3727   2   9   0.0233   0.0197   0.0074   0.0167  -0.0070   0.0037   0.00    1.0
2017/01/10 00:35:00.000  -2200209.3421   5924893.9340   -855929.3696   2   9   0.0231   0.0195   0.0076   0.0164  -0.0070   0.0032   0.00    1.0
2017/01/10 00:35:30.000  -2200209.3138   5924893.9502   -855929.3658   2   9   0.0228   0.0193   0.0075   0.0162  -0.0068   0.0034   0.00    1.0
2017/01/10 00:36:00.000  -2200209.2871   5924893.9774   -855929.3678   2   9   0.0224   0.0190   0.0073   0.0160  -0.0068   0.0037   0.00    1.0
2017/01/10 00:36:30.000  -2200209.2593   5924893.9959   -855929.3612   2   9   0.0222   0.0188   0.0074   0.0157  -0.0068   0.0036   0.00    1.0
2017/01/10 00:37:00.000  -2200209.2325   5924894.0220   -855929.3578   2   9   0.0219   0.0185   0.0071   0.0155  -0.0068   0.0032   0.00    1.1
2017/01/10 00:37:30.000  -2200209.2174   5924894.0437   -855929.3608   2   9   0.0217   0.0184   0.0072   0.0152  -0.0067   0.0030   0.00    1.1
2017/01/10 00:38:00.000  -2200209.1987   5924894.0678   -855929.3555   2   8   0.0215   0.0183   0.0069   0.0149  -0.0066   0.0034   0.00    1.1
2017/01/10 00:38:30.000  -2200209.1851   5924894.0934   -855929.3640   2   8   0.0213   0.0181   0.0072   0.0147  -0.0067   0.0030   0.00    1.1
2017/01/10 00:39:00.000  -2200209.1674   5924894.1133   -855929.3613   2   8   0.0211   0.0179   0.0071   0.0145  -0.0066   0.0035   0.00    1.1
2017/01/10 00:39:30.000  -2200209.1528   5924894.1162   -855929.3632   2   8   0.0208   0.0178   0.0070   0.0143  -0.0065   0.0035   0.00    1.1
2017/01/10 00:40:00.000  -2200209.1382   5924894.1262   -855929.3754   2   8   0.0207   0.0176   0.0070   0.0141  -0.0064   0.0034   0.00    1.1
2017/01/10 00:40:30.000  -2200209.1209   5924894.1489   -855929.3718   2   8   0.0206   0.0174   0.0068   0.0139  -0.0065   0.0037   0.00    1.0
2017/01/10 00:41:00.000  -2200209.1056   5924894.1500   -855929.3767   2   8   0.0204   0.0172   0.0070   0.0137  -0.0066   0.0037   0.00    1.0
2017/01/10 00:41:30.000  -2200209.0837   5924894.1674   -855929.3776   2   8   0.0202   0.0171   0.0068   0.0135  -0.0064   0.0038   0.00    1.0
2017/01/10 00:42:00.000  -2200209.0674   5924894.1822   -855929.3853   2   8   0.0200   0.0170   0.0069   0.0133  -0.0065   0.0038   0.00    1.0
2017/01/10 00:42:30.000  -2200209.0486   5924894.2200   -855929.3958   2   8   0.0198   0.0168   0.0069   0.0131  -0.0065   0.0039   0.00    1.1
2017/01/10 00:43:00.000  -2200209.0438   5924894.2470   -855929.4093   2   8   0.0196   0.0167   0.0067   0.0129  -0.0062   0.0039   0.00    1.1
2017/01/10 00:43:30.000  -2200209.0252   5924894.2746   -855929.4154   2   8   0.0195   0.0165   0.0069   0.0127  -0.0064   0.0038   0.00    1.1
2017/01/10 00:44:00.000  -2200209.0109   5924894.3017   -855929.4210   2   8   0.0193   0.0164   0.0068   0.0125  -0.0063   0.0039   0.00    1.1
2017/01/10 00:44:30.000  -2200208.9843   5924894.3309   -855929.4302   2   8   0.0193   0.0162   0.0068   0.0124  -0.0064   0.0036   0.00    1.1
2017/01/10 00:45:00.000  -2200208.9637   5924894.3430   -855929.4345   2   8   0.0191   0.0161   0.0067   0.0122  -0.0064   0.0042   0.00    1.1
2017/01/10 00:45:30.000  -2200208.9382   5924894.3484   -855929.4314   2   8   0.0189   0.0159   0.0069   0.0119  -0.0064   0.0042   0.00    1.1
2017/01/10 00:46:00.000  -2200208.9186   5924894.3667   -855929.4305   2   8   0.0187   0.0159   0.0065   0.0118  -0.0063   0.0043   0.00    1.1
2017/01/10 00:46:30.000  -2200208.8997   5924894.3892   -855929.4390   2   8   0.0186   0.0158   0.0066   0.0117  -0.0063   0.0042   0.00    1.1
2017/01/10 00:47:00.000  -2200208.8753   5924894.4042   -855929.4430   2   8   0.0185   0.0157   0.0064   0.0115  -0.0064   0.0042   0.00    1.1
2017/01/10 00:47:30.000  -2200208.8593   5924894.4230   -855929.4500   2   8   0.0183   0.0156   0.0066   0.0113  -0.0063   0.0042   0.00    1.1
2017/01/10 00:48:00.000  -2200208.8397   5924894.4467   -855929.4573   2   8   0.0183   0.0156   0.0066   0.0113  -0.0064   0.0043   0.00    1.0
2017/01/10 00:48:30.000  -2200208.8102   5924894.4587   -855929.4584   2   8   0.0180   0.0153   0.0065   0.0109  -0.0064   0.0041   0.00    1.0
2017/01/10 00:49:00.000  -2200208.7880   5924894.4721   -855929.4666   2   8   0.0179   0.0152   0.0063   0.0107  -0.0064   0.0042   0.00    1.0
2017/01/10 00:49:30.000  -2200208.7629   5924894.4860   -855929.4674   2   8   0.0178   0.0151   0.0064   0.0105  -0.0064   0.0046   0.00    1.0
2017/01/10 00:50:00.000  -2200208.7394   5924894.4823   -855929.4714   2   8   0.0177   0.0151   0.0065   0.0104  -0.0063   0.0044   0.00    1.0
2017/01/10 00:50:30.000  -2200208.7240   5924894.5015   -855929.4756   2   8   0.0176   0.0150   0.0065   0.0104  -0.0066   0.0044   0.00    1.0
2017/01/10 00:51:00.000  -2200208.7043   5924894.5041   -855929.4734   2   8   0.0175   0.0149   0.0066   0.0101  -0.0064   0.0042   0.00    1.0
2017/01/10 00:51:30.000  -2200208.6876   5924894.5185   -855929.4851   2   8   0.0173   0.0148   0.0065   0.0098  -0.0063   0.0047   0.00    1.1
2017/01/10 00:52:00.000  -2200208.6747   5924894.5226   -855929.4901   2   8   0.0172   0.0148   0.0063   0.0099  -0.0065   0.0044   0.00    1.0
2017/01/10 00:52:30.000  -2200208.6581   5924894.5378   -855929.4941   2   8   0.0171   0.0147   0.0064   0.0097  -0.0065   0.0044   0.00    1.0
2017/01/10 00:53:00.000  -2200208.6387   5924894.5539   -855929.5027   2   8   0.0169   0.0145   0.0065   0.0093  -0.0065   0.0046   0.00    1.0
2017/01/10 00:53:30.000  -2200208.6239   5924894.5603   -855929.5092   2   8   0.0170   0.0146   0.0063   0.0095  -0.0067   0.0044   0.00    1.1
2017/01/10 00:54:00.000  -2200208.6072   5924894.5632   -855929.5175   2   8   0.0169   0.0145   0.0064   0.0092  -0.0066   0.0045   0.00    1.1
2017/01/10 00:54:30.000  -2200208.5856   5924894.5734   -855929.5189   2   8   0.0168   0.0146   0.0063   0.0092  -0.0064   0.0042   0.00    1.2
2017/01/10 00:55:00.000  -2200208.5686   5924894.5754   -855929.5264   2   8   0.0167   0.0146   0.0065   0.0090  -0.0064   0.0047   0.00    1.2
2017/01/10 00:55:30.000  -2200208.5429   5924894.5737   -855929.5315   2   8   0.0165   0.0144   0.0063   0.0087  -0.0066   0.0046   0.00    1.2
2017/01/10 00:56:00.000  -2200208.5334   5924894.5734   -855929.5334   2   8   0.0165   0.0143   0.0061   0.0086  -0.0065   0.0046   0.00    1.1
2017/01/10 00:56:30.000  -2200208.5148   5924894.5662   -855929.5323   2   9   0.0164   0.0142   0.0063   0.0083  -0.0067   0.0046   0.00    1.0
2017/01/10 00:57:00.000  -2200208.4956   5924894.5599   -855929.5302   2   9   0.0160   0.0139   0.0057   0.0088  -0.0061   0.0037   0.00    1.0
2017/01/10 00:57:30.000  -2200208.4817   5924894.5611   -855929.5302   2   9   0.0159   0.0138   0.0058   0.0088  -0.0059   0.0035   0.00    1.0
2017/01/10 00:58:00.000  -2200208.4686   5924894.5643   -855929.5331   2   9   0.0156   0.0136   0.0055   0.0087  -0.0060   0.0038   0.00    1.0
2017/01/10 00:58:30.000  -2200208.4512   5924894.5712   -855929.5351   2  10   0.0156   0.0135   0.0059   0.0086  -0.0057   0.0033   0.00    1.0
2017/01/10 00:59:00.000  -2200208.4310   5924894.5699   -855929.5344   2  10   0.0152   0.0134   0.0055   0.0088  -0.0056   0.0033   0.00    1.0
2017/01/10 00:59:30.000  -2200208.4096   5924894.5767   -855929.5382   2  10   0.0152   0.0132   0.0057   0.0087  -0.0056   0.0031   0.00    1.0
2017/01/10 01:00:00.000  -2200208.3879   5924894.5873   -855929.5420   2  10   0.0150   0.0132   0.0054   0.0088  -0.0057   0.0032   0.00    1.0
2017/01/10 01:00:30.000  -2200208.3748   5924894.6008   -855929.5443   2  10   0.0148   0.0131   0.0055   0.0087  -0.0056   0.0032   0.00    1.0
2017/01/10 01:01:00.000  -2200208.3522   5924894.6088   -855929.5428   2  10   0.0148   0.0130   0.0056   0.0086  -0.0054   0.0028   0.00    1.0
2017/01/10 01:01:30.000  -2200208.3305   5924894.6048   -855929.5450   2  10   0.0146   0.0130   0.0056   0.0086  -0.0055   0.0029   0.00    1.0
2017/01/10 01:02:00.000  -2200208.3152   5924894.6093   -855929.5495   2  10   0.0145   0.0130   0.0057   0.0085  -0.0053   0.0027   0.00    1.0
2017/01/10 01:02:30.000  -2200208.2952   5924894.6109   -855929.5511   2  10   0.0145   0.0129   0.0054   0.0084  -0.0055   0.0024   0.00    1.0
2017/01/10 01:03:00.000  -2200208.2742   5924894.6055   -855929.5534   2  10   0.0144   0.0129   0.0056   0.0082  -0.0054   0.0027   0.00    1.0
2017/01/10 01:03:30.000  -2200208.2559   5924894.6165   -855929.5587   2  10   0.0142   0.0127   0.0054   0.0081  -0.0053   0.0025   0.00    1.0
2017/01/10 01:04:00.000  -2200208.2312   5924894.6209   -855929.5607   2  10   0.0141   0.0127   0.0052   0.0080  -0.0054   0.0025   0.00    1.0
2017/01/10 01:04:30.000  -2200208.2026   5924894.6134   -855929.5538   2  10   0.0139   0.0127   0.0052   0.0079  -0.0053   0.0024   0.00    1.0
2017/01/10 01:05:00.000  -2200208.1790   5924894.6183   -855929.5583   2  10   0.0139   0.0128   0.0053   0.0080  -0.0053   0.0026   0.00    1.0
2017/01/10 01:05:30.000  -2200208.1540   5924894.6167   -855929.5612   2  10   0.0138   0.0126   0.0054   0.0077  -0.0053   0.0025   0.00    1.1
2017/01/10 01:06:00.000  -2200208.1226   5924894.6242   -855929.5583   2  10   0.0137   0.0126   0.0050   0.0077  -0.0056   0.0027   0.00    1.1
2017/01/10 01:06:30.000  -2200208.0951   5924894.6243   -855929.5617   2  10   0.0134   0.0124   0.0053   0.0074  -0.0054   0.0023   0.00    1.1
2017/01/10 01:07:00.000  -2200208.0607   5924894.6307   -855929.5649   2  10   0.0134   0.0125   0.0051   0.0075  -0.0055   0.0024   0.00    1.1
2017/01/10 01:07:30.000  -2200208.0297   5924894.6360   -855929.5658   2  10   0.0134   0.0126   0.0051   0.0074  -0.0053   0.0025   0.00    1.1
2017/01/10 01:08:00.000  -2200208.0055   5924894.6346   -855929.5663   2  10   0.0133   0.0125   0.0050   0.0073  -0.0053   0.0025   0.00    1.1
2017/01/10 01:08:30.000  -2200207.9841   5924894.6358   -855929.5687   2  10   0.0131   0.0124   0.0053   0.0072  -0.0056   0.0019   0.00    1.0
2017/01/10 01:09:00.000  -2200207.9623   5924894.6402   -855929.5729   2  10   0.0132   0.0124   0.0050   0.0071  -0.0055   0.0025   0.00    1.0
2017/01/10 01:09:30.000  -2200207.9442   5924894.6415   -855929.5766   2  10   0.0130   0.0124   0.0052   0.0070  -0.0053   0.0021   0.00    1.0
2017/01/10 01:10:00.000  -2200207.9298   5924894.6481   -855929.5770   2  10   0.0128   0.0123   0.0049   0.0067  -0.0055   0.0020   0.00    1.0
2017/01/10 01:10:30.000  -2200207.9115   5924894.6569   -855929.5808   2  10   0.0128   0.0123   0.0051   0.0069  -0.0057   0.0020   0.00    1.0
2017/01/10 01:11:00.000  -2200207.8973   5924894.6627   -855929.5806   2  10   0.0128   0.0124   0.0054   0.0068  -0.0052   0.0019   0.00    1.0
2017/01/10 01:11:30.000  -2200207.8801   5924894.6700   -855929.5820   2  10   0.0125   0.0123   0.0048   0.0065  -0.0056   0.0026   0.00    1.0
2017/01/10 01:12:00.000  -2200207.8640   5924894.6772   -855929.5804   2  10   0.0123   0.0122   0.0055   0.0062  -0.0054   0.0015   0.00    1.0
2017/01/10 01:12:30.000  -2200207.8511   5924894.6888   -855929.5800   2  10   0.0125   0.0123   0.0051   0.0064  -0.0055   0.0020   0.00    1.0
2017/01/10 01:13:00.000  -2200207.8309   5924894.6988   -855929.5807   2  10   0.0122   0.0122   0.0047   0.0061  -0.0055   0.0025   0.00    1.0
2017/01/10 01:13:30.000  -2200207.8094   5924894.7098   -855929.5764   2  10   0.0123   0.0122   0.0052   0.0061  -0.0055   0.0020   0.00    1.0
2017/01/10 01:14:00.000  -2200207.7872   5924894.7109   -855929.5773   2  10   0.0122   0.0122   0.0051   0.0061  -0.0057   0.0022   0.00    1.0
2017/01/10 01:14:30.000  -2200207.7687   5924894.7230   -855929.5754   2  10   0.0120   0.0123   0.0055   0.0059  -0.0052   0.0018   0.00    1.0
2017/01/10 01:15:00.000  -2200207.7437   5924894.7229   -855929.5752   2  10   0.0121   0.0123   0.0046   0.0060  -0.0055   0.0021   0.00    1.1
2017/01/10 01:15:30.000  -2200207.7262   5924894.7326   -855929.5731   2  10   0.0119   0.0122   0.0051   0.0059  -0.0055   0.0021   0.00    1.1
2017/01/10 01:16:00.000  -2200207.7097   5924894.7411   -855929.5745   2  10   0.0119   0.0123   0.0055   0.0056  -0.0052   0.0015   0.00    1.1
2017/01/10 01:16:30.000  -2200207.6818   5924894.7497   -855929.5742   2  10   0.0117   0.0122   0.0048   0.0057  -0.0054   0.0021   0.00    1.1
2017/01/10 01:17:00.000  -2200207.6577   5924894.7417   -855929.5699   2  10   0.0117   0.0122   0.0044   0.0055  -0.0055   0.0026   0.00    1.1
2017/01/10 01:17:30.000  -2200207.6355   5924894.7369   -855929.5719   2  10   0.0114   0.0120   0.0048   0.0049  -0.0054   0.0010   0.00    1.1
2017/01/10 01:18:00.000  -2200207.6132   5924894.7465   -855929.5740   2  10   0.0115   0.0120   0.0051   0.0048  -0.0056   0.0010   0.00    1.1
2017/01/10 01:18:30.000  -2200207.5983   5924894.7604   -855929.5757   2  10   0.0113   0.0122   0.0049   0.0050  -0.0055   0.0024   0.00    1.1
2017/01/10 01:19:00.000  -2200207.5807   5924894.7551   -855929.5720   2  10   0.0113   0.0121   0.0048   0.0049  -0.0056   0.0019   0.00    1.1
2017/01/10 01:19:30.000  -2200207.5724   5924894.7677   -855929.5804   2  10   0.0113   0.0121   0.0047   0.0048  -0.0056   0.0019   0.00    1.1
2017/01/10 01:20:00.000  -2200207.5526   5924894.7706   -855929.5841   2  10   0.0113   0.0121   0.0050   0.0048  -0.0056   0.0020   0.00    1.1
2017/01/10 01:20:30.000  -2200207.5364   5924894.7781   -855929.5855   2  10   0.0112   0.0122   0.0054   0.0045  -0.0052   0.0011   0.00    1.1
2017/01/10 01:21:00.000  -2200207.5219   5924894.7956   -855929.5866   2  10   0.0112   0.0122   0.0044   0.0047  -0.0055   0.0024   0.00    1.1
2017/01/10 01:21:30.000  -2200207.5142   5924894.8171   -855929.5940   2  10   0.0108   0.0125   0.0043   0.0038  -0.0054   0.0020   0.00    1.0
2017/01/10 01:22:00.000  -2200207.4979   5924894.8229   -855929.5933   2  10   0.0109   0.0126   0.0050   0.0041  -0.0053   0.0013   0.00    1.0
2017/01/10 01:22:30.000  -2200207.4772   5924894.8318   -855929.5960   2  10   0.0108   0.0127   0.0051   0.0039  -0.0052   0.0017   0.00    1.0
2017/01/10 01:23:00.000  -2200207.4589   5924894.8368   -855929.5974   2  10   0.0107   0.0126   0.0046   0.0038  -0.0052   0.0024   0.00    1.0
2017/01/10 01:23:30.000  -2200207.4476   5924894.8471   -855929.5947   2  10   0.0107   0.0126   0.0051   0.0036  -0.0055   0.0021   0.00    1.0
2017/01/10 01:24:00.000  -2200207.4334   5924894.8615   -855929.5974   2  10   0.0108   0.0127   0.0050   0.0034  -0.0052   0.0019   0.00    1.0
2017/01/10 01:24:30.000  -2200207.4191   5924894.8822   -855929.5976   2  10   0.0106   0.0128   0.0051   0.0036  -0.0051   0.0019   0.00    1.0
2017/01/10 01:25:00.000  -2200207.4098   5924894.8841   -855929.5988   2  10   0.0104   0.0125   0.0047   0.0027  -0.0056   0.0020   0.00    1.0
2017/01/10 01:25:30.000  -2200207.3883   5924894.8836   -855929.5959   2  10   0.0104   0.0127   0.0053   0.0027  -0.0053   0.0018   0.00    1.0
2017/01/10 01:26:00.000  -2200207.3763   5924894.8922   -855929.5936   2  10   0.0104   0.0127   0.0053   0.0025  -0.0052   0.0019   0.00    1.0
2017/01/10 01:26:30.000  -2200207.3680   5924894.8979   -855929.5834   2   9   0.0104   0.0126   0.0044   0.0027  -0.0056   0.0021   0.00    1.4
2017/01/10 01:27:00.000  -2200207.3515   5924894.8996   -855929.5790   2   9   0.0102   0.0126   0.0043   0.0018  -0.0057   0.0022   0.00    1.4
2017/01/10 01:27:30.000  -2200207.3387   5924894.9066   -855929.5744   2   9   0.0103   0.0128   0.0046   0.0023  -0.0054   0.0022   0.00    1.4
2017/01/10 01:28:00.000  -2200207.3260   5924894.9143   -855929.5758   2   9   0.0102   0.0128   0.0049   0.0020  -0.0053   0.0019   0.00    1.3
2017/01/10 01:28:30.000  -2200207.3150   5924894.9229   -855929.5756   2   9   0.0101   0.0128   0.0054   0.0011  -0.0053   0.0018   0.00    1.3
2017/01/10 01:29:00.000  -2200207.3015   5924894.9404   -855929.5807   2   9   0.0101   0.0128   0.0048  -0.0004  -0.0050   0.0016   0.00    1.3
2017/01/10 01:29:30.000  -2200207.2913   5924894.9563   -855929.5879   2   9   0.0102   0.0128   0.0046   0.0010  -0.0053   0.0023   0.00    1.3
2017/01/10 01:30:00.000  -2200207.2786   5924894.9577   -855929.5902   2   9   0.0099   0.0128   0.0048  -0.0015  -0.0052   0.0016   0.00    1.3
2017/01/10 01:30:30.000  -2200207.2641   5924894.9560   -855929.5883   2   9   0.0099   0.0128   0.0050  -0.0010  -0.0052   0.0019   0.00    1.3
2017/01/10 01:31:00.000  -2200207.2451   5924894.9552   -855929.5950   2   9   0.0098   0.0127   0.0041  -0.0018  -0.0056   0.0022   0.00    1.2
2017/01/10 01:31:30.000  -2200207.2308   5924894.9605   -855929.6032   2   9   0.0098   0.0128   0.0049  -0.0020  -0.0054   0.0017   0.00    1.2
2017/01/10 01:32:00.000  -2200207.2189   5924894.9611   -855929.6031   2   9   0.0099   0.0129   0.0047  -0.0015  -0.0053   0.0020   0.00    1.2
2017/01/10 01:32:30.000  -2200207.2035   5924894.9639   -855929.5999   2   9   0.0096   0.0128   0.0046  -0.0025  -0.0056   0.0020   0.00    1.2
2017/01/10 01:33:00.000  -2200207.1937   5924894.9696   -855929.6006   2   9   0.0096   0.0128   0.0046  -0.0028  -0.0054   0.0018   0.00    1.2
2017/01/10 01:33:30.000  -2200207.1807   5924894.9734   -855929.6072   2   9   0.0097   0.0129   0.0047  -0.0029  -0.0053   0.0019   0.00    1.2
2017/01/10 01:34:00.000  -2200207.1832   5924894.9890   -855929.6104   2   9   0.0096   0.0129   0.0042  -0.0029  -0.0053   0.0019   0.00    1.2
2017/01/10 01:34:30.000  -2200207.1746   5924894.9939   -855929.6139   2   9   0.0095   0.0128   0.0044  -0.0032  -0.0054   0.0022   0.00    1.1
2017/01/10 01:35:00.000  -2200207.1608   5924894.9942   -855929.6186   2   9   0.0095   0.0128   0.0047  -0.0033  -0.0054   0.0021   0.00    1.1
2017/01/10 01:35:30.000  -2200207.1558   5924895.0016   -855929.6194   2   9   0.0093   0.0130   0.0050  -0.0033  -0.0052   0.0019   0.00    1.1
2017/01/10 01:36:00.000  -2200207.1495   5924895.0103   -855929.6151   2   9   0.0094   0.0129   0.0048  -0.0033  -0.0052   0.0025   0.00    1.1
2017/01/10 01:36:30.000  -2200207.1429   5924895.0134   -855929.6115   2   9   0.0092   0.0128   0.0044  -0.0040  -0.0054   0.0016   0.00    1.1
2017/01/10 01:37:00.000  -2200207.1275   5924895.0026   -855929.6075   2   9   0.0092   0.0130   0.0045  -0.0036  -0.0053   0.0019   0.00    1.0
2017/01/10 01:37:30.000  -2200207.1168   5924895.0107   -855929.6104   2   9   0.0091   0.0129   0.0051  -0.0037  -0.0053   0.0026   0.00    1.0
2017/01/10 01:38:00.000  -2200207.1055   5924895.0034   -855929.6035   2   8   0.0094   0.0142   0.0049  -0.0053  -0.0066   0.0030   0.00    1.0
2017/01/10 01:38:30.000  -2200207.1029   5924895.0108   -855929.6075   2   8   0.0092   0.0143   0.0051  -0.0055  -0.0066   0.0029   0.00    1.0
2017/01/10 01:39:00.000  -2200207.0994   5924895.0258   -855929.6106   2   8   0.0094   0.0143   0.0057  -0.0055  -0.0065   0.0025   0.00    1.1
2017/01/10 01:39:30.000  -2200207.0924   5924895.0510   -855929.6136   2   8   0.0093   0.0143   0.0054  -0.0053  -0.0066   0.0029   0.00    1.1
2017/01/10 01:40:00.000  -2200207.0894   5924895.0716   -855929.6198   2   8   0.0093   0.0143   0.0051  -0.0054  -0.0066   0.0028   0.00    1.1
2017/01/10 01:40:30.000  -2200207.0886   5924895.1060   -855929.6248   2   8   0.0092   0.0144   0.0053  -0.0054  -0.0065   0.0030   0.00    1.1
2017/01/10 01:41:00.000  -2200207.0805   5924895.1197   -855929.6295   2   8   0.0093   0.0144   0.0047  -0.0055  -0.0066   0.0030   0.00    1.2
2017/01/10 01:41:30.000  -2200207.0698   5924895.1297   -855929.6311   2   8   0.0092   0.0144   0.0053  -0.0057  -0.0066   0.0024   0.00    1.1
2017/01/10 01:42:00.000  -2200207.0653   5924895.1446   -855929.6399   2   8   0.0090   0.0144   0.0051  -0.0057  -0.0065   0.0026   0.00    1.1
2017/01/10 01:42:30.000  -2200207.0527   5924895.1565   -855929.6436   2   8   0.0090   0.0144   0.0049  -0.0057  -0.0067   0.0025   0.00    1.0
2017/01/10 01:43:00.000  -2200207.0525   5924895.1803   -855929.6483   2   8   0.0092   0.0144   0.0055  -0.0056  -0.0064   0.0025   0.00    1.0
2017/01/10 01:43:30.000  -2200207.0442   5924895.1961   -855929.6509   2   8   0.0092   0.0144   0.0053  -0.0056  -0.0066   0.0027   0.00    1.0
2017/01/10 01:44:00.000  -2200207.0340   5924895.2158   -855929.6555   2   8   0.0091   0.0144   0.0047  -0.0056  -0.0064   0.0030   0.00    1.0
2017/01/10 01:44:30.000  -2200207.0308   5924895.2522   -855929.6632   2   8   0.0090   0.0144   0.0047  -0.0057  -0.0064   0.0030   0.00    1.0
2017/01/10 01:45:00.000  -2200207.0175   5924895.2600   -855929.6717   2   8   0.0090   0.0145   0.0051  -0.0056  -0.0064   0.0030   0.00    1.0
2017/01/10 01:45:30.000  -2200207.0085   5924895.2764   -855929.6744   2   8   0.0090   0.0145   0.0055  -0.0057  -0.0063   0.0027   0.00    1.0
2017/01/10 01:46:00.000  -2200207.0030   5924895.2965   -855929.6790   2   8   0.0088   0.0144   0.0051  -0.0058  -0.0065   0.0024   0.00    1.0
2017/01/10 01:46:30.000  -2200206.9923   5924895.2980   -855929.6806   2   8   0.0088   0.0144   0.0047  -0.0058  -0.0065   0.0023   0.00    1.1
2017/01/10 01:47:00.000  -2200206.9785   5924895.3012   -855929.6817   2   8   0.0087   0.0144   0.0048  -0.0060  -0.0065   0.0021   0.00    1.1
2017/01/10 01:47:30.000  -2200206.9657   5924895.3071   -855929.6840   2   8   0.0088   0.0143   0.0048  -0.0060  -0.0066   0.0025   0.00    1.1
2017/01/10 01:48:00.000  -2200206.9605   5924895.3193   -855929.6886   2   8   0.0088   0.0144   0.0047  -0.0056  -0.0064   0.0031   0.00    1.1
2017/01/10 01:48:30.000  -2200206.9466   5924895.3291   -855929.6967   2   8   0.0088   0.0144   0.0051  -0.0058  -0.0064   0.0028   0.00    1.2
2017/01/10 01:49:00.000  -2200206.9277   5924895.3289   -855929.6963   2   8   0.0088   0.0144   0.0046  -0.0058  -0.0062   0.0029   0.00    1.2
2017/01/10 01:49:30.000  -2200206.9170   5924895.3771   -855929.7031   2   7   0.0088   0.0171   0.0052  -0.0069  -0.0069   0.0023   0.00    1.3
2017/01/10 01:50:00.000  -2200206.9054   5924895.3901   -855929.7085   2   7   0.0088   0.0171   0.0048  -0.0069  -0.0068   0.0024   0.00    1.3
2017/01/10 01:50:30.000  -2200206.8871   5924895.3921   -855929.7141   2   7   0.0089   0.0170   0.0051  -0.0069  -0.0070   0.0026   0.00    1.4
2017/01/10 01:51:00.000  -2200206.8747   5924895.4018   -855929.7194   2   7   0.0089   0.0170   0.0046  -0.0067  -0.0070   0.0028   0.00    1.4
2017/01/10 01:51:30.000  -2200206.8654   5924895.4175   -855929.7285   2   7   0.0087   0.0170   0.0046  -0.0071  -0.0070   0.0026   0.00    1.5
2017/01/10 01:52:00.000  -2200206.8557   5924895.4248   -855929.7341   2   7   0.0088   0.0170   0.0053  -0.0070  -0.0067   0.0024   0.00    1.5
2017/01/10 01:52:30.000  -2200206.8506   5924895.4565   -855929.7449   2   7   0.0088   0.0170   0.0050  -0.0069  -0.0068   0.0028   0.00    1.5
2017/01/10 01:53:00.000  -2200206.8466   5924895.4756   -855929.7552   2   7   0.0088   0.0169   0.0050  -0.0068  -0.0067   0.0028   0.00    1.5
2017/01/10 01:53:30.000  -2200206.8408   5924895.4861   -855929.7605   2   7   0.0086   0.0169   0.0048  -0.0070  -0.0068   0.0017   0.00    1.5
2017/01/10 01:54:00.000  -2200206.8356   5924895.5090   -855929.7699   2   7   0.0088   0.0169   0.0055  -0.0070  -0.0066   0.0019   0.00    1.4
2017/01/10 01:54:30.000  -2200206.8274   5924895.5200   -855929.7714   2   7   0.0088   0.0168   0.0046  -0.0069  -0.0066   0.0026   0.00    1.4
2017/01/10 01:55:00.000  -2200206.8219   5924895.5225   -855929.7727   2   7   0.0087   0.0168   0.0046  -0.0070  -0.0065   0.0023   0.00    1.4
2017/01/10 01:55:30.000  -2200206.8192   5924895.5426   -855929.7826   2   7   0.0087   0.0167   0.0048  -0.0069  -0.0066   0.0028   0.00    1.4
2017/01/10 01:56:00.000  -2200206.8158   5924895.5600   -855929.7894   2   7   0.0086   0.0167   0.0041  -0.0069  -0.0065   0.0024   0.00    1.4
2017/01/10 01:56:30.000  -2200206.8157   5924895.5833   -855929.7943   2   7   0.0086   0.0166   0.0051  -0.0069  -0.0064   0.0022   0.00    1.4
2017/01/10 01:57:00.000  -2200206.8087   5924895.5806   -855929.7958   2   7   0.0087   0.0166   0.0043  -0.0070  -0.0065   0.0017   0.00    1.4
2017/01/10 01:57:30.000  -2200206.8009   5924895.5866   -855929.8021   2   7   0.0087   0.0165   0.0051  -0.0070  -0.0064   0.0025   0.00    1.3
2017/01/10 01:58:00.000  -2200206.7999   5924895.6072   -855929.8058   2   7   0.0087   0.0165   0.0048  -0.0070  -0.0064   0.0020   0.00    1.3
2017/01/10 01:58:30.000  -2200206.7995   5924895.6318   -855929.8113   2   7   0.0087   0.0164   0.0052  -0.0069  -0.0063   0.0025   0.00    1.3
2017/01/10 01:59:00.000  -2200206.7927   5924895.6598   -855929.8204   2   7   0.0086   0.0163   0.0049  -0.0070  -0.0063   0.0021   0.00    1.3
2017/01/10 01:59:30.000  -2200206.7882   5924895.6642   -855929.8270   2   7   0.0086   0.0163   0.0043  -0.0069  -0.0062   0.0026   0.00    1.3
2017/01/10 02:00:00.000  -2200206.7906   5924895.6826   -855929.8323   2   7   0.0085   0.0162   0.0047  -0.0069  -0.0062   0.0021   0.00    1.3
2017/01/10 02:00:30.000  -2200206.7898   5924895.6942   -855929.8374   2   7   0.0087   0.0162   0.0051  -0.0069  -0.0062   0.0025   0.00    1.3
2017/01/10 02:01:00.000  -2200206.7866   5924895.7030   -855929.8430   2   7   0.0086   0.0161   0.0055  -0.0069  -0.0062   0.0012   0.00    1.3
2017/01/10 02:01:30.000  -2200206.7840   5924895.7076   -855929.8491   2   7   0.0087   0.0160   0.0048  -0.0069  -0.0061   0.0028   0.00    1.3
2017/01/10 02:02:00.000  -2200206.7886   5924895.7465   -855929.8614   2   7   0.0085   0.0160   0.0049  -0.0068  -0.0060   0.0018   0.00    1.2
2017/01/10 02:02:30.000  -2200206.7870   5924895.7574   -855929.8635   2   7   0.0084   0.0159   0.0046  -0.0069  -0.0059   0.0021   0.00    1.2
2017/01/10 02:03:00.000  -2200206.7888   5924895.7703   -855929.8663   2   7   0.0084   0.0158   0.0042  -0.0068  -0.0059   0.0020   0.00    1.2
2017/01/10 02:03:30.000  -2200206.7888   5924895.8031   -855929.8739   2   7   0.0085   0.0157   0.0041  -0.0068  -0.0059  -0.0008   0.00    1.2
2017/01/10 02:04:00.000  -2200206.7863   5924895.8179   -855929.8767   2   7   0.0084   0.0157   0.0043  -0.0069  -0.0058  -0.0010   0.00    1.2
2017/01/10 02:04:30.000  -2200206.7907   5924895.8352   -855929.8794   2   7   0.0085   0.0156   0.0046  -0.0068  -0.0058   0.0008   0.00    1.2
2017/01/10 02:05:00.000  -2200206.7880   5924895.8318   -855929.8720   2   7   0.0085   0.0155   0.0054  -0.0067  -0.0057   0.0024   0.00    1.2
2017/01/10 02:05:30.000  -2200206.7838   5924895.8343   -855929.8736   2   7   0.0083   0.0155   0.0047  -0.0068  -0.0058   0.0014   0.00    1.2
2017/01/10 02:06:00.000  -2200206.7802   5924895.8453   -855929.8764   2   7   0.0084   0.0154   0.0046  -0.0067  -0.0056   0.0020   0.00    1.2
2017/01/10 02:06:30.000  -2200206.7772   5924895.8467   -855929.8757   2   7   0.0084   0.0153   0.0044  -0.0067  -0.0055   0.0020   0.00    1.2
2017/01/10 02:07:00.000  -2200206.7769   5924895.8452   -855929.8777   2   7   0.0082   0.0152   0.0042  -0.0067  -0.0057   0.0020   0.00    1.2
2017/01/10 02:07:30.000  -2200206.7755   5924895.8299   -855929.8726   2   7   0.0083   0.0152   0.0049  -0.0067  -0.0056   0.0014   0.00    1.2
2017/01/10 02:08:00.000  -2200206.7727   5924895.8210   -855929.8731   2   7   0.0084   0.0151   0.0051  -0.0067  -0.0056   0.0017   0.00    1.2
2017/01/10 02:08:30.000  -2200206.7789   5924895.8259   -855929.8768   2   7   0.0083   0.0150   0.0047  -0.0067  -0.0054   0.0017   0.00    1.2
2017/01/10 02:09:00.000  -2200206.7737   5924895.8122   -855929.8719   2   7   0.0084   0.0149   0.0049  -0.0066  -0.0053   0.0021   0.00    1.2
2017/01/10 02:09:30.000  -2200206.7763   5924895.8197   -855929.8704   2   7   0.0083   0.0149   0.0046  -0.0065  -0.0053   0.0019   0.00    1.2
2017/01/10 02:10:00.000  -2200206.7735   5924895.8129   -855929.8707   2   7   0.0083   0.0148   0.0047  -0.0066  -0.0054   0.0010   0.00    1.2
2017/01/10 02:10:30.000  -2200206.7808   5924895.8197   -855929.8744   2   7   0.0083   0.0147   0.0041  -0.0066  -0.0053   0.0006   0.00    1.2
2017/01/10 02:11:00.000  -2200206.7848   5924895.8084   -855929.8738   2   7   0.0083   0.0146   0.0051  -0.0066  -0.0054   0.0019   0.00    1.1
2017/01/10 02:11:30.000  -2200206.7831   5924895.8016   -855929.8787   2   7   0.0083   0.0146   0.0049  -0.0065  -0.0051   0.0018   0.00    1.1
2017/01/10 02:12:00.000  -2200206.7866   5924895.7944   -855929.8801   2   7   0.0084   0.0145   0.0051  -0.0065  -0.0051   0.0026   0.00    1.1
2017/01/10 02:12:30.000  -2200206.7918   5924895.7998   -855929.8788   2   7   0.0083   0.0144   0.0049  -0.0065  -0.0050   0.0018   0.00    1.1
2017/01/10 02:13:00.000  -2200206.7902   5924895.7870   -855929.8780   2   7   0.0083   0.0143   0.0048  -0.0064  -0.0049   0.0013   0.00    1.1
2017/01/10 02:13:30.000  -2200206.7918   5924895.7892   -855929.8805   2   7   0.0083   0.0142   0.0043  -0.0065  -0.0051   0.0009   0.00    1.1
2017/01/10 02:14:00.000  -2200206.7907   5924895.7824   -855929.8758   2   7   0.0080   0.0142   0.0042  -0.0065  -0.0051   0.0003   0.00    1.1
2017/01/10 02:14:30.000  -2200206.7901   5924895.7824   -855929.8796   2   7   0.0080   0.0141   0.0046  -0.0065  -0.0051   0.0008   0.00    1.1
2017/01/10 02:15:00.000  -2200206.7952   5924895.7831   -855929.8764   2   7   0.0082   0.0140   0.0048  -0.0064  -0.0048   0.0025   0.00    1.1
2017/01/10 02:15:30.000  -2200206.8116   5924895.8114   -855929.8830   2   7   0.0080   0.0140   0.0048  -0.0065  -0.0050  -0.0003   0.00    1.0
2017/01/10 02:16:00.000  -2200206.8066   5924895.7975   -855929.8809   2   7   0.0080   0.0139   0.0049  -0.0064  -0.0048   0.0019   0.00    1.0
2017/01/10 02:16:30.000  -2200206.8151   5924895.8097   -855929.8834   2   7   0.0082   0.0138   0.0041  -0.0064  -0.0049  -0.0009   0.00    1.0
2017/01/10 02:17:00.000  -2200206.8168   5924895.8056   -855929.8815   2   7   0.0080   0.0138   0.0054  -0.0064  -0.0048   0.0009   0.00    1.0
2017/01/10 02:17:30.000  -2200206.8296   5924895.8135   -855929.8851   2   7   0.0082   0.0137   0.0052  -0.0063  -0.0048   0.0017   0.00    1.0
2017/01/10 02:18:00.000  -2200206.8400   5924895.8239   -855929.8888   2   7   0.0082   0.0136   0.0046  -0.0063  -0.0049   0.0015   0.00    1.0
2017/01/10 02:18:30.000  -2200206.8443   5924895.8149   -855929.8891   2   7   0.0082   0.0135   0.0051  -0.0062  -0.0047   0.0017   0.00    1.1
2017/01/10 02:19:00.000  -2200206.8563   5924895.8221   -855929.8909   2   7   0.0080   0.0134   0.0043  -0.0063  -0.0047  -0.0016   0.00    1.1
2017/01/10 02:19:30.000  -2200206.8547   5924895.8128   -855929.8854   2   7   0.0081   0.0134   0.0045  -0.0062  -0.0046   0.0015   0.00    1.1
2017/01/10 02:20:00.000  -2200206.8573   5924895.7915   -855929.8815   2   7   0.0080   0.0133   0.0048  -0.0062  -0.0045   0.0012   0.00    1.1
2017/01/10 02:20:30.000  -2200206.8606   5924895.7856   -855929.8867   2   7   0.0082   0.0132   0.0037  -0.0061  -0.0044  -0.0009   0.00    1.1
2017/01/10 02:21:00.000  -2200206.8658   5924895.7918   -855929.8884   2   7   0.0080   0.0132   0.0046  -0.0061  -0.0045   0.0005   0.00    1.1
2017/01/10 02:21:30.000  -2200206.8680   5924895.7855   -855929.8865   2   7   0.0079   0.0131   0.0042  -0.0061  -0.0044  -0.0009   0.00    1.2
2017/01/10 02:22:00.000  -2200206.8648   5924895.7651   -855929.8851   2   7   0.0080   0.0131   0.0051  -0.0062  -0.0046   0.0014   0.00    1.2
2017/01/10 02:22:30.000  -2200206.8650   5924895.7648   -855929.8827   2   7   0.0080   0.0130   0.0051  -0.0062  -0.0045   0.0016   0.00    1.2
2017/01/10 02:23:00.000  -2200206.8711   5924895.7747   -855929.8814   2   7   0.0079   0.0129   0.0053  -0.0061  -0.0042   0.0016   0.00    1.2
2017/01/10 02:23:30.000  -2200206.8799   5924895.7761   -855929.8795   2   7   0.0080   0.0128   0.0046  -0.0060  -0.0043  -0.0017   0.00    1.2
2017/01/10 02:24:00.000  -2200206.8853   5924895.7840   -855929.8863   2   7   0.0080   0.0128   0.0046  -0.0059  -0.0042  -0.0009   0.00    1.2
2017/01/10 02:24:30.000  -2200206.8808   5924895.7736   -855929.8851   2   7   0.0077   0.0128   0.0041  -0.0061  -0.0045  -0.0022   0.00    1.2
2017/01/10 02:25:00.000  -2200206.8764   5924895.7528   -855929.8906   2   7   0.0081   0.0127   0.0042  -0.0060  -0.0042  -0.0004   0.00    1.2
2017/01/10 02:25:30.000  -2200206.8871   5924895.7555   -855929.8946   2   7   0.0078   0.0126   0.0044  -0.0060  -0.0043  -0.0022   0.00    1.2
2017/01/10 02:26:00.000  -2200206.8985   5924895.7488   -855929.8952   2   7   0.0080   0.0125   0.0044  -0.0060  -0.0041   0.0007   0.00    1.1
2017/01/10 02:26:30.000  -2200206.9050   5924895.7548   -855929.8996   2   7   0.0078   0.0125   0.0043  -0.0060  -0.0042  -0.0018   0.00    1.1
2017/01/10 02:27:00.000  -2200206.9111   5924895.7440   -855929.9010   2   6   0.0079   0.0148   0.0056  -0.0064  -0.0068  -0.0011   0.00    1.0
2017/01/10 02:27:30.000  -2200206.9227   5924895.7467   -855929.9022   2   6   0.0078   0.0147   0.0056  -0.0065  -0.0068   0.0006   0.00    1.0
2017/01/10 02:28:00.000  -2200206.9379   5924895.7418   -855929.9005   2   6   0.0078   0.0147   0.0055  -0.0064  -0.0067  -0.0011   0.00    1.1
2017/01/10 02:28:30.000  -2200206.9493   5924895.7606   -855929.9125   2   6   0.0079   0.0146   0.0056  -0.0064  -0.0067  -0.0005   0.00    1.0
2017/01/10 02:29:00.000  -2200206.9599   5924895.7590   -855929.9166   2   6   0.0078   0.0145   0.0060  -0.0064  -0.0067   0.0011   0.00    1.0
2017/01/10 02:29:30.000  -2200206.9656   5924895.7476   -855929.9139   2   6   0.0079   0.0143   0.0063  -0.0064  -0.0066   0.0024   0.00    1.0
2017/01/10 02:30:00.000  -2200206.9683   5924895.7326   -855929.9099   2   6   0.0078   0.0143   0.0059  -0.0063  -0.0065   0.0016   0.00    1.0
2017/01/10 02:30:30.000  -2200206.9822   5924895.6998   -855929.9014   2   6   0.0078   0.0142   0.0061  -0.0063  -0.0065   0.0019   0.00    1.0
2017/01/10 02:31:00.000  -2200206.9910   5924895.6937   -855929.8953   2   6   0.0077   0.0141   0.0055  -0.0062  -0.0065  -0.0012   0.00    1.0
2017/01/10 02:31:30.000  -2200207.0008   5924895.7152   -855929.9031   2   6   0.0078   0.0140   0.0056  -0.0062  -0.0063  -0.0009   0.00    1.0
2017/01/10 02:32:00.000  -2200207.0062   5924895.7142   -855929.9100   2   6   0.0078   0.0139   0.0059  -0.0063  -0.0063   0.0019   0.00    1.1
2017/01/10 02:32:30.000  -2200207.0177   5924895.7347   -855929.9094   2   6   0.0078   0.0138   0.0055  -0.0062  -0.0063  -0.0005   0.00    1.1
2017/01/10 02:33:00.000  -2200207.0233   5924895.7464   -855929.9167   2   6   0.0079   0.0138   0.0058  -0.0062  -0.0062   0.0005   0.00    1.1
2017/01/10 02:33:30.000  -2200207.0243   5924895.7373   -855929.9176   2   6   0.0077   0.0137   0.0057  -0.0061  -0.0062   0.0013   0.00    1.1
2017/01/10 02:34:00.000  -2200207.0263   5924895.7215   -855929.9101   2   6   0.0078   0.0136   0.0057  -0.0062  -0.0062   0.0006   0.00    1.1
2017/01/10 02:34:30.000  -2200207.0278   5924895.7253   -855929.9059   2   6   0.0076   0.0135   0.0057  -0.0061  -0.0062   0.0008   0.00    1.1
2017/01/10 02:35:00.000  -2200207.0288   5924895.7292   -855929.9120   2   6   0.0078   0.0134   0.0055  -0.0061  -0.0061   0.0007   0.00    1.1
2017/01/10 02:35:30.000  -2200207.0407   5924895.7244   -855929.9128   2   6   0.0078   0.0134   0.0058  -0.0061  -0.0061   0.0018   0.00    1.1
2017/01/10 02:36:00.000  -2200207.0503   5924895.7217   -855929.9143   2   6   0.0079   0.0133   0.0060  -0.0060  -0.0060   0.0014   0.00    1.1
2017/01/10 02:36:30.000  -2200207.0563   5924895.6998   -855929.9126   2   6   0.0077   0.0132   0.0057  -0.0061  -0.0061   0.0013   0.00    1.1
2017/01/10 02:37:00.000  -2200207.0603   5924895.6879   -855929.9153   2   6   0.0077   0.0132   0.0059  -0.0060  -0.0059   0.0011   0.00    1.0
2017/01/10 02:37:30.000  -2200207.0622   5924895.6925   -855929.9223   2   6   0.0078   0.0131   0.0057  -0.0059  -0.0059   0.0013   0.00    1.0
2017/01/10 02:38:00.000  -2200207.0596   5924895.6797   -855929.9228   2   6   0.0078   0.0130   0.0060  -0.0060  -0.0059   0.0010   0.00    1.0
2017/01/10 02:38:30.000  -2200207.0695   5924895.6638   -855929.9208   2   6   0.0077   0.0129   0.0056  -0.0060  -0.0059  -0.0013   0.00    1.0
2017/01/10 02:39:00.000  -2200207.0793   5924895.6558   -855929.9132   2   6   0.0077   0.0129   0.0057  -0.0059  -0.0059   0.0016   0.00    1.0
2017/01/10 02:39:30.000  -2200207.0916   5924895.6474   -855929.9098   2   6   0.0077   0.0128   0.0058  -0.0059  -0.0058   0.0014   0.00    1.0
2017/01/10 02:40:00.000  -2200207.0952   5924895.6564   -855929.9096   2   6   0.0077   0.0127   0.0058  -0.0059  -0.0058   0.0013   0.00    1.0
2017/01/10 02:40:30.000  -2200207.0981   5924895.6274   -855929.9114   2   6   0.0079   0.0127   0.0059  -0.0060  -0.0058   0.0012   0.00    1.0
2017/01/10 02:41:00.000  -2200207.0991   5924895.6364   -855929.9130   2   6   0.0077   0.0126   0.0058  -0.0059  -0.0058   0.0017   0.00    1.0
2017/01/10 02:41:30.000  -2200207.1133   5924895.6430   -855929.9120   2   6   0.0077   0.0125   0.0057  -0.0059  -0.0057   0.0013   0.00    1.0
2017/01/10 02:42:00.000  -2200207.1146   5924895.6436   -855929.9221   2   6   0.0076   0.0125   0.0058  -0.0059  -0.0057   0.0010   0.00    1.1
2017/01/10 02:42:30.000  -2200207.1126   5924895.6378   -855929.9192   2   6   0.0077   0.0124   0.0056  -0.0058  -0.0057   0.0017   0.00    1.1
2017/01/10 02:43:00.000  -2200207.1217   5924895.6301   -855929.9173   2   6   0.0075   0.0124   0.0056  -0.0060  -0.0057   0.0007   0.00    1.1
2017/01/10 02:43:30.000  -2200207.1340   5924895.6303   -855929.9152   2   6   0.0077   0.0123   0.0058  -0.0058  -0.0056   0.0022   0.00    1.2
2017/01/10 02:44:00.000  -2200207.1367   5924895.6192   -855929.9107   2   6   0.0076   0.0123   0.0058  -0.0058  -0.0056   0.0012   0.00    1.2
2017/01/10 02:44:30.000  -2200207.1453   5924895.6330   -855929.9111   2   6   0.0073   0.0122   0.0055  -0.0059  -0.0056  -0.0010   0.00    1.2
2017/01/10 02:45:00.000  -2200207.1538   5924895.6342   -855929.9063   2   6   0.0075   0.0121   0.0055  -0.0057  -0.0055   0.0002   0.00    1.3
2017/01/10 02:45:30.000  -2200207.1651   5924895.6345   -855929.9049   2   6   0.0077   0.0121   0.0055  -0.0058  -0.0055   0.0005   0.00    1.3
2017/01/10 02:46:00.000  -2200207.1773   5924895.6414   -855929.9068   2   6   0.0077   0.0121   0.0057  -0.0057  -0.0056   0.0017   0.00    1.3
2017/01/10 02:46:30.000  -2200207.1819   5924895.6252   -855929.9035   2   6   0.0074   0.0120   0.0056  -0.0057  -0.0055   0.0011   0.00    1.4
2017/01/10 02:47:00.000  -2200207.1941   5924895.6447   -855929.9018   2   6   0.0076   0.0120   0.0055  -0.0058  -0.0055   0.0009   0.00    1.4
2017/01/10 02:47:30.000  -2200207.2055   5924895.6521   -855929.9075   2   6   0.0076   0.0119   0.0058  -0.0057  -0.0054   0.0015   0.00    1.4
2017/01/10 02:48:00.000  -2200207.2150   5924895.6504   -855929.9072   2   6   0.0079   0.0119   0.0059  -0.0057  -0.0054   0.0018   0.00    1.4
2017/01/10 02:48:30.000  -2200207.2167   5924895.6374   -855929.9046   2   6   0.0072   0.0118   0.0056  -0.0058  -0.0055   0.0016   0.00    1.5
2017/01/10 02:49:00.000  -2200207.2346   5924895.6507   -855929.9145   2   6   0.0076   0.0118   0.0058  -0.0058  -0.0055   0.0014   0.00    1.5
2017/01/10 02:49:30.000  -2200207.2382   5924895.6444   -855929.9130   2   6   0.0077   0.0118   0.0056  -0.0057  -0.0054   0.0018   0.00    1.5
2017/01/10 02:50:00.000  -2200207.2386   5924895.6308   -855929.9119   2   6   0.0076   0.0117   0.0056  -0.0057  -0.0054   0.0019   0.00    1.6
2017/01/10 02:50:30.000  -2200207.2501   5924895.6382   -855929.9111   2   6   0.0074   0.0116   0.0055  -0.0058  -0.0054   0.0006   0.00    1.6
2017/01/10 02:51:00.000  -2200207.2560   5924895.6318   -855929.9103   2   6   0.0076   0.0116   0.0057  -0.0057  -0.0053   0.0021   0.00    1.6
2017/01/10 02:51:30.000  -2200207.2586   5924895.6268   -855929.9103   2   6   0.0075   0.0115   0.0057  -0.0057  -0.0054   0.0013   0.00    1.6
2017/01/10 02:52:00.000  -2200207.2504   5924895.6028   -855929.9125   2   6   0.0075   0.0116   0.0056  -0.0057  -0.0053   0.0009   0.00    1.7
2017/01/10 02:52:30.000  -2200207.2560   5924895.6003   -855929.9182   2   6   0.0077   0.0115   0.0057  -0.0057  -0.0053   0.0014   0.00    1.7
2017/01/10 02:53:00.000  -2200207.2722   5924895.6138   -855929.9190   2   6   0.0072   0.0115   0.0057  -0.0056  -0.0054   0.0022   0.00    1.7
2017/01/10 02:53:30.000  -2200207.2728   5924895.6185   -855929.9144   2   6   0.0077   0.0114   0.0055  -0.0057  -0.0053   0.0016   0.00    1.7
2017/01/10 02:54:00.000  -2200207.2855   5924895.6108   -855929.9072   2   6   0.0075   0.0114   0.0056  -0.0058  -0.0053   0.0017   0.00    1.7
2017/01/10 02:54:30.000  -2200207.2943   5924895.6148   -855929.9068   2   6   0.0075   0.0114   0.0057  -0.0057  -0.0054   0.0018   0.00    1.7
2017/01/10 02:55:00.000  -2200207.2970   5924895.6002   -855929.9089   2   6   0.0076   0.0113   0.0059  -0.0057  -0.0052   0.0016   0.00    1.6
2017/01/10 02:55:30.000  -2200207.3120   5924895.6049   -855929.9020   2   6   0.0074   0.0113   0.0056  -0.0058  -0.0053   0.0014   0.00    1.6
2017/01/10 02:56:00.000  -2200207.3076   5924895.5873   -855929.8998   2   6   0.0076   0.0113   0.0057  -0.0057  -0.0053   0.0023   0.00    1.6
2017/01/10 02:56:30.000  -2200207.2996   5924895.5740   -855929.8959   2   6   0.0075   0.0112   0.0058  -0.0057  -0.0053   0.0017   0.00    1.6
2017/01/10 02:57:00.000  -2200207.3078   5924895.5809   -855929.8888   2   6   0.0073   0.0112   0.0056  -0.0057  -0.0053   0.0019   0.00    1.6
2017/01/10 02:57:30.000  -2200207.3095   5924895.5806   -855929.8819   2   6   0.0077   0.0112   0.0059  -0.0058  -0.0053   0.0022   0.00    1.6
2017/01/10 02:58:00.000  -2200207.3109   5924895.5823   -855929.8814   2   6   0.0076   0.0112   0.0059  -0.0057  -0.0053   0.0021   0.00    1.6
2017/01/10 02:58:30.000  -2200207.3077   5924895.5836   -855929.8858   2   6   0.0075   0.0111   0.0056  -0.0058  -0.0053   0.0017   0.00    1.6
2017/01/10 02:59:00.000  -2200207.3065   5924895.5809   -855929.8837   2   6   0.0077   0.0111   0.0056  -0.0057  -0.0054   0.0020   0.00    1.5
2017/01/10 02:59:30.000  -2200207.3131   5924895.5756   -855929.8782   2   6   0.0076   0.0111   0.0059  -0.0057  -0.0052   0.0019   0.00    1.5
2017/01/10 03:00:00.000  -2200207.3166   5924895.5748   -855929.8781   2   6   0.0073   0.0110   0.0059  -0.0058  -0.0053   0.0020   0.00    1.5
2017/01/10 03:00:30.000  -2200207.3172   5924895.5704   -855929.8790   2   6   0.0074   0.0110   0.0056  -0.0057  -0.0054   0.0020   0.00    1.4
2017/01/10 03:01:00.000  -2200207.3286   5924895.5770   -855929.8898   2   6   0.0074   0.0110   0.0057  -0.0058  -0.0053   0.0024   0.00    1.4
2017/01/10 03:01:30.000  -2200207.3242   5924895.5749   -855929.9006   2   6   0.0075   0.0110   0.0059  -0.0059  -0.0053   0.0024   0.00    1.4
2017/01/10 03:02:00.000  -2200207.3331   5924895.5646   -855929.8967   2   6   0.0074   0.0110   0.0058  -0.0059  -0.0053   0.0019   0.00    1.3
2017/01/10 03:02:30.000  -2200207.3536   5924895.5775   -855929.8967   2   6   0.0074   0.0110   0.0058  -0.0058  -0.0052   0.0019   0.00    1.3
2017/01/10 03:03:00.000  -2200207.3476   5924895.5668   -855929.8894   2   6   0.0077   0.0109   0.0056  -0.0057  -0.0054   0.0023   0.00    1.3
2017/01/10 03:03:30.000  -2200207.3563   5924895.5689   -855929.8942   2   6   0.0076   0.0109   0.0057  -0.0058  -0.0053   0.0024   0.00    1.3
2017/01/10 03:04:00.000  -2200207.3556   5924895.5724   -855929.9040   2   6   0.0076   0.0109   0.0059  -0.0058  -0.0054   0.0024   0.00    1.2
2017/01/10 03:04:30.000  -2200207.3534   5924895.5561   -855929.9068   2   6   0.0073   0.0109   0.0059  -0.0059  -0.0053   0.0026   0.00    1.2
2017/01/10 03:05:00.000  -2200207.3438   5924895.5398   -855929.9078   2   6   0.0075   0.0109   0.0056  -0.0058  -0.0054   0.0026   0.00    1.2
2017/01/10 03:05:30.000  -2200207.3454   5924895.5445   -855929.9119   2   6   0.0074   0.0110   0.0060  -0.0059  -0.0053   0.0028   0.00    1.1
2017/01/10 03:06:00.000  -2200207.3398   5924895.5365   -855929.9103   2   6   0.0072   0.0109   0.0060  -0.0060  -0.0053   0.0028   0.00    1.1
2017/01/10 03:06:30.000  -2200207.3431   5924895.5323   -855929.9106   2   6   0.0073   0.0109   0.0059  -0.0058  -0.0055   0.0031   0.00    1.1
2017/01/10 03:07:00.000  -2200207.3471   5924895.5408   -855929.9062   2   6   0.0078   0.0108   0.0060  -0.0058  -0.0055   0.0027   0.00    1.1
2017/01/10 03:07:30.000  -2200207.3475   5924895.5457   -855929.9088   2   6   0.0075   0.0108   0.0061  -0.0060  -0.0055   0.0029   0.00    1.0
2017/01/10 03:08:00.000  -2200207.3382   5924895.5431   -855929.9074   2   6   0.0074   0.0108   0.0059  -0.0059  -0.0055   0.0031   0.00    1.0
2017/01/10 03:08:30.000  -2200207.3384   5924895.5362   -855929.9036   2   6   0.0076   0.0108   0.0058  -0.0058  -0.0056   0.0033   0.00    1.0
2017/01/10 03:09:00.000  -2200207.3412   5924895.5360   -855929.9037   2   6   0.0076   0.0109   0.0060  -0.0058  -0.0055   0.0032   0.00    1.0
2017/01/10 03:09:30.000  -2200207.3294   5924895.5262   -855929.8926   2   6   0.0077   0.0108   0.0059  -0.0058  -0.0055   0.0032   0.00    1.1
2017/01/10 03:10:00.000  -2200207.3316   5924895.5257   -855929.8858   2   7   0.0077   0.0108   0.0059  -0.0059  -0.0056   0.0031   0.00    1.0
2017/01/10 03:10:30.000  -2200207.3282   5924895.5152   -855929.8808   2   7   0.0071   0.0106   0.0061  -0.0056  -0.0055   0.0029   0.00    1.0
2017/01/10 03:11:00.000  -2200207.3348   5924895.5164   -855929.8885   2   8   0.0073   0.0106   0.0060  -0.0054  -0.0054   0.0028   0.00    1.0
2017/01/10 03:11:30.000  -2200207.3334   5924895.5191   -855929.8853   2   8   0.0072   0.0100   0.0055  -0.0052  -0.0047   0.0028   0.00    1.0
2017/01/10 03:12:00.000  -2200207.3378   5924895.5259   -855929.8787   2   8   0.0070   0.0099   0.0054  -0.0051  -0.0042   0.0027   0.00    1.0
2017/01/10 03:12:30.000  -2200207.3449   5924895.5329   -855929.8807   2   8   0.0071   0.0098   0.0050  -0.0051  -0.0041   0.0025   0.00    1.0
2017/01/10 03:13:00.000  -2200207.3472   5924895.5342   -855929.8813   2   8   0.0071   0.0097   0.0052  -0.0051  -0.0040   0.0026   0.00    1.0
2017/01/10 03:13:30.000  -2200207.3475   5924895.5324   -855929.8793   2   8   0.0068   0.0096   0.0049  -0.0050  -0.0042   0.0025   0.00    1.0
2017/01/10 03:14:00.000  -2200207.3472   5924895.5204   -855929.8751   2   8   0.0071   0.0097   0.0052  -0.0051  -0.0038   0.0020   0.00    1.0
2017/01/10 03:14:30.000  -2200207.3492   5924895.5266   -855929.8699   2   8   0.0070   0.0096   0.0050  -0.0050  -0.0041   0.0029   0.00    1.0
2017/01/10 03:15:00.000  -2200207.3435   5924895.5178   -855929.8673   2   8   0.0070   0.0096   0.0047  -0.0049  -0.0041   0.0030   0.00    1.1
2017/01/10 03:15:30.000  -2200207.3427   5924895.5115   -855929.8571   2   8   0.0070   0.0095   0.0047  -0.0049  -0.0042   0.0030   0.00    1.1
2017/01/10 03:16:00.000  -2200207.3337   5924895.5088   -855929.8597   2   8   0.0070   0.0096   0.0051  -0.0052  -0.0038   0.0026   0.00    1.1
2017/01/10 03:16:30.000  -2200207.3394   5924895.5331   -855929.8610   2   9   0.0071   0.0095   0.0048  -0.0049  -0.0041   0.0027   0.00    1.0
2017/01/10 03:17:00.000  -2200207.3324   5924895.5108   -855929.8584   2   9   0.0068   0.0094   0.0046  -0.0048  -0.0038   0.0022   0.00    1.0
2017/01/10 03:17:30.000  -2200207.3314   5924895.4663   -855929.8480   2   9   0.0070   0.0093   0.0046  -0.0046  -0.0038   0.0027   0.00    1.0
2017/01/10 03:18:00.000  -2200207.3382   5924895.4734   -855929.8447   2   9   0.0068   0.0093   0.0047  -0.0047  -0.0035   0.0026   0.00    1.0
2017/01/10 03:18:30.000  -2200207.3348   5924895.4863   -855929.8445   2   9   0.0068   0.0094   0.0050  -0.0047  -0.0030   0.0020   0.00    1.0
2017/01/10 03:19:00.000  -2200207.3356   5924895.4798   -855929.8409   2   9   0.0070   0.0094   0.0046  -0.0047  -0.0034   0.0023   0.00    1.0
2017/01/10 03:19:30.000  -2200207.3347   5924895.4722   -855929.8423   2   9   0.0067   0.0093   0.0046  -0.0046  -0.0033   0.0025   0.00    1.0
2017/01/10 03:20:00.000  -2200207.3398   5924895.4834   -855929.8473   2   9   0.0067   0.0093   0.0047  -0.0045  -0.0033   0.0023   0.00    1.1
2017/01/10 03:20:30.000  -2200207.3344   5924895.4759   -855929.8399   2   9   0.0067   0.0092   0.0042  -0.0047  -0.0034   0.0021   0.00    1.1
